~Version ---------------------------------------------------
VERS.   2.0 : CWLS log ASCII Standard -VERSION 2.0
WRAP.    NO : One line per depth step
DLM . SPACE : Column Data Section Delimiter
~Well ------------------------------------------------------
STRT.m          1000.00000 : START DEPTH
STOP.m          2000.00000 : STOP DEPTH
STEP.m             0.10000 : STEP
NULL.             -9999.25 : NULL VALUE
COMP. FORCE 2020 Recreator : 
WELL.   WELL_FORCE_2020_06 : 
FLD .                      : FIELD
LOC .                      : LOCATION
PROV.                      : PROVINCE
CNTY.                      : COUNTY
STAT.                      : STATE
CTRY.                      : COUNTRY
SRVC.                      : SERVICE COMPANY
DATE.                      : DATE
UWI .                      : UNIQUE WELL ID
API .                      : API NUMBER
~Curve Information -----------------------------------------
DEPT                            .m      : 
CALI                            .in     : 
RSHA                            .ohm.m  : 
RMED                            .ohm.m  : 
RDEP                            .ohm.m  : 
RHOB                            .g/cm3  : 
GR                              .gAPI   : 
NPHI                            .v/v    : 
PEF                             .b/e    : 
DTC                             .us/ft  : 
SP                              .mV     : 
BS                              .in     : 
FORCE_2020_LITHOFACIES_LITHOLOGY.code   : 
~Params ----------------------------------------------------
~Other -----------------------------------------------------
~ASCII -----------------------------------------------------
# ...
 1599.10000    8.57888   46.95762   46.19003   46.35353    2.68282   20.19978    0.10136    5.04868   59.05848   -4.57413    8.50000 70000.00000
 1599.20000    8.57755   45.78666   44.77730   45.24439    2.68257   20.02653    0.10125    5.04587   58.88095   -4.57981    8.50000 70000.00000
 1599.30000    8.57740   43.96577   43.21322   43.51909    2.68434   19.99053    0.10121    5.05487   58.56871   -4.77027    8.50000 70000.00000
 1599.40000    8.57840   40.31613   39.53520   39.97169    2.68917   20.13599    0.10077    5.05704   58.30289   -4.66616    8.50000 70000.00000
 1599.50000    8.57555   50.72106   48.82651   49.07101    2.68499   19.83053    0.10136    5.06513   57.97893   -4.65588    8.50000 70000.00000
 1599.60000    8.57659   50.58457   48.90081   49.03533    2.68402   19.27787    0.10312    5.06376   57.95020   -4.67173    8.50000 70000.00000
 1599.70000    8.57727   50.63301   49.01269   49.09930    2.68391   18.94633    0.10476    5.05929   58.53396   -4.48528    8.50000 70000.00000
 1599.80000    8.57788   47.57634   46.17667   46.23833    2.68420   19.76111    0.10620    5.05230   58.88595   -4.59570    8.50000 70000.00000
 1599.90000    8.57954   49.71602   48.26565   48.11297    2.68523   19.66477    0.10652    5.04888   58.64984   -4.81810    8.50000 70000.00000
 1600.00000    8.58090   50.09944   48.82577   48.64356    2.68458   19.74458    0.10700    5.03306   58.15792   -4.88356    8.50000 70000.00000
 1600.10000    8.58185   50.94422   49.55978   49.49486    2.68800   20.20028    0.10812    5.03187   58.21331   -4.13558    8.50000 70000.00000
 1600.20000    8.58293   51.69278   50.40829   50.04611    2.68839   19.75776    0.10652    5.02837   58.33200   -3.75747    8.50000 70000.00000
 1600.30000    8.58322   53.81224   52.54256   52.24521    2.68976   19.65239    0.10481    5.02856   58.04133   -3.55846    8.50000 70000.00000
 1600.40000    8.58406   55.28954   54.62740   53.95277    2.68933   19.77273    0.10707    5.02703   57.66297   -3.93171    8.50000 70000.00000
 1600.50000    8.58934   54.76897   53.98664   53.34270    2.68886   19.96566    0.10648    5.02484   57.70390   -3.89306    8.50000 70000.00000
 1600.60000    8.58831   54.52946   54.14648   53.34424    2.69205   20.09746    0.10586    5.04137   57.56410   -4.05146    8.50000 70000.00000
 1600.70000    8.58706   51.76917   51.93941   51.06143    2.69119   20.09882    0.10443    5.03363   57.11974   -3.80519    8.50000 70000.00000
 1600.80000    8.58294   49.30708   49.52920   48.58259    2.68742   20.36573    0.10577    5.03165   57.77976   -4.01304    8.50000 70000.00000
 1600.90000    8.58550   49.14301   49.24638   48.30773    2.68759   20.51538    0.10447    5.02356   57.77196   -4.06665    8.50000 70000.00000
 1601.00000    8.58433   49.60231   49.74134   48.81354    2.68843   20.71759    0.10373    5.04010   57.80226   -4.17352    8.50000 70000.00000
 1601.10000    8.58218   51.01245   51.43341   50.14467    2.68938   19.76690    0.10327    5.03276   57.68378   -4.15939    8.50000 70000.00000
 1601.20000    8.58211   48.30759   49.09255   47.75624    2.68646   20.05106    0.10085    5.02991   57.67787   -4.01799    8.50000 70000.00000
 1601.30000    8.58229   47.26503   48.23766   46.76285    2.68682   20.12888    0.09965    5.03819   57.91794   -3.63582    8.50000 70000.00000
 1601.40000    8.58225   48.52241   49.50725   47.85278    2.68411   19.63321    0.09886    5.03849   58.43893   -3.75846    8.50000 70000.00000
 1601.50000    8.58447   48.60587   49.98293   48.34838    2.68191   19.43768    0.09822    5.04739   58.80080   -3.92215    8.50000 70000.00000
 1601.60000    8.58808   45.22616   47.29971   45.66050    2.68336   19.98920    0.09934    5.05258   58.85433   -4.13564    8.50000 70000.00000
 1601.70000    8.58738   52.49514   54.50780   52.76070    2.68680   20.27611    0.09832    5.05050   59.02209   -4.44206    8.50000 70000.00000
 1601.80000    8.58800   53.83621   55.89254   54.26798    2.68217   20.43786    0.09813    5.06557   58.84896   -4.68101    8.50000 70000.00000
 1601.90000    8.58812   54.03096   55.89561   54.51578    2.68539   19.77735    0.09930    5.07150   58.82742   -4.92480    8.50000 70000.00000
 1602.00000    8.58760   51.79483   53.80435   52.62459    2.68213   19.74139    0.09983    5.07847   58.90541   -4.94777    8.50000 70000.00000
 1602.10000    8.58942   51.73737   53.45784   52.32601    2.68261   19.49006    0.09990    5.08572   58.89843   -4.79708    8.50000 70000.00000
 1602.20000    8.58516   51.99670   53.84153   52.47089    2.68184   19.12205    0.10009    5.07647   58.82725   -5.21057    8.50000 70000.00000
 1602.30000    8.58510   53.54805   55.34000   54.43823    2.67894   19.27870    0.10057    5.08356   58.87121   -5.61014    8.50000 70000.00000
 1602.40000    8.58465   50.93844   52.60999   51.65662    2.67717   19.96612    0.10092    5.07281   59.14428   -5.73499    8.50000 70000.00000
 1602.50000    8.58087   48.66259   49.64292   49.09448    2.67529   20.13674    0.09847    5.07709   59.19034   -5.68055    8.50000 70000.00000
 1602.60000    8.57988   49.98785   50.79019   50.16654    2.67876   20.64839    0.09680    5.08500   58.68230   -5.91990    8.50000 70000.00000
 1602.70000    8.57807   47.97816   48.57439   48.08852    2.67657   20.48645    0.09663    5.07312   58.63074   -6.04161    8.50000 70000.00000
 1602.80000    8.57826   50.89342   51.09371   50.80907    2.67855   20.28273    0.09713    5.08640   58.87935   -5.89834    8.50000 70000.00000
 1602.90000    8.57861   52.75411   52.51313   52.31198    2.68009   20.16465    0.09646    5.08718   58.69255   -5.58542    8.50000 70000.00000
 1603.00000    8.58214   53.67659   53.20684   53.01333    2.68032   19.89446    0.09428    5.08326   58.09381   -5.73334    8.50000 70000.00000
 1603.10000    8.58439   52.82137   52.38321   52.17707    2.67721   20.48701    0.09563    5.07287   58.07786   -5.72200    8.50000 70000.00000
 1603.20000    8.58853   50.91662   50.58814   50.75546    2.67527   20.80234    0.09549    5.07867   57.91421   -6.35113    8.50000 70000.00000
 1603.30000    8.58682   50.82115   50.28484   50.59842    2.67482   20.42410    0.09544    5.07495   57.51465   -6.34380    8.50000 70000.00000
 1603.40000    8.58943   54.26016   52.61000   53.01087    2.67573   20.39276    0.09481    5.06853   57.74302   -6.54282    8.50000 70000.00000
 1603.50000    8.58922   54.30118   52.65842   53.24327    2.67669   20.25430    0.09476    5.06461   57.41939   -6.51393    8.50000 70000.00000
 1603.60000    8.58517   54.57620   52.49974   53.05078    2.67445   20.36859    0.09460    5.05542   57.17882   -6.45167    8.50000 70000.00000
 1603.70000    8.58511   48.62023   47.15377   47.84693    2.67501   19.83733    0.09461    5.04601   57.26358   -6.09854    8.50000 70000.00000
 1603.80000    8.58593   41.71137   40.42103   41.36028    2.67400   19.63244    0.09461    5.04485   57.18894   -6.02748    8.50000 70000.00000
 1603.90000    8.58369   40.50218   39.10354   39.94161    2.67585   19.25469    0.09350    5.04395   57.50618   -6.24594    8.50000 70000.00000
 1604.00000    8.58255   41.57218   40.27530   41.15388    2.67168   19.40328    0.09199    5.04574   57.07431   -5.76420    8.50000 70000.00000
 1604.10000    8.58322   41.24559   40.03736   40.87338    2.67253   18.91150    0.09274    5.03582   57.26555   -5.21125    8.50000 70000.00000
 1604.20000    8.58089   43.06567   41.52826   42.50399    2.66985   18.90953    0.09158    5.04439   57.48946   -5.53641    8.50000 70000.00000
 1604.30000    8.58327   42.55793   40.69926   41.84967    2.67055   18.76799    0.09040    5.04299   57.28317   -5.16115    8.50000 70000.00000
 1604.40000    8.58376   42.64559   41.57775   42.05167    2.66989   18.90953    0.09168    5.04490   56.89130   -4.91803    8.50000 70000.00000
 1604.50000    8.58405   43.33628   42.39378   42.77694    2.66975   18.56542    0.09172    5.04783   56.78968   -4.91843    8.50000 70000.00000
 1604.60000    8.58844   44.56153   43.82524   44.05083    2.67112   18.34455    0.09216    5.04860   56.70285   -4.77408    8.50000 70000.00000
