~Version ---------------------------------------------------
VERS.   2.0 : CWLS log ASCII Standard -VERSION 2.0
WRAP.    NO : One line per depth step
DLM . SPACE : Column Data Section Delimiter
~Well ------------------------------------------------------
STRT.m          1000.00000 : START DEPTH
STOP.m          2000.00000 : STOP DEPTH
STEP.m             0.10000 : STEP
NULL.             -9999.25 : NULL VALUE
COMP. FORCE 2020 Recreator : 
WELL.   WELL_FORCE_2020_03 : 
FLD .                      : FIELD
LOC .                      : LOCATION
PROV.                      : PROVINCE
CNTY.                      : COUNTY
STAT.                      : STATE
CTRY.                      : COUNTRY
SRVC.                      : SERVICE COMPANY
DATE.                      : DATE
UWI .                      : UNIQUE WELL ID
API .                      : API NUMBER
~Curve Information -----------------------------------------
DEPT                            .m      : 
CALI                            .in     : 
RSHA                            .ohm.m  : 
RMED                            .ohm.m  : 
RDEP                            .ohm.m  : 
RHOB                            .g/cm3  : 
GR                              .gAPI   : 
NPHI                            .v/v    : 
PEF                             .b/e    : 
DTC                             .us/ft  : 
SP                              .mV     : 
BS                              .in     : 
FORCE_2020_LITHOFACIES_LITHOLOGY.code   : 
~Params ----------------------------------------------------
~Other -----------------------------------------------------
~ASCII -----------------------------------------------------
 1000.00000    8.58196 7611.79829 7324.19989 7256.02038    2.07331    7.21027    0.02922    4.61923   67.24567    7.62634    8.50000 88000.00000
 1000.10000    8.57829 7031.88957 6771.30433 6709.28315    2.07447    7.33169    0.02828    4.62446   67.10429    7.45191    8.50000 88000.00000
 1000.20000    8.58488 6613.65681 6380.39795 6324.35844    2.07679    7.48559    0.02871    4.62624   67.29852    7.60328    8.50000 88000.00000
 1000.30000    8.58629 7990.52954 7332.43555 7396.64580    2.07697    7.51042    0.02927    4.63422   67.05991    7.46782    8.50000 88000.00000
 1000.40000    8.58457 7523.80965 6909.92259 6966.78152    2.07808    7.61839    0.02866    4.63145   67.00437    7.44045    8.50000 88000.00000
 1000.50000    8.58272 7115.51076 6544.85190 6599.08850    2.07792    7.60359    0.02773    4.62921   66.72037    7.72103    8.50000 88000.00000
 1000.60000    8.58479 7213.47185 6706.15068 6775.64420    2.07740    7.62314    0.02741    4.64106   66.53769    7.64841    8.50000 88000.00000
 1000.70000    8.58683 6884.58879 6406.25860 6471.07816    2.07535    7.65735    0.02899    4.64873   66.63012    7.75151    8.50000 88000.00000
 1000.80000    8.58517 6569.13087 6109.64971 6171.50649    2.07437    7.62959    0.02863    4.65109   66.51778    7.76827    8.50000 88000.00000
 1000.90000    8.58450 6370.28730 5920.70076 5991.79442    2.07627    7.63776    0.02758    4.65119   66.45841    8.00655    8.50000 88000.00000
 1001.00000    8.58327 6128.30072 5692.37683 5759.14917    2.07725    7.78500    0.02755    4.65031   66.59275    7.95997    8.50000 88000.00000
 1001.10000    8.58169 6078.79151 5640.06765 5714.02898    2.07437    7.76842    0.02720    4.65658   66.49357    8.16551    8.50000 88000.00000
 1001.20000    8.58412 5597.01037 5195.60954 5265.44805    2.07123    7.93462    0.02771    4.66632   66.66509    8.18109    8.50000 88000.00000
 1001.30000    8.58517 5419.25463 5020.62783 5099.45694    2.07303    7.97678    0.02802    4.65775   66.88527    8.11904    8.50000 88000.00000
 1001.40000    8.58303 5388.26524 4990.84238 5072.70139    2.07296    8.00914    0.02740    4.66972   66.95299    8.21774    8.50000 88000.00000
 1001.50000    8.58219 5941.25621 5486.43897 5619.11126    2.07394    8.16377    0.02724    4.67509   67.08974    8.33350    8.50000 88000.00000
 1001.60000    8.58271 6226.21982 5809.99351 5896.85417    2.07498    8.28796    0.02749    4.65665   67.32548    8.13082    8.50000 88000.00000
 1001.70000    8.58252 6151.12723 5694.52071 5779.87598    2.07775    8.58491    0.02753    4.66964   67.11822    8.19409    8.50000 88000.00000
 1001.80000    8.58609 6268.63545 5801.99140 5894.30791    2.07742    8.53959    0.02729    4.66375   66.93293    8.23913    8.50000 88000.00000
 1001.90000    8.58458 6231.53911 5778.41727 5867.71843    2.07956    8.59153    0.02670    4.66437   67.36203    8.30178    8.50000 88000.00000
 1002.00000    8.58358 4725.11867 4389.46214 4521.27237    2.07681    8.62253    0.02779    4.66117   67.56594    8.23626    8.50000 88000.00000
 1002.10000    8.58448 4733.60889 4417.31036 4531.95999    2.07830    8.75324    0.02931    4.65757   67.15984    8.53466    8.50000 88000.00000
 1002.20000    8.58707 4725.30859 4412.90580 4525.34059    2.07838    8.79825    0.02947    4.65708   67.08815    8.58963    8.50000 88000.00000
 1002.30000    8.58184 4731.98971 4407.78437 4524.85297    2.07782    8.73848    0.02872    4.64772   66.93898    8.54271    8.50000 88000.00000
 1002.40000    8.57968 3632.98851 3625.56339 3660.76031    2.07856    8.72857    0.02803    4.64639   67.15397    8.55758    8.50000 88000.00000
 1002.50000    8.58153 3623.10827 3618.33429 3655.29324    2.07881    8.62909    0.02872    4.65265   67.19910    8.78263    8.50000 88000.00000
 1002.60000    8.58176 3795.28212 3748.82315 3774.24168    2.07827    8.67232    0.02974    4.64972   67.31063    8.45336    8.50000 88000.00000
 1002.70000    8.57936 3683.21108 3626.28376 3642.47141    2.08002    8.66189    0.02972    4.64063   67.38237    8.63224    8.50000 88000.00000
 1002.80000    8.57763 4426.46892 4594.56297 4527.87588    2.08219    8.49961    0.02915    4.62709   67.31331    8.42304    8.50000 88000.00000
 1002.90000    8.57435 4403.05061 4576.10496 4509.14880    2.08388    8.58314    0.02944    4.62251   67.33573    8.29762    8.50000 88000.00000
 1003.00000    8.57336 4311.08144 4495.41764 4416.01171    2.08400    8.50820    0.03039    4.61970   67.42610    7.91437    8.50000 88000.00000
 1003.10000    8.57238 4604.29527 4807.37543 4693.29610    2.08333    8.35369    0.03113    4.62370   67.36162    7.90744    8.50000 88000.00000
 1003.20000    8.57223 4997.37375 5228.81041 5073.08386    2.08512    8.57025    0.03119    4.61916   67.27385    7.72161    8.50000 88000.00000
 1003.30000    8.57249 5126.52882 5346.50189 5201.96953    2.08537    8.58281    0.03107    4.62185   67.04233    7.86425    8.50000 88000.00000
 1003.40000    8.57206 5253.13659 5421.47882 5285.35414    2.08417    8.91338    0.03081    4.62923   66.98714    7.91671    8.50000 88000.00000
 1003.50000    8.57558 5412.89181 5520.76540 5396.88784    2.08126    8.88414    0.03124    4.61500   66.70267    7.96050    8.50000 88000.00000
 1003.60000    8.57823 5149.63483 5267.03006 5061.25202    2.07692    8.83059    0.03227    4.61159   66.78272    7.90342    8.50000 88000.00000
 1003.70000    8.57480 4192.98948 4358.61887 4177.34898    2.07782    8.64979    0.03026    4.62912   66.49189    7.94456    8.50000 88000.00000
 1003.80000    8.57307 4087.09833 4269.88133 4089.32332    2.08034    8.47421    0.02979    4.62144   66.77596    7.65857    8.50000 88000.00000
 1003.90000    8.56841 4698.62702 4856.14679 4688.34881    2.08087    8.39123    0.03020    4.63534   67.02358    7.70756    8.50000 88000.00000
 1004.00000    8.57008 5404.33255 5514.29289 5330.52959    2.07910    8.38590    0.03065    4.63518   66.72783    7.76371    8.50000 88000.00000
 1004.10000    8.56915 5425.85540 5528.18278 5336.92425    2.08125    8.31450    0.02872    4.63710   66.35751    7.71560    8.50000 88000.00000
 1004.20000    8.56948 5573.13705 5627.31832 5442.82873    2.08055    7.94035    0.02824    4.63161   66.52907    7.39060    8.50000 88000.00000
 1004.30000    8.57030 5815.96109 5864.31150 5704.69361    2.08092    7.73540    0.02846    4.62812   66.74505    7.42306    8.50000 88000.00000
 1004.40000    8.57110 5751.92085 5806.05280 5641.23404    2.07904    7.60135    0.02886    4.63906   66.71793    7.47709    8.50000 88000.00000
 1004.50000    8.57111 6233.42151 6204.43873 6031.67931    2.07754    7.57131    0.02938    4.63998   66.85593    7.60098    8.50000 88000.00000
 1004.60000    8.56980 6952.39830 7027.10547 6826.66733    2.07790    7.51034    0.02899    4.63771   66.83167    7.60995    8.50000 88000.00000
 1004.70000    8.57067 7580.17927 7897.22685 7651.19423    2.07875    7.45389    0.02809    4.64781   67.07486    7.72395    8.50000 88000.00000
 1004.80000    8.57261 7292.49793 7599.18469 7346.33210    2.07525    7.35838    0.02929    4.64975   67.18393    7.50428    8.50000 88000.00000
 1004.90000    8.57276 6933.05575 7075.07443 6915.54480    2.07609    7.43927    0.02922    4.65907   67.24648    7.62513    8.50000 88000.00000
 1005.00000    8.57858 7404.34519 7619.37844 7468.44907    2.07447    7.53585    0.02951    4.66507   67.64868    7.91516    8.50000 88000.00000
 1005.10000    8.58054 7459.76008 7667.07234 7516.90906    2.07185    7.48793    0.02869    4.65816   67.81441    8.07258    8.50000 88000.00000
 1005.20000    8.58523 7150.53660 7348.36447 7234.68034    2.07105    7.41745    0.02736    4.65467   67.58083    8.07270    8.50000 88000.00000
 1005.30000    8.58601 6871.64799 7039.22191 6972.68157    2.07002    7.40254    0.02641    4.66646   67.80719    8.12023    8.50000 88000.00000
 1005.40000    8.58357 7135.89830 7416.94223 7332.74567    2.07078    7.40556    0.02623    4.65542   67.99659    8.22405    8.50000 88000.00000
 1005.50000   -9999.25 7118.96659 7466.41130 7372.59280    2.07111    7.08609    0.02725    4.66623   67.98333    8.29509    8.50000 88000.00000
