~Version ---------------------------------------------------
VERS.   2.0 : CWLS log ASCII Standard -VERSION 2.0
WRAP.    NO : One line per depth step
DLM . SPACE : Column Data Section Delimiter
~Well ------------------------------------------------------
STRT.m          1000.00000 : START DEPTH
STOP.m          2000.00000 : STOP DEPTH
STEP.m             0.10000 : STEP
NULL.             -9999.25 : NULL VALUE
COMP. FORCE 2020 Recreator : 
WELL.   WELL_FORCE_2020_03 : 
FLD .                      : FIELD
LOC .                      : LOCATION
PROV.                      : PROVINCE
CNTY.                      : COUNTY
STAT.                      : STATE
CTRY.                      : COUNTRY
SRVC.                      : SERVICE COMPANY
DATE.                      : DATE
UWI .                      : UNIQUE WELL ID
API .                      : API NUMBER
~Curve Information -----------------------------------------
DEPT                            .m      : 
CALI                            .in     : 
RSHA                            .ohm.m  : 
RMED                            .ohm.m  : 
RDEP                            .ohm.m  : 
RHOB                            .g/cm3  : 
GR                              .gAPI   : 
NPHI                            .v/v    : 
PEF                             .b/e    : 
DTC                             .us/ft  : 
SP                              .mV     : 
BS                              .in     : 
FORCE_2020_LITHOFACIES_LITHOLOGY.code   : 
~Params ----------------------------------------------------
~Other -----------------------------------------------------
~ASCII -----------------------------------------------------
# ...
 1397.30000    8.31852   21.47693   21.17330   20.79817    2.34338   49.84768    0.19957    1.85639   83.62515  -35.39336    8.50000 30000.00000
 1397.40000    8.31782   21.40896   21.06704   20.71745    2.34687   50.14522    0.19927    1.86585   83.04192  -35.29085    8.50000 30000.00000
 1397.50000    8.31700   21.11249   20.66779   20.28751    2.35374   49.40209    0.19924    1.86740   82.64864  -35.94385    8.50000 30000.00000
 1397.60000    8.31766   20.80240   20.24674   19.89023    2.35521   48.82735    0.19854    1.86249   82.30726  -36.07268    8.50000 30000.00000
 1397.70000    8.31777   20.92465   20.37214   19.94800    2.35077   48.26358    0.19915    1.85545   81.82513  -36.45187    8.50000 30000.00000
 1397.80000    8.32021   21.98974   21.24499   20.88718    2.34794   47.45634    0.19716    1.83974   82.07944  -36.01072    8.50000 30000.00000
 1397.90000    8.32082   19.14654   19.15024   19.01515    2.34965   47.03079    0.20082    1.84994   82.00696  -36.82970    8.50000 30000.00000
 1398.00000    8.32227   18.91006   18.99257   18.88055    2.34887   47.30056    0.20285    1.85446   82.05990  -36.90910    8.50000 30000.00000
 1398.10000    8.32292   18.64457   18.70589   18.65358    2.34414   47.30241    0.20060    1.85964   82.54771  -36.27435    8.50000 30000.00000
 1398.20000    8.32388   20.17698   20.32143   20.27816    2.34592   46.64341    0.20073    1.86510   82.30162  -35.76711    8.50000 30000.00000
 1398.30000    8.32809   20.61287   20.73501   20.56277    2.34355   46.19849    0.20035    1.86109   81.96507  -35.32592    8.50000 30000.00000
 1398.40000    8.33081   20.81262   20.87960   20.76215    2.34265   45.67639    0.19793    1.86336   82.17459  -34.56894    8.50000 30000.00000
 1398.50000    8.32638   21.77405   21.92575   21.79302    2.35139   46.17168    0.20086    1.85788   81.70545  -34.78225    8.50000 30000.00000
 1398.60000    8.32811   21.98428   22.06051   21.92603    2.35292   45.70568    0.19670    1.85654   81.49293  -34.90301    8.50000 30000.00000
 1398.70000    8.32567   22.19240   22.27158   22.15544    2.35273   46.16766    0.19540    1.85693   81.66081  -34.54393    8.50000 30000.00000
 1398.80000    8.32372   22.60560   22.75882   22.62409    2.35303   45.79644    0.19657    1.85442   81.34193  -34.73674    8.50000 30000.00000
 1398.90000    8.32384   21.88781   22.01832   22.00789    2.35663   45.44751    0.19698    1.86282   81.36201  -35.01270    8.50000 30000.00000
 1399.00000    8.32672   24.98059   25.45520   25.59811    2.35371   43.96595    0.20053    1.87031   81.07108  -35.27118    8.50000 30000.00000
 1399.10000    8.32200   25.34540   26.01518   26.27137    2.35675   43.80887    0.19881    1.87147   80.75615  -35.08099    8.50000 30000.00000
 1399.20000    8.31561   23.15888   24.27814   24.53968    2.35770   42.61643    0.19980    1.87038   80.09543  -34.61715    8.50000 30000.00000
 1399.30000    8.31597   24.32735   25.35403   25.59555    2.35673   43.43163    0.20362    1.87035   79.58863  -34.79134    8.50000 30000.00000
 1399.40000    8.31484   23.75775   24.57580   24.75815    2.35840   43.08445    0.20370    1.87611   79.30614  -34.61482    8.50000 30000.00000
 1399.50000    8.31128   23.95697   24.75343   24.93437    2.35728   42.93841    0.20230    1.87286   79.70075  -34.85956    8.50000 30000.00000
 1399.60000    8.31125   23.53429   24.44605   24.61659    2.35542   42.66150    0.20344    1.87526   79.68516  -34.61846    8.50000 30000.00000
 1399.70000    8.31067   23.60448   24.49954   24.69607    2.35411   42.53347    0.20462    1.87846   79.33610  -34.23987    8.50000 30000.00000
 1399.80000    8.30585   24.32413   25.20676   25.40066    2.35188   42.83873    0.20514    1.87713   79.72192  -33.75607    8.50000 30000.00000
 1399.90000    8.30518   23.70899   24.94706   25.02283    2.35075   43.95135    0.20580    1.88271   79.45099  -34.21019    8.50000 30000.00000
 1400.00000    8.30261   24.03513   25.50619   25.41900    2.35037   45.01339    0.20349    1.88150   79.56039  -34.11402    8.50000 30000.00000
 1400.10000    8.30004   24.03988   25.54017   25.39146    2.35476   45.54943    0.20126    1.87984   79.67597  -33.87288    8.50000 30000.00000
 1400.20000    8.30058   24.28163   25.96851   25.85311    2.35417   45.71409    0.20038    1.87278   79.53427  -33.99029    8.50000 30000.00000
 1400.30000    8.29869   23.40934   24.84412   24.81616    2.34541   46.38061    0.20214    1.87005   79.43302  -34.03483    8.50000 30000.00000
 1400.40000    8.29486   22.90639   24.32013   24.37007    2.34858   46.79661    0.20496    1.87698   79.56075  -34.04616    8.50000 30000.00000
 1400.50000    8.29862   23.24422   24.66817   24.72839    2.34893   47.72951    0.20666    1.88430   79.44088  -35.14966    8.50000 30000.00000
 1400.60000    8.30053   23.31204   24.46923   24.60506    2.34328   47.17161    0.20536    1.88976   79.61612  -35.10997    8.50000 30000.00000
 1400.70000    8.30063   23.95334   25.20811   25.28682    2.34461   46.32480    0.20651    1.88731   79.81678  -35.04979    8.50000 30000.00000
 1400.80000    8.30249   24.98637   26.23351   26.41284    2.35092   45.80462    0.20855    1.87723   79.11035  -35.86971    8.50000 30000.00000
 1400.90000    8.30293   27.28035   28.32128   28.60753    2.35157   46.39592    0.20846    1.87153   79.69442  -35.93413    8.50000 30000.00000
 1401.00000    8.30369   31.84876   32.28181   32.53421    2.35368   46.18245    0.20612    1.86479   79.63637  -35.98037    8.50000 30000.00000
 1401.10000    8.30180   29.57672   29.71104   29.80264    2.35554   45.65600    0.20744    1.85710   79.89066  -35.91695    8.50000 30000.00000
 1401.20000    8.30088   30.30683   30.06158   30.00380    2.35502   45.97357    0.20420    1.85043   80.10213  -35.70979    8.50000 30000.00000
 1401.30000    8.30602   30.27273   30.08092   30.02336    2.35374   47.05584    0.20488    1.85433   80.14266  -36.06650    8.50000 30000.00000
 1401.40000    8.30952   28.86110   28.74186   28.73744    2.34995   47.01138    0.20183    1.86033   80.32988  -35.82476    8.50000 30000.00000
 1401.50000    8.30930   30.98820   31.01524   30.70915    2.34595   47.67726    0.20262    1.84365   80.77349  -35.89622    8.50000 30000.00000
 1401.60000    8.31166   31.66400   31.70526   31.34855    2.34526   47.40425    0.20328    1.84035   80.72427  -35.63625    8.50000 30000.00000
 1401.70000    8.31220   32.90504   32.88819   32.42766    2.34648   47.57823    0.20225    1.83103   80.95853  -34.91193    8.50000 30000.00000
 1401.80000    8.31614   33.56081   33.74810   33.29556    2.34745   48.44696    0.20076    1.82010   81.18160  -35.12313    8.50000 30000.00000
 1401.90000    8.31874   34.98841   35.33577   34.99836    2.35251   48.50156    0.20176    1.81735   81.34262  -35.24565    8.50000 30000.00000
 1402.00000    8.32043   35.23158   35.51549   35.22189    2.35663   48.11068    0.20422    1.82006   81.38984  -34.87249    8.50000 30000.00000
 1402.10000    8.32442   34.41935   34.38355   34.16539    2.35568   47.71075    0.20081    1.81374   81.43342  -34.56615    8.50000 30000.00000
 1402.20000    8.32443   34.57631   34.56415   34.31446    2.34905   47.44113    0.20129    1.81008   81.78823  -34.89190    8.50000 30000.00000
 1402.30000    8.32467   32.08578   31.75963   31.60449    2.34980   46.88780    0.20513    1.80410   82.10144  -34.78182    8.50000 30000.00000
 1402.40000    8.32986   32.40196   32.09229   31.89368    2.35856   46.60086    0.20175    1.80731   82.19361  -34.96518    8.50000 30000.00000
 1402.50000    8.33152   32.69875   32.36844   32.18469    2.35622   46.40774    0.20126    1.80737   81.81156  -35.12448    8.50000 30000.00000
 1402.60000    8.32444   32.66027   32.57304   32.35596    2.35838   45.90396    0.20232    1.80923   82.33732  -34.82952    8.50000 30000.00000
 1402.70000    8.32716   34.37288   34.99555   34.41696    2.36328   46.21399    0.20210    1.80803   81.62071  -35.34345    8.50000 30000.00000
 1402.80000    8.32105   33.15254   33.89550   33.33056    2.36122   47.10624    0.20344    1.81080   81.98908  -35.99480    8.50000 30000.00000
