~Version ---------------------------------------------------
VERS.   2.0 : CWLS log ASCII Standard -VERSION 2.0
WRAP.    NO : One line per depth step
DLM . SPACE : Column Data Section Delimiter
~Well ------------------------------------------------------
STRT.m          1000.00000 : START DEPTH
STOP.m          2000.00000 : STOP DEPTH
STEP.m             0.10000 : STEP
NULL.             -9999.25 : NULL VALUE
COMP. FORCE 2020 Recreator : 
WELL.   WELL_FORCE_2020_02 : 
FLD .                      : FIELD
LOC .                      : LOCATION
PROV.                      : PROVINCE
CNTY.                      : COUNTY
STAT.                      : STATE
CTRY.                      : COUNTRY
SRVC.                      : SERVICE COMPANY
DATE.                      : DATE
UWI .                      : UNIQUE WELL ID
API .                      : API NUMBER
~Curve Information -----------------------------------------
DEPT                            .m      : 
CALI                            .in     : 
RSHA                            .ohm.m  : 
RMED                            .ohm.m  : 
RDEP                            .ohm.m  : 
RHOB                            .g/cm3  : 
GR                              .gAPI   : 
NPHI                            .v/v    : 
PEF                             .b/e    : 
DTC                             .us/ft  : 
SP                              .mV     : 
BS                              .in     : 
FORCE_2020_LITHOFACIES_LITHOLOGY.code   : 
~Params ----------------------------------------------------
~Other -----------------------------------------------------
~ASCII -----------------------------------------------------
# ...
 1733.60000    9.86767    2.54346    2.49753    2.50875    2.49586  119.15998    0.36424    3.41358  108.53844    4.15199    8.50000 65000.00000
 1733.70000    9.85481    2.48613    2.47066    2.47633    2.49509  118.40826    0.36096    3.40737  108.28333    3.92183    8.50000 65000.00000
 1733.80000    9.84959    2.54089    2.50558    2.51944    2.49213  118.38361    0.35694    3.42602  108.08292    3.96969    8.50000 65000.00000
 1733.90000    9.81537    2.59078    2.54045    2.57381    2.49423  118.09212    0.35731    3.43803  108.72651    4.07816    8.50000 65000.00000
 1734.00000    9.83196    2.55099    2.50484    2.53957    2.49083  118.59213    0.35709    3.45052  107.92896    4.13013    8.50000 65000.00000
 1734.10000    9.80920    2.48004    2.46426    2.49043    2.48860  117.56741    0.35600    3.43344  107.22652    4.16798    8.50000 65000.00000
 1734.20000    9.84230    2.47983    2.45215    2.48056    2.48844  118.68026    0.35865    3.42996  107.08137    4.28650    8.50000 65000.00000
 1734.30000    9.83544    2.36411    2.35773    2.37183    2.49129  117.38159    0.35500    3.42150  107.84549    4.49074    8.50000 65000.00000
 1734.40000    9.81975    2.39903    2.39814    2.41732    2.49665  117.02085    0.35752    3.43495  107.47950    4.62552    8.50000 65000.00000
 1734.50000    9.84183    2.56927    2.58896    2.60571    2.49198  117.01436    0.35909    3.40608  107.40909    4.70787    8.50000 65000.00000
 1734.60000    9.86221    2.47661    2.53772    2.55404    2.49299  115.10434    0.35811    3.42342  108.02494    5.02271    8.50000 65000.00000
 1734.70000    9.86157    2.53501    2.62454    2.63014    2.49319  114.96265    0.35979    3.40481  107.37897    5.41510    8.50000 65000.00000
 1734.80000    9.88321    2.54349    2.63007    2.63649    2.49426  113.49997    0.35792    3.41450  107.40393    5.34525    8.50000 65000.00000
 1734.90000    9.89078    2.60070    2.68043    2.69337    2.49692  113.58295    0.35685    3.41625  107.58416    5.29472    8.50000 65000.00000
 1735.00000    9.89211    2.61863    2.71428    2.72659    2.49624  113.72233    0.35522    3.41543  107.69351    5.42424    8.50000 65000.00000
 1735.10000    9.91498    2.60932    2.68451    2.70375    2.49824  112.98011    0.35362    3.42106  108.22324    5.61008    8.50000 65000.00000
 1735.20000    9.91260    2.60916    2.64959    2.68172    2.49971  111.69965    0.35370    3.43286  108.74330    5.87681    8.50000 65000.00000
 1735.30000    9.90668    2.64452    2.69065    2.72770    2.49288  111.60972    0.35684    3.43560  109.96465    5.60516    8.50000 65000.00000
 1735.40000    9.92408    2.63727    2.68269    2.71694    2.49343  110.29679    0.35618    3.42436  110.55624    5.85353    8.50000 65000.00000
 1735.50000    9.94194    2.74106    2.79557    2.83055    2.49267  108.67361    0.35799    3.41573  111.29541    5.80799    8.50000 65000.00000
 1735.60000    9.94208    2.78336    2.80554    2.85104    2.49368  107.88931    0.35813    3.40131  110.75827    5.77170    8.50000 65000.00000
 1735.70000    9.92071    2.74013    2.79290    2.82260    2.49032  108.50968    0.35703    3.41814  110.09325    5.33021    8.50000 65000.00000
 1735.80000    9.93774    2.85328    2.90304    2.91452    2.49422  107.98136    0.36082    3.41989  110.72780    5.55441    8.50000 65000.00000
 1735.90000    9.93483    2.80257    2.87763    2.88974    2.49733  108.46350    0.35986    3.39202  109.83632    5.43806    8.50000 65000.00000
 1736.00000    9.95627    2.68953    2.79998    2.79931    2.49617  107.52859    0.36082    3.38997  109.27090    5.46002    8.50000 65000.00000
 1736.10000    9.97466    2.64329    2.72909    2.74632    2.49803  108.04478    0.36391    3.37025  109.77486    5.73171    8.50000 65000.00000
 1736.20000    9.98714    2.66407    2.75545    2.78437    2.50195  107.97474    0.36699    3.36998  109.73536    5.75675    8.50000 65000.00000
 1736.30000    9.97282    2.68560    2.78380    2.81032    2.49663  106.91427    0.36540    3.36282  109.61623    5.78532    8.50000 65000.00000
 1736.40000   10.02903    2.74687    2.85827    2.87854    2.49730  108.81748    0.36936    3.34257  109.13701    5.59621    8.50000 65000.00000
 1736.50000   10.02206    2.85119    2.96923    2.98881    2.49066  109.84615    0.36713    3.36053  109.28972    5.45403    8.50000 65000.00000
 1736.60000   10.03849    2.76371    2.86299    2.87760    2.49616  109.93082    0.37014    3.34582  110.20648    5.31903    8.50000 65000.00000
 1736.70000   10.03093    2.71172    2.77614    2.79244    2.49464  111.37895    0.37025    3.34551  109.68190    5.40584    8.50000 65000.00000
 1736.80000   10.03887    2.71970    2.74728    2.78149    2.49601  111.03341    0.37116    3.35397  109.69432    4.94071    8.50000 65000.00000
 1736.90000   10.03069    2.77164    2.79695    2.82072    2.49030  111.47681    0.37182    3.34583  109.39197    5.09600    8.50000 65000.00000
 1737.00000   10.01792    2.86338    2.87375    2.90216    2.49154  111.37995    0.36981    3.32982  108.85518    5.06789    8.50000 65000.00000
 1737.10000    9.99395    2.86808    2.87401    2.89987    2.49111  111.25968    0.37115    3.32107  108.73699    5.02442    8.50000 65000.00000
 1737.20000    9.99668    2.97543    2.93318    2.96600    2.49043  110.89989    0.37227    3.33320  108.76304    4.99514    8.50000 65000.00000
 1737.30000    9.98725    2.95271    2.91614    2.94806    2.48933  110.98633    0.36681    3.33794  108.73109    5.01336    8.50000 65000.00000
 1737.40000    9.98203    2.93237    2.88639    2.91210    2.48848  111.33791    0.36319    3.31783  107.48152    5.33208    8.50000 65000.00000
 1737.50000    9.98063    2.95648    2.87824    2.89809    2.48903  112.19374    0.36724    3.33243  107.24990    5.41643    8.50000 65000.00000
 1737.60000    9.94985    2.79841    2.73414    2.74900    2.48696  112.58593    0.36437    3.35047  107.40660    5.47473    8.50000 65000.00000
 1737.70000    9.95954    2.82907    2.78047    2.78728    2.48792  112.84164    0.36483    3.35909  107.83759    5.27660    8.50000 65000.00000
 1737.80000    9.96159    2.83716    2.78689    2.80108    2.48324  112.01710    0.36307    3.35878  107.63433    5.46682    8.50000 65000.00000
 1737.90000    9.98268    2.68075    2.62862    2.65358    2.47651  113.55037    0.35990    3.34017  107.52265    5.52193    8.50000 65000.00000
 1738.00000    9.98875    2.69149    2.63977    2.66527    2.47507  113.81262    0.36105    3.35102  107.84958    5.82672    8.50000 65000.00000
 1738.10000    9.99241    2.71082    2.69544    2.70935    2.47721  114.30439    0.35768    3.35404  107.41440    6.07436    8.50000 65000.00000
 1738.20000    9.97090    2.74283    2.72298    2.72933    2.47442  113.25745    0.35136    3.35284  107.13701    5.55132    8.50000 65000.00000
 1738.30000    9.93778    2.71279    2.67544    2.69122    2.47166  112.67633    0.35400    3.35534  107.90880    5.57453    8.50000 65000.00000
 1738.40000    9.96898    2.69924    2.65668    2.66800    2.47146  111.56997    0.35496    3.36461  108.48872    5.59755    8.50000 65000.00000
 1738.50000    9.94771    2.65797    2.61980    2.63241    2.47363  110.75931    0.35429    3.39411  108.06440    5.58774    8.50000 65000.00000
 1738.60000    9.94695    2.52378    2.47449    2.49106    2.47592  110.16222    0.35659    3.36981  107.51980    5.74590    8.50000 65000.00000
 1738.70000    9.91677    2.45692    2.40837    2.42848    2.47318  111.47029    0.35452    3.39063  107.25994    5.67188    8.50000 65000.00000
 1738.80000    9.91122    2.53008    2.47376    2.49437    2.47614  112.07767    0.35568    3.36050  106.95903    5.38592    8.50000 65000.00000
 1738.90000    9.89930    2.48812    2.47766    2.47621    2.47439  113.05545    0.35732    3.37576  106.41595    5.53922    8.50000 65000.00000
 1739.00000    9.90952    2.46482    2.44929    2.45272    2.48018  113.65512    0.35982    3.36691   -9999.25    5.46438    8.50000 65000.00000
 1739.10000    9.90189    2.34354    2.32736    2.32204    2.48208  114.23137    0.36047    3.39242  107.31369    5.32339    8.50000 65000.00000
