~Version ---------------------------------------------------
VERS.   2.0 : CWLS log ASCII Standard -VERSION 2.0
WRAP.    NO : One line per depth step
DLM . SPACE : Column Data Section Delimiter
~Well ------------------------------------------------------
STRT.m          1000.00000 : START DEPTH
STOP.m          2000.00000 : STOP DEPTH
STEP.m             0.10000 : STEP
NULL.             -9999.25 : NULL VALUE
COMP. FORCE 2020 Recreator : 
WELL.   WELL_FORCE_2020_06 : 
FLD .                      : FIELD
LOC .                      : LOCATION
PROV.                      : PROVINCE
CNTY.                      : COUNTY
STAT.                      : STATE
CTRY.                      : COUNTRY
SRVC.                      : SERVICE COMPANY
DATE.                      : DATE
UWI .                      : UNIQUE WELL ID
API .                      : API NUMBER
~Curve Information -----------------------------------------
DEPT                            .m      : 
CALI                            .in     : 
RSHA                            .ohm.m  : 
RMED                            .ohm.m  : 
RDEP                            .ohm.m  : 
RHOB                            .g/cm3  : 
GR                              .gAPI   : 
NPHI                            .v/v    : 
PEF                             .b/e    : 
DTC                             .us/ft  : 
SP                              .mV     : 
BS                              .in     : 
FORCE_2020_LITHOFACIES_LITHOLOGY.code   : 
~Params ----------------------------------------------------
~Other -----------------------------------------------------
~ASCII -----------------------------------------------------
# ...
 1733.50000    8.56725  239.95181  246.96042  244.25601    1.41726   28.05677    0.51465    1.60421  126.72591   -9.28630    8.50000 90000.00000
 1733.60000    8.56687  215.38881  218.37199  217.09510    1.41846   27.52570    0.51274    1.59036  126.08834   -9.34411    8.50000 90000.00000
 1733.70000    8.56846  217.04766  218.40509  217.47926    1.41791   27.28577    0.50943    1.58116  125.56364   -9.61586    8.50000 90000.00000
 1733.80000    8.57024  216.86229  217.55019  216.72058    1.41875   27.87185    0.51457    1.58637  125.13343   -9.74838    8.50000 90000.00000
 1733.90000    8.57361  217.73105  218.33617  217.48744    1.41869   27.49567    0.51163    1.60298  125.81303  -10.08989    8.50000 90000.00000
 1734.00000    8.57507  220.16244  220.16748  219.53320    1.41676   27.62201    0.51693    1.61379  126.37201  -10.04600    8.50000 90000.00000
 1734.10000    8.57446  215.89001  216.91691  216.53018    1.42027   26.98112    0.52046    1.60615  126.79517   -9.83743    8.50000 90000.00000
 1734.20000    8.57700  213.65452  215.24468  214.22645    1.42006   27.27689    0.52110    1.61934  127.25849   -9.59262    8.50000 90000.00000
 1734.30000    8.57640  215.32663  216.36663  215.93960    1.41314   27.61525    0.52348    1.61673  126.28942   -9.20465    8.50000 90000.00000
 1734.40000    8.57566  217.14772  217.71219  217.60274    1.40925   28.23189    0.52384    1.60762  125.49608   -9.31510    8.50000 90000.00000
 1734.50000    8.57901  211.62326  211.32578  211.50041    1.41426   28.15780    0.52734    1.60701  127.39273   -9.63632    8.50000 90000.00000
 1734.60000    8.57958  189.66846  194.58841  194.74626    1.41009   28.38268    0.52841    1.61019  127.95015   -9.63170    8.50000 90000.00000
 1734.70000    8.57705  182.45329  189.15210  189.18354    1.40849   28.37708    0.52757    1.59908  127.43730  -10.16595    8.50000 90000.00000
 1734.80000    8.57977  181.10550  192.84184  191.21066    1.41624   28.44335    0.52451    1.59922  127.93751   -9.21990    8.50000 90000.00000
 1734.90000    8.58208  179.14928  191.62895  189.66264    1.40914   28.13002    0.51821    1.58494  127.45980   -9.43271    8.50000 90000.00000
 1735.00000    8.58398  165.21959  176.72218  174.96474   -9999.25   28.63124    0.51982    1.57402  126.75913   -8.87939    8.50000 90000.00000
 1735.10000    8.58624  187.50245  196.72702  196.07915    1.41774   28.11474    0.51825    1.56186  125.38486   -8.45128    8.50000 90000.00000
 1735.20000    8.58733  199.99439  206.38683  208.12828    1.41483   28.69933    0.52180    1.55695  124.42565   -8.34669    8.50000 90000.00000
 1735.30000    8.58813  177.48917  177.83331  179.91390    1.40963   28.96843    0.52626    1.58260  124.68124   -7.68212    8.50000 90000.00000
 1735.40000    8.59076  180.44477  181.51584  183.29024    1.41156   28.34338    0.52997    1.58168  125.88635   -7.94454    8.50000 90000.00000
 1735.50000    8.59066  181.02698  183.47156  184.70496    1.41448   28.73251    0.53160    1.58491  125.88657   -7.61487    8.50000 90000.00000
 1735.60000    8.58931  174.15565  176.00431  178.18115    1.42356   29.00804    0.53304    1.60515  126.35554   -7.75830    8.50000 90000.00000
 1735.70000    8.59197  179.51366  182.78356  183.64037    1.42110   29.47045    0.53283    1.61529  126.33756   -7.85488    8.50000 90000.00000
 1735.80000    8.59162  194.42473  196.03389  198.96986    1.42436   29.40508    0.53346    1.61120  126.18117   -7.38105    8.50000 90000.00000
 1735.90000    8.59076  194.83268  196.45528  199.26578    1.42275   29.66473    0.53118    1.60808  125.05050   -7.92418    8.50000 90000.00000
 1736.00000    8.58943  189.00089  192.00933  194.44255    1.42259   30.34356    0.53205    1.59861  124.35327   -7.81133    8.50000 90000.00000
 1736.10000    8.58626  208.85766  213.44260  212.72732    1.42343   30.61555    0.52968    1.58738  124.89561   -8.06932    8.50000 90000.00000
 1736.20000    8.58643  207.63059  211.85872  210.76937    1.42787   31.16933    0.52672    1.59823  124.97872   -7.99939    8.50000 90000.00000
 1736.30000    8.58560  236.67799  242.51203  239.94216    1.42679   31.09255    0.52763    1.60206  124.42832   -8.35510    8.50000 90000.00000
 1736.40000    8.58710  234.04547  239.39003  236.91857    1.42532   31.50922    0.52627    1.59429  124.59474   -8.70881    8.50000 90000.00000
 1736.50000    8.58716  287.99568  306.53877  298.59031    1.42557   31.06922    0.52642    1.59839  124.41731   -8.38023    8.50000 90000.00000
 1736.60000    8.58514  286.89032  305.07026  297.05939    1.42573   30.67959    0.52298    1.59599  123.61214   -7.91222    8.50000 90000.00000
 1736.70000    8.58654  281.49421  298.95083  290.75483    1.42880   30.54313    0.52214    1.58575  121.50586   -7.92149    8.50000 90000.00000
 1736.80000    8.58803  282.48224  299.25263  291.02381    1.43268   31.38901    0.52555    1.59757  121.60470   -8.14633    8.50000 90000.00000
 1736.90000    8.58455  263.53579  275.85178  269.39336    1.41643   31.73560    0.52618    1.58672  121.26990   -8.44901    8.50000 90000.00000
 1737.00000    8.58022  285.27282  298.06528  290.84949    1.42897   32.41326    0.52424    1.58885  121.32834   -8.37081    8.50000 90000.00000
 1737.10000    8.57897  291.91648  304.19975  297.14994    1.42141   32.11002    0.52866    1.60128  121.01037   -8.74493    8.50000 90000.00000
 1737.20000    8.57958  272.39966  288.63804  280.06409    1.41837   33.08205    0.52746    1.60425  122.08845   -8.39842    8.50000 90000.00000
 1737.30000    8.57799  255.74089  276.79590  266.51772    1.41347   33.10152    0.52833    1.61957  123.13913   -8.65488    8.50000 90000.00000
 1737.40000    8.57814  259.57998  280.41128  270.15997    1.41874   33.47669    0.53055    1.59828  122.82332   -8.81337    8.50000 90000.00000
 1737.50000    8.57599  267.41810  287.92007  277.45894    1.42130   33.61356    0.52492    1.60042  121.61241   -8.54095    8.50000 90000.00000
 1737.60000    8.57603  272.83258  291.73096  281.64380    1.41453   33.29348    0.52313    1.59807  120.88821   -8.66358    8.50000 90000.00000
 1737.70000    8.57648  290.94934  308.04027  297.29570    1.41692   33.00407    0.52537    1.58842  120.51687   -8.08690    8.50000 90000.00000
 1737.80000    8.57223  280.47865  295.19976  285.67974    1.42160   33.68215    0.52259    1.57728  120.80207   -8.43097    8.50000 90000.00000
 1737.90000    8.57234  255.32164  271.07668  259.58922    1.42554   34.24328    0.52492    1.58980  119.85769   -8.83531    8.50000 90000.00000
 1738.00000    8.57330  260.09694  278.24121  266.07365    1.42888   33.53359    0.52832    1.59068  120.72574   -8.53246    8.50000 90000.00000
 1738.10000    8.57136  284.09834  300.74490  287.33057    1.42657   32.99369    0.52362    1.59295  121.89612   -8.28583    8.50000 90000.00000
 1738.20000    8.57262  281.29565  298.32130  286.92716    1.43042   32.11541    0.52209    1.60920  122.10108   -7.99217    8.50000 90000.00000
 1738.30000    8.57373  281.30501  298.58307  287.45112    1.43260   31.74671    0.52540    1.59377  122.18514   -8.00828    8.50000 90000.00000
 1738.40000    8.57463  253.05429  269.56984  260.00416    1.42947   30.59412    0.52238    1.57133  122.88366   -7.92316    8.50000 90000.00000
 1738.50000    8.57257  252.35784  269.79568  260.15566    1.42922   30.13107    0.52420    1.56370  122.86159   -7.80010    8.50000 90000.00000
 1738.60000    8.57325  204.27492  208.74857  204.79134    1.42693   30.20521    0.52617    1.56159  123.68324   -8.05603    8.50000 90000.00000
 1738.70000    8.57569  217.43500  222.47330  219.84114    1.42060   30.70485    0.52601    1.56655  123.55859   -8.51151    8.50000 90000.00000
 1738.80000    8.57549  218.09263  224.25266  221.67060    1.41861   30.35099    0.52707    1.57049  124.85894   -8.55404    8.50000 90000.00000
 1738.90000    8.57590  220.34816  226.86580  224.24667    1.42045   29.37807    0.52920    1.57243  125.32923   -8.17698    8.50000 90000.00000
 1739.00000    8.58008  248.93079  249.69520  247.78956    1.43272   28.82261    0.53179    1.57587  125.61170   -8.34410    8.50000 90000.00000
