~Version ---------------------------------------------------
VERS.   2.0 : CWLS log ASCII Standard -VERSION 2.0
WRAP.    NO : One line per depth step
DLM . SPACE : Column Data Section Delimiter
~Well ------------------------------------------------------
STRT.m          1000.00000 : START DEPTH
STOP.m          2000.00000 : STOP DEPTH
STEP.m             0.10000 : STEP
NULL.             -9999.25 : NULL VALUE
COMP. FORCE 2020 Recreator : 
WELL.   WELL_FORCE_2020_07 : 
FLD .                      : FIELD
LOC .                      : LOCATION
PROV.                      : PROVINCE
CNTY.                      : COUNTY
STAT.                      : STATE
CTRY.                      : COUNTRY
SRVC.                      : SERVICE COMPANY
DATE.                      : DATE
UWI .                      : UNIQUE WELL ID
API .                      : API NUMBER
~Curve Information -----------------------------------------
DEPT                            .m      : 
CALI                            .in     : 
RSHA                            .ohm.m  : 
RMED                            .ohm.m  : 
RDEP                            .ohm.m  : 
RHOB                            .g/cm3  : 
GR                              .gAPI   : 
NPHI                            .v/v    : 
PEF                             .b/e    : 
DTC                             .us/ft  : 
SP                              .mV     : 
BS                              .in     : 
FORCE_2020_LITHOFACIES_LITHOLOGY.code   : 
~Params ----------------------------------------------------
~Other -----------------------------------------------------
~ASCII -----------------------------------------------------
# ...
 1067.20000    8.58411    8.17381    7.99303    8.01268    2.42179   70.14655    0.26828    2.57004   92.47469  -13.38618    8.50000 65030.00000
 1067.30000    8.58642    8.44459    8.26574    8.28088    2.41824   69.60241    0.27018    2.56820   93.73085  -13.11226    8.50000 65030.00000
 1067.40000    8.58588    8.21416    8.11013    8.07734    2.41362   71.04262    0.26888    2.57851   94.05467  -13.04716    8.50000 65030.00000
 1067.50000    8.58813    8.17332    8.15509    8.12379    2.41333   72.99464    0.26869    2.57832   94.34218  -12.98904    8.50000 65030.00000
 1067.60000    8.59323    7.96230    7.92244    7.92065    2.41168   73.27409    0.26899    2.57928   93.53207  -13.10751    8.50000 65030.00000
 1067.70000    8.59244    7.82018    7.73126    7.74199    2.41519   73.71794    0.26756    2.59627   93.36739  -12.93857    8.50000 65030.00000
 1067.80000    8.58942    7.70044    7.56174    7.56619    2.41652   74.25296    0.26917    2.61362   93.35481  -12.72690    8.50000 65030.00000
 1067.90000    8.58971    8.00239    7.88928    7.92938    2.41000   73.77667    0.27203    2.61143   93.62747  -12.94989    8.50000 65030.00000
 1068.00000    8.59244    7.68859    7.61069    7.66716    2.40701   75.05904    0.26852    2.60004   93.16685  -13.42432    8.50000 65030.00000
 1068.10000    8.59073    8.08203    8.11926    8.09464    2.40735   76.17922    0.27070    2.59561   92.96920  -13.27088    8.50000 65030.00000
 1068.20000    8.58815    8.07990    8.10040    8.08708    2.40343   76.94010    0.26999    2.58353   92.88138  -13.16061    8.50000 65030.00000
 1068.30000    8.58839    7.87451    7.87510    7.92554    2.40311   76.77832    0.26806    2.59574   92.20792  -13.07751    8.50000 65030.00000
 1068.40000    8.58551    8.27535    8.36580    8.35532    2.39994   76.03613    0.26999    2.59014   91.99379  -13.80365    8.50000 65030.00000
 1068.50000    8.58464    8.66886    8.68091    8.64382    2.39548   75.18039    0.27122    2.58198   92.27395  -13.84484    8.50000 65030.00000
 1068.60000    8.58279    9.41704    9.48752    9.44295    2.39760   75.39447    0.26722    2.58853   92.10614  -14.03173    8.50000 65030.00000
 1068.70000    8.58395    8.54722    8.74788    8.68407    2.39436   74.69828    0.26489    2.58512   92.23340  -13.93557    8.50000 65030.00000
 1068.80000    8.58276    8.42841    8.66351    8.57917    2.39543   74.88600    0.26176    2.58581   92.31694  -14.01794    8.50000 65030.00000
 1068.90000    8.58164    8.39792    8.57740    8.49838    2.39077   75.63547    0.26275    2.58038   92.17734  -14.35528    8.50000 65030.00000
 1069.00000    8.58246    8.29218    8.45398    8.37475    2.38841   75.17695   -9999.25    2.58704   92.17219  -14.48875    8.50000 65030.00000
 1069.10000    8.58551    8.11290    8.30910    8.26905    2.39162   75.07471    0.26787    2.57800   91.89761  -14.21614    8.50000 65030.00000
 1069.20000    8.58404    8.09320    8.33117    8.28236    2.39568   76.07101    0.27185    2.58405   92.29360  -14.90691    8.50000 65030.00000
 1069.30000    8.58471    8.44916    8.64992    8.62842    2.39591   76.52425    0.26984    2.58145   91.66614  -15.36286    8.50000 65030.00000
 1069.40000    8.58339    8.12565    8.39653    8.38071    2.39648   76.17048    0.26463    2.57908   90.98305  -15.26941    8.50000 65030.00000
 1069.50000    8.58471    8.05463    8.30103    8.30347    2.40094   75.94150    0.26873    2.57622   91.11131  -15.14400    8.50000 65030.00000
 1069.60000    8.58385    8.17655    8.40364    8.40316    2.40019   74.19743    0.27186    2.56138   90.72109  -15.33057    8.50000 65030.00000
 1069.70000    8.58192    8.34038    8.53577    8.54752    2.40597   73.39815    0.27246    2.56832   91.88615  -15.65017    8.50000 65030.00000
 1069.80000    8.58372    8.19695    8.46202    8.48104    2.40865   73.30371    0.27190    2.56136   93.01177  -15.40491    8.50000 65030.00000
 1069.90000    8.58626    8.09332    8.35862    8.36855    2.40540   73.49271    0.27280    2.55428   92.60910  -15.77966    8.50000 65030.00000
 1070.00000    8.58530    7.97072    8.26129    8.22600    2.40495   74.18627    0.27365    2.55773   92.64031  -16.08589    8.50000 65030.00000
 1070.10000    8.58227    8.09250    8.37553    8.32680    2.39987   73.89051    0.27690    2.56334   93.01975  -15.49800    8.50000 65030.00000
 1070.20000    8.58233    7.67374    7.83501    7.83988    2.38933   73.06008    0.27877    2.57355   93.55894  -15.84039    8.50000 65030.00000
 1070.30000    8.58404    7.63462    7.83727    7.86227    2.39004   73.18727    0.27429    2.58309   93.43635  -16.53094    8.50000 65030.00000
 1070.40000    8.58427    7.58507    7.75633    7.77280    2.39284   73.59342    0.27300    2.58091   93.80158  -16.43167    8.50000 65030.00000
 1070.50000    8.58568    7.15369    7.19362    7.28084    2.39841   75.27165    0.27167    2.58577   94.22460  -16.29921    8.50000 65030.00000
 1070.60000    8.58401    6.57956    6.75796    6.81966    2.40014   75.34059    0.27283    2.58610   93.55469  -15.68696    8.50000 65030.00000
 1070.70000    8.58249    5.71201    5.89156    5.93508    2.39762   75.79066    0.27652    2.59117   94.25312  -15.53827    8.50000 65030.00000
 1070.80000    8.58380    5.85187    6.02998    6.08622    2.40264   76.82079    0.27674    2.58701   93.87755  -16.01404    8.50000 65030.00000
 1070.90000    8.58596    5.84390    6.02589    6.08115    2.40208   77.11364    0.27795    2.58064   94.07596  -15.86705    8.50000 65030.00000
 1071.00000    8.58696    6.01154    6.12221    6.19733    2.40178   76.83147    0.27328    2.57635   95.12758  -15.36148    8.50000 65030.00000
 1071.10000    8.58899    6.13346    6.19635    6.28014    2.40600   76.50672    0.26499    2.56465   95.19190  -15.46653    8.50000 65030.00000
 1071.20000    8.58902    6.10059    6.12815    6.19573    2.40267   77.19086    0.26366    2.58806   95.43459  -15.59640    8.50000 65030.00000
 1071.30000    8.59063    6.18030    6.20604    6.26551    2.39767   77.07652    0.26539    2.59362   96.21141  -15.53886    8.50000 65030.00000
 1071.40000    8.58792    5.79072    5.83697    5.88573    2.39600   77.28998    0.26725    2.59038   96.81960  -15.05172    8.50000 65030.00000
 1071.50000    8.58736    6.43011    6.75086    6.76428    2.39929   77.41236    0.26954    2.60328   97.06020  -15.18491    8.50000 65030.00000
 1071.60000    8.58522    6.98387    7.28607    7.26224    2.40259   77.71777    0.26897    2.60517   97.46030  -15.19486    8.50000 65030.00000
 1071.70000    8.58304    6.92535    7.14214    7.15076    2.40437   79.05261    0.26616    2.61515   97.27133  -15.56322    8.50000 65030.00000
 1071.80000    8.58094    6.95447    7.22397    7.22489    2.39776   80.40149    0.26578    2.61056   96.48969  -15.07264    8.50000 65030.00000
 1071.90000    8.57919    7.05475    7.44956    7.43956    2.39682   81.57318    0.27023    2.61556   95.52154  -15.14171    8.50000 65030.00000
 1072.00000    8.57697    7.45446    7.87825    7.85850    2.39913   81.32009    0.26724    2.62058   95.46130  -14.80728    8.50000 65030.00000
 1072.10000    8.57686    7.30994    7.66646    7.66527    2.40308   80.96500    0.26499    2.60684   95.09478  -14.70429    8.50000 65030.00000
 1072.20000    8.57641    7.25512    7.60419    7.64790    2.40579   80.80776    0.26486    2.60812   94.86687  -14.69443    8.50000 65030.00000
 1072.30000    8.57973    7.49929    7.89964    7.92137    2.41530   80.65216    0.26169    2.60785   94.31666  -14.53632    8.50000 65030.00000
 1072.40000    8.57750    7.54737    7.95565    7.95594    2.41674   79.10242    0.26521    2.60380   94.44584  -14.16434    8.50000 65030.00000
 1072.50000    8.57793    7.51358    7.94411    7.92631    2.41584   78.84152    0.26584    2.59638   95.42397  -14.15644    8.50000 65030.00000
 1072.60000    8.57387    7.32706    7.76970    7.76465    2.41288   78.21613    0.26091    2.59747   95.24810  -13.83012    8.50000 65030.00000
 1072.70000    8.57474    7.43451    7.78420    7.81051    2.41134   77.47713    0.26067    2.59281   95.18923  -14.31034    8.50000 65030.00000
