~Version ---------------------------------------------------
VERS.   2.0 : CWLS log ASCII Standard -VERSION 2.0
WRAP.    NO : One line per depth step
DLM . SPACE : Column Data Section Delimiter
~Well ------------------------------------------------------
STRT.m          1000.00000 : START DEPTH
STOP.m          2000.00000 : STOP DEPTH
STEP.m             0.10000 : STEP
NULL.             -9999.25 : NULL VALUE
COMP. FORCE 2020 Recreator : 
WELL.   WELL_FORCE_2020_08 : 
FLD .                      : FIELD
LOC .                      : LOCATION
PROV.                      : PROVINCE
CNTY.                      : COUNTY
STAT.                      : STATE
CTRY.                      : COUNTRY
SRVC.                      : SERVICE COMPANY
DATE.                      : DATE
UWI .                      : UNIQUE WELL ID
API .                      : API NUMBER
~Curve Information -----------------------------------------
DEPT                            .m      : 
CALI                            .in     : 
RSHA                            .ohm.m  : 
RMED                            .ohm.m  : 
RDEP                            .ohm.m  : 
RHOB                            .g/cm3  : 
GR                              .gAPI   : 
NPHI                            .v/v    : 
PEF                             .b/e    : 
DTC                             .us/ft  : 
SP                              .mV     : 
BS                              .in     : 
FORCE_2020_LITHOFACIES_LITHOLOGY.code   : 
~Params ----------------------------------------------------
~Other -----------------------------------------------------
~ASCII -----------------------------------------------------
# ...
 1666.40000    8.58187   42.28734   43.26528   43.04586    2.68069   20.51747    0.10009    5.08723   57.64008   -4.58037    8.50000 70000.00000
 1666.50000    8.58184   41.05822   41.82587   41.61418    2.67724   19.76393    0.09792    5.06894   57.48715   -4.72683    8.50000 70000.00000
 1666.60000    8.58212   40.92108   41.76721   41.63073    2.67922   20.07143    0.09543    5.06099   57.51942   -4.69194    8.50000 70000.00000
 1666.70000    8.58145   42.43527   43.76932   43.66605    2.68113   20.49914    0.09670    5.05976   57.61846   -4.14873    8.50000 70000.00000
 1666.80000    8.58156   44.53943   45.46742   45.40976    2.68167   20.01969    0.09650    5.07342   57.40979   -4.05720    8.50000 70000.00000
 1666.90000    8.58760   43.99939   45.46803   45.32909    2.68234   19.71913    0.09888    5.07537   57.63779   -4.19060    8.50000 70000.00000
 1667.00000    8.58885   41.44401   42.49752   42.44642    2.68416   19.39976    0.09905    5.08299   57.68995   -4.33873    8.50000 70000.00000
 1667.10000    8.59003   45.51544   45.74338   46.02797    2.68379   19.86255    0.10115    5.08727   57.87858   -4.66445    8.50000 70000.00000
 1667.20000    8.58590   45.74935   45.71619   46.01012    2.68323   20.37915    0.10081    5.09675   57.29477   -4.51793    8.50000 70000.00000
 1667.30000    8.58148   45.50053   45.52212   45.86131    2.68181   19.99858    0.10245    5.07625   57.72257   -4.54105    8.50000 70000.00000
 1667.40000    8.58292   44.49027   44.64020   44.85126    2.68300   19.51922    0.10354    5.08210   57.43863   -5.18192    8.50000 70000.00000
 1667.50000    8.58163   44.32706   44.18739   44.41704    2.68390   19.94980    0.10374    5.08801   57.04180   -5.16409    8.50000 70000.00000
 1667.60000    8.58054   44.74734   44.53048   44.76127    2.67937   19.72409    0.10365    5.08644   56.90369   -5.34205    8.50000 70000.00000
 1667.70000    8.58059   44.29391   44.61955   44.63203    2.67923   19.04013    0.10257    5.09984   56.89858   -4.88175    8.50000 70000.00000
 1667.80000    8.58296   51.34552   51.51945   51.54282    2.67936   19.17006    0.10292    5.09440   57.05591   -4.56664    8.50000 70000.00000
 1667.90000    8.58492   50.58280   50.06552   50.20528    2.67840   19.38093    0.10185    5.09322   56.84097   -4.20916    8.50000 70000.00000
 1668.00000    8.58617   57.43447   58.59176   58.13325    2.68037   19.22298    0.10241    5.10006   56.88449   -4.17443    8.50000 70000.00000
 1668.10000    8.58532   63.32116   64.72186   63.89487    2.68011   18.68563    0.10152    5.09571   57.10614   -4.52277    8.50000 70000.00000
 1668.20000    8.58701   65.53979   67.10707   66.33002    2.68502   19.13135    0.10187    5.10603   56.82030   -4.97980    8.50000 70000.00000
 1668.30000    8.58420   63.96833   64.93057   64.29706    2.68864   19.55344    0.09980    5.08797   57.13858   -5.00568    8.50000 70000.00000
 1668.40000    8.57960   65.63268   66.33728   65.75770    2.68739   19.71434    0.10005    5.09314   57.01679   -4.86862    8.50000 70000.00000
 1668.50000    8.57959   64.77673   65.65459   64.96058    2.68660   20.43439    0.10168    5.08527   57.06770   -4.95884    8.50000 70000.00000
 1668.60000    8.57826   64.73763   65.67921   64.94974    2.68723   21.07478    0.10396    5.08448   57.30622   -4.81976    8.50000 70000.00000
 1668.70000    8.57650   64.59841   65.53908   64.76812    2.68592   20.75198    0.10350    5.07480   57.87352   -4.54762    8.50000 70000.00000
 1668.80000    8.57844   64.34221   64.99071   64.12245    2.68689   20.76651    0.10208    5.09068   58.16802   -4.75702    8.50000 70000.00000
 1668.90000    8.57818   60.26189   61.52566   60.62915    2.68807   21.47436    0.10298    5.09536   58.13938   -4.82613    8.50000 70000.00000
 1669.00000    8.57715   61.47874   62.69203   61.82322    2.69058   21.36644    0.10188    5.08901   58.10978   -4.86137    8.50000 70000.00000
 1669.10000    8.57672   61.87886   63.22551   62.43763    2.68871   21.33428    0.10263    5.08741   58.58895   -4.74031    8.50000 70000.00000
 1669.20000    8.57968   55.66181   58.18184   57.13427    2.68708   20.80388    0.10118    5.07047   58.70511   -4.65002    8.50000 70000.00000
 1669.30000    8.58005   56.04280   58.39586   57.36205    2.68707   19.88216    0.10114    5.06337   59.42616   -4.51381    8.50000 70000.00000
 1669.40000    8.58533   57.37713   59.48279   58.59027    2.68523   20.20170    0.10068    5.08643   58.93850   -4.66439    8.50000 70000.00000
 1669.50000    8.58448   59.08763   60.59847   59.92300    2.68655   20.75662    0.10129    5.06916   58.76227   -4.36330    8.50000 70000.00000
 1669.60000    8.58473   61.42630   62.57523   61.96759    2.68273   20.75266    0.10090    5.06140   58.64822   -4.22391    8.50000 70000.00000
 1669.70000    8.58290   60.44110   61.65533   61.01035    2.68730   21.07117    0.10190    5.07643   59.03029   -4.54935    8.50000 70000.00000
 1669.80000    8.58481   67.22305   68.16930   66.92831    2.68926   21.31850    0.10201    5.07269   58.96214   -4.73188    8.50000 70000.00000
 1669.90000    8.58327   59.39155   60.17532   59.05124    2.68796   20.78023    0.10235    5.07296   58.76249   -4.75979    8.50000 70000.00000
 1670.00000    8.58224   56.14116   57.64472   56.40183    2.68552   20.57529    0.10188    5.07829   58.59656   -4.93987    8.50000 70000.00000
 1670.10000    8.58398   50.42461   50.44531   49.68707    2.68024   20.70696    0.10146    5.05807   58.31716   -4.81414    8.50000 70000.00000
 1670.20000    8.58330   45.19247   45.16587   44.73703    2.67670   20.91505    0.10019    5.04791   58.15494   -4.03931    8.50000 70000.00000
 1670.30000    8.58131   41.63411   41.29927   40.85837    2.67638   20.59573    0.10108    5.03837   58.25866   -3.91577    8.50000 70000.00000
 1670.40000    8.58202   41.08242   40.73247   40.28385    2.66985   20.52975    0.10077    5.04509   58.08189   -4.07988    8.50000 70000.00000
 1670.50000    8.58517   39.08057   39.09724   38.66308    2.67269   20.05380    0.09917    5.04806   58.11655   -4.14811    8.50000 70000.00000
 1670.60000    8.58480   40.45023   39.78937   39.32627    2.67129   19.57088    0.09906    5.05195   57.89615   -3.55534    8.50000 70000.00000
 1670.70000    8.58622   40.69988   40.04729   39.62567    2.67507   19.82236    0.09968    5.06981   57.35693   -3.53534    8.50000 70000.00000
 1670.80000    8.58526   39.94393   39.38673   38.95646    2.67274   19.51444    0.10083    5.07865   56.79643   -3.59138    8.50000 70000.00000
 1670.90000    8.58332   39.00347   38.39282   38.08649    2.67030   18.98312    0.10086    5.05481   56.28123   -3.66489    8.50000 70000.00000
 1671.00000    8.58261   39.76340   39.32047   38.98751    2.66753   18.34618    0.10083    5.05463   56.78853   -3.63370    8.50000 70000.00000
 1671.10000    8.58160   38.51656   37.57765   37.13443    2.66285   18.65380    0.10273    5.05123   56.85380   -3.16280    8.50000 70000.00000
 1671.20000    8.58020   38.71012   37.06887   36.73087    2.66213   18.96784   -9999.25    5.03980   56.52037   -3.35865    8.50000 70000.00000
 1671.30000    8.57911   39.16076   37.78790   37.35165    2.66266   19.12823    0.10261    5.05124   56.22070   -3.56490    8.50000 70000.00000
 1671.40000    8.57892   39.24193   38.19753   37.74113    2.66544   19.84456    0.10291    5.06153   56.09052   -3.65036    8.50000 70000.00000
 1671.50000    8.57799   39.19556   38.43448   37.87466    2.67080   19.67614    0.10202    5.05439   56.27441   -3.82234    8.50000 70000.00000
 1671.60000    8.58087   38.61810   38.16693   37.55711    2.66924   19.81227    0.10140    5.06414   57.02982   -4.19588    8.50000 70000.00000
 1671.70000    8.58077   39.61649   40.54354   39.47227    2.67213   19.29290    0.10245    5.07068   57.03171   -4.57398    8.50000 70000.00000
 1671.80000    8.58129   44.70271   45.97231   44.69135    2.67045   19.18386    0.10406    5.06224   56.55923   -4.19913    8.50000 70000.00000
 1671.90000    8.58093   36.80953   37.49853   36.83679    2.66832   19.27151    0.10560    5.06220   56.81118   -4.00116    8.50000 70000.00000
