~Version ---------------------------------------------------
VERS.   2.0 : CWLS log ASCII Standard -VERSION 2.0
WRAP.    NO : One line per depth step
DLM . SPACE : Column Data Section Delimiter
~Well ------------------------------------------------------
STRT.m          1000.00000 : START DEPTH
STOP.m          2000.00000 : STOP DEPTH
STEP.m             0.10000 : STEP
NULL.             -9999.25 : NULL VALUE
COMP. FORCE 2020 Recreator : 
WELL.   WELL_FORCE_2020_05 : 
FLD .                      : FIELD
LOC .                      : LOCATION
PROV.                      : PROVINCE
CNTY.                      : COUNTY
STAT.                      : STATE
CTRY.                      : COUNTRY
SRVC.                      : SERVICE COMPANY
DATE.                      : DATE
UWI .                      : UNIQUE WELL ID
API .                      : API NUMBER
~Curve Information -----------------------------------------
DEPT                            .m      : 
CALI                            .in     : 
RSHA                            .ohm.m  : 
RMED                            .ohm.m  : 
RDEP                            .ohm.m  : 
RHOB                            .g/cm3  : 
GR                              .gAPI   : 
NPHI                            .v/v    : 
PEF                             .b/e    : 
DTC                             .us/ft  : 
SP                              .mV     : 
BS                              .in     : 
FORCE_2020_LITHOFACIES_LITHOLOGY.code   : 
~Params ----------------------------------------------------
~Other -----------------------------------------------------
~ASCII -----------------------------------------------------
# ...
 1263.20000    9.85039    2.78010    2.84705    2.85308    2.47438  117.96550    0.35978   -9999.25  106.59909    5.01901    8.50000 65000.00000
 1263.30000    9.79560    2.93466    2.98741    2.98337    2.47599  118.26855    0.36055   -9999.25  107.60364    5.05323    8.50000 65000.00000
 1263.40000    9.78156    2.97224    3.00687    3.00435    2.47343  117.50394    0.36199   -9999.25  108.12087    4.54096    8.50000 65000.00000
 1263.50000    9.81506    2.89579    2.94008    2.93960    2.47163  119.99384    0.35830   -9999.25  108.92913    4.31670    8.50000 65000.00000
 1263.60000    9.82524    2.93732    2.97674    2.98629    2.47249  118.12528    0.35720   -9999.25  108.88255    4.33014    8.50000 65000.00000
 1263.70000    9.82291    2.84253    2.84478    2.86141    2.46934  118.53050    0.35447   -9999.25  108.75114    4.40781    8.50000 65000.00000
 1263.80000    9.79145    2.65394    2.62973    2.64681    2.46701  118.24979    0.35975   -9999.25  108.85648    4.52152    8.50000 65000.00000
 1263.90000    9.78864    2.72282    2.67924    2.69263    2.47294  118.05125    0.35791   -9999.25  109.16153    4.64126    8.50000 65000.00000
 1264.00000    9.74529    2.70539    2.67540    2.67667    2.48013  117.48320    0.35522   -9999.25  108.98318    4.49446    8.50000 65000.00000
 1264.10000    9.75388    2.72824    2.68272    2.68325    2.47863  119.33164    0.35816   -9999.25  109.39128    4.42427    8.50000 65000.00000
 1264.20000    9.76967    2.86400    2.81394    2.82096    2.47712  118.03440    0.36273   -9999.25  108.89552    4.50019    8.50000 65000.00000
 1264.30000    9.77575    2.84989    2.77946    2.78928    2.47653  118.59616    0.36231   -9999.25  108.99859    4.74261    8.50000 65000.00000
 1264.40000    9.74133    2.79427    2.73949    2.75208    2.47358  117.25818    0.36218   -9999.25  108.50276    4.44879    8.50000 65000.00000
 1264.50000    9.73421    2.80848    2.73151    2.76020    2.47944  116.70341    0.37119   -9999.25  108.99141    4.49903    8.50000 65000.00000
 1264.60000    9.74426    2.85139    2.79363    2.81252    2.47492  116.04059    0.36913   -9999.25  108.87991    4.71506    8.50000 65000.00000
 1264.70000    9.74135    2.81636    2.73785    2.76461    2.47724  116.29094    0.36850   -9999.25  109.00234    4.64136    8.50000 65000.00000
 1264.80000    9.74654    2.84794    2.73553    2.76488    2.47726  116.47737    0.37034   -9999.25  108.68286    4.57951    8.50000 65000.00000
 1264.90000    9.79610    2.78031    2.64670    2.67104    2.47456  116.07827    0.37135   -9999.25  108.70619    4.83733    8.50000 65000.00000
 1265.00000    9.77884    2.78207    2.67434    2.69265    2.47718  117.75053    0.37127   -9999.25  108.71544    4.90103    8.50000 65000.00000
 1265.10000    9.79147    2.82343    2.70196    2.72031    2.47998  118.64725    0.36907   -9999.25  108.91124    4.76729    8.50000 65000.00000
 1265.20000    9.79487    2.75389    2.64130    2.66095    2.47844  119.91571    0.36953   -9999.25  109.33687    4.46037    8.50000 65000.00000
 1265.30000    9.82779    2.81800    2.70397    2.71882    2.48202  118.13625    0.36736   -9999.25  109.84983    4.51640    8.50000 65000.00000
 1265.40000    9.84847    2.72330    2.62731    2.63941    2.48358  118.87255    0.36728   -9999.25  109.88090    4.28526    8.50000 65000.00000
 1265.50000    9.77125    2.70705    2.63861    2.64229    2.48269  117.18829    0.36607   -9999.25  108.78096    4.78778    8.50000 65000.00000
 1265.60000    9.68981    2.82225    2.76851    2.76221    2.48510  113.31010    0.36624   -9999.25  107.99793    4.81553    8.50000 65000.00000
 1265.70000    9.62796    3.11838    3.06274    3.06829    2.49456  112.94730    0.36484   -9999.25  107.22751    4.51026    8.50000 65000.00000
 1265.80000    9.56892    3.29600    3.23538    3.24253    2.49203  111.45335    0.36059   -9999.25  106.74973    4.12306    8.50000 65000.00000
 1265.90000    9.53770    3.32357    3.28753    3.28325    2.49467  110.21136    0.35480   -9999.25  106.23204    3.69527    8.50000 65000.00000
 1266.00000    9.47758    3.32028    3.29428    3.29737    2.48950  108.45182    0.35541   -9999.25  105.44613    3.18955    8.50000 65000.00000
 1266.10000    9.44996    3.33651    3.31193    3.32115    2.49491  107.93290    0.35252   -9999.25  105.15370    3.21102    8.50000 65000.00000
 1266.20000    9.39177    3.54680    3.53497    3.53902    2.49997  105.39226    0.35208   -9999.25  104.79105    3.09697    8.50000 65000.00000
 1266.30000    9.31892    3.51801    3.51005    3.51367    2.50120  104.19831    0.35090   -9999.25  104.79137    2.63416    8.50000 65000.00000
 1266.40000    9.24384    3.58610    3.59582    3.59141    2.50132  102.35263    0.34946   -9999.25  104.34060    2.41388    8.50000 65000.00000
 1266.50000    9.19765    3.56526    3.59303    3.58471    2.50435   99.62478    0.34653   -9999.25  104.69052    2.29038    8.50000 80000.00000
 1266.60000    9.13631    3.55276    3.56192    3.55109    2.50078   97.52447    0.34352   -9999.25  103.87780    1.96899    8.50000 80000.00000
 1266.70000    9.08069    3.65146    3.62848    3.64878    2.50268   96.30201    0.34062   -9999.25  104.34437    1.58026    8.50000 80000.00000
 1266.80000    9.03889    3.69162    3.66910    3.67905    2.50139   94.22502    0.33832   -9999.25  103.26950    1.00346    8.50000 80000.00000
 1266.90000    8.98329    3.59059    3.59307    3.58949    2.50222   91.80644    0.33685   -9999.25  102.53542    0.90392    8.50000 80000.00000
 1267.00000    8.87954    3.82088    3.91442    3.87355    2.50567   89.92010    0.33396   -9999.25  101.58921    0.27901    8.50000 80000.00000
 1267.10000    8.83569    3.96175    4.04444    4.01250    2.50679   85.91455    0.33504   -9999.25  101.90900   -0.40534    8.50000 80000.00000
 1267.20000    8.76130    3.92174    4.01404    3.99236    2.50061   83.19057    0.33420   -9999.25  100.30623   -0.48022    8.50000 80000.00000
 1267.30000    8.70646    3.97931    4.06504    4.04855    2.50619   81.95440    0.33084   -9999.25  100.13804   -0.33449    8.50000 80000.00000
 1267.40000    8.62130    4.08645    4.16493    4.16688    2.50415   81.24736    0.32949   -9999.25   99.37223   -0.13056    8.50000 80000.00000
 1267.50000    8.57848    4.11079    4.22239    4.23491    2.50926   79.47966    0.32667   -9999.25   98.00609   -0.20738    8.50000 80000.00000
 1267.60000    8.57515    4.11701    4.21236    4.23275    2.51296   79.76511    0.32713   -9999.25   98.75461   -0.52612    8.50000 80000.00000
 1267.70000    8.57290    4.03487    4.13397    4.15596    2.52180   80.75836    0.32573   -9999.25   98.70484   -0.51617    8.50000 80000.00000
 1267.80000    8.57450    3.88482    4.00068    3.99822    2.52127   80.40990    0.32593   -9999.25   98.67372   -0.56373    8.50000 80000.00000
 1267.90000    8.57451    3.79430    3.90740    3.92097    2.52457   80.88605    0.32435   -9999.25   98.35459   -0.47811    8.50000 80000.00000
 1268.00000    8.56985    3.77252    3.88171    3.89729    2.52313   80.75772    0.32284   -9999.25   98.85630   -0.15957    8.50000 80000.00000
 1268.10000    8.56937    3.72153    3.84586    3.87116    2.52576   81.57749    0.32069   -9999.25   98.71802    0.15642    8.50000 80000.00000
 1268.20000    8.56882    3.66092    3.80803    3.84303    2.52172   82.13635    0.32244   -9999.25   98.25120   -0.25318    8.50000 80000.00000
 1268.30000    8.56880    3.48927    3.61253    3.66309    2.52169   82.66609    0.32308   -9999.25   97.12137   -0.48761    8.50000 80000.00000
 1268.40000    8.57040    3.70996    3.85898    3.92349    2.52716   83.70647    0.32024   -9999.25   96.77780   -0.67946    8.50000 80000.00000
 1268.50000    8.57466    3.63648    3.77618    3.84392    2.52972   84.12903    0.31956   -9999.25   96.89478   -0.44237    8.50000 80000.00000
 1268.60000    8.57475    3.65886    3.79622    3.85834    2.52849   84.07921    0.32017   -9999.25   96.62121   -0.26329    8.50000 80000.00000
 1268.70000    8.57495    3.85701    4.01186    4.05505    2.52951   83.91663    0.31407   -9999.25   96.83626    0.01597    8.50000 80000.00000
