~Version ---------------------------------------------------
VERS.   2.0 : CWLS log ASCII Standard -VERSION 2.0
WRAP.    NO : One line per depth step
DLM . SPACE : Column Data Section Delimiter
~Well ------------------------------------------------------
STRT.m          1000.00000 : START DEPTH
STOP.m          2000.00000 : STOP DEPTH
STEP.m             0.10000 : STEP
NULL.             -9999.25 : NULL VALUE
COMP. FORCE 2020 Recreator : 
WELL.   WELL_FORCE_2020_04 : 
FLD .                      : FIELD
LOC .                      : LOCATION
PROV.                      : PROVINCE
CNTY.                      : COUNTY
STAT.                      : STATE
CTRY.                      : COUNTRY
SRVC.                      : SERVICE COMPANY
DATE.                      : DATE
UWI .                      : UNIQUE WELL ID
API .                      : API NUMBER
~Curve Information -----------------------------------------
DEPT                            .m      : 
CALI                            .in     : 
RSHA                            .ohm.m  : 
RMED                            .ohm.m  : 
RDEP                            .ohm.m  : 
RHOB                            .g/cm3  : 
GR                              .gAPI   : 
NPHI                            .v/v    : 
PEF                             .b/e    : 
DTC                             .us/ft  : 
SP                              .mV     : 
BS                              .in     : 
FORCE_2020_LITHOFACIES_LITHOLOGY.code   : 
~Params ----------------------------------------------------
~Other -----------------------------------------------------
~ASCII -----------------------------------------------------
# ...
 1862.30000    8.58061   42.74945   42.75606   42.82167    2.69232   19.64123    0.10067    5.04764   58.67859   -6.05489    8.50000 70000.00000
 1862.40000    8.58520   42.23776   42.95615   43.15241    2.69224   19.48805    0.09974    5.05247   58.91450   -5.96109    8.50000 70000.00000
 1862.50000    8.58439   45.30075   46.04652   45.88721    2.69052   18.87931    0.10197    5.05206   58.76732   -5.83168    8.50000 70000.00000
 1862.60000    8.58155   45.23031   46.00930   45.77684    2.69383   18.80478    0.10163    5.06934   58.47679   -5.71276    8.50000 70000.00000
 1862.70000    8.57982   45.71318   46.85306   46.44358    2.69389   18.16750    0.10206    5.06692   58.16428   -5.51202    8.50000 70000.00000
 1862.80000    8.58017   46.33743   47.42379   46.95767    2.69618   18.62860    0.10303    5.06527   57.61184   -5.06154    8.50000 70000.00000
 1862.90000    8.57875   49.03245   50.24255   49.65893    2.69481   18.59395    0.10279    5.05910   57.91445   -4.84735    8.50000 70000.00000
 1863.00000    8.57936   52.19388   52.60848   52.09379    2.69686   18.58777    0.10355    5.05594   58.03720   -4.39666    8.50000 70000.00000
 1863.10000    8.58069   48.55812   49.43919   49.05287    2.69800   18.29204    0.10347    5.06233   57.87583   -4.60760    8.50000 70000.00000
 1863.20000    8.58149   48.45132   49.56711   49.10198    2.69752   18.26038    0.10610    5.06177   57.51913   -4.88903    8.50000 70000.00000
 1863.30000    8.57862   47.17640   48.63667   48.01697    2.69648   18.54056    0.10619    5.05760   57.38831   -5.01071    8.50000 70000.00000
 1863.40000    8.57822   50.18900   51.52031   50.86416    2.69570   18.21364    0.10684    5.06190   57.57807   -4.92118    8.50000 70000.00000
 1863.50000    8.57913   49.65151   51.18180   50.52055    2.69382   18.31402    0.10541    5.07090   57.29107   -4.84110    8.50000 70000.00000
 1863.60000    8.57827   50.21244   51.79107   51.29088    2.69261   18.42026    0.10502    5.07773   57.01703   -4.38878    8.50000 70000.00000
 1863.70000    8.57910   50.05706   51.54586   50.91626    2.69294   19.20643    0.10572    5.07968   57.45192   -4.54208    8.50000 70000.00000
 1863.80000    8.57808   49.20058   50.71845   49.94407    2.68977   19.13574    0.10537    5.06846   57.76061   -4.65919    8.50000 70000.00000
 1863.90000    8.57760   59.31137   59.91346   58.13995    2.68409   19.20082    0.10537    5.08862   57.46047   -4.84160    8.50000 70000.00000
 1864.00000    8.57763   59.67014   59.97835   58.43871    2.68530   19.07247    0.10621    5.09652   57.29176   -4.30153    8.50000 70000.00000
 1864.10000    8.57951   59.26612   59.65952   58.10095    2.68828   19.67646    0.10686    5.10779   56.77401   -4.24211    8.50000 70000.00000
 1864.20000    8.57909   61.85695   62.41569   60.76067    2.68574   19.05798    0.10466    5.10635   56.89467   -4.09797    8.50000 70000.00000
 1864.30000    8.57607   57.31377   57.76664   55.91954    2.68697   19.10860    0.10643    5.10375   57.23409   -3.57668    8.50000 70000.00000
 1864.40000    8.57573   57.02651   57.35088   55.43597    2.68766   18.81292    0.10734    5.09474   57.32559   -3.76811    8.50000 70000.00000
 1864.50000    8.57234   56.65093   56.47168   54.50614    2.68472   18.37350    0.10793    5.09899   57.14525   -4.11708    8.50000 70000.00000
 1864.60000    8.57299   52.93221   52.67244   50.94419    2.68327   18.85182    0.10716    5.09074   57.13473   -4.01997    8.50000 70000.00000
 1864.70000    8.57644   53.06363   52.68325   51.05496    2.68019   18.78806    0.10818    5.08177   57.12637   -4.00264    8.50000 70000.00000
 1864.80000    8.57571   51.73570   51.20874   49.82321    2.67951   19.52861    0.10658    5.08605   57.21739   -3.98787    8.50000 70000.00000
 1864.90000    8.57616   53.81290   53.27179   51.81780    2.67872   19.40812    0.10493    5.07189   57.59914   -4.04128    8.50000 70000.00000
 1865.00000    8.57800   51.03964   50.34474   48.89692    2.68108   19.03902    0.10304    5.07908   57.56579   -3.97496    8.50000 70000.00000
 1865.10000    8.57928   48.12008   48.14937   46.75845    2.67765   19.30358    0.10185    5.08695   57.72738   -4.23680    8.50000 70000.00000
 1865.20000    8.57884   44.83860   44.57755   43.23961    2.67598   19.63579    0.10092    5.09341   57.44752   -4.07634    8.50000 70000.00000
 1865.30000    8.57857   44.54392   44.09504   42.81319    2.67608   19.40282    0.09989    5.10256   57.15675   -3.87655    8.50000 70000.00000
 1865.40000    8.58323   45.07408   44.17420   42.93687    2.67746   19.39981    0.10043    5.08670   57.23321   -3.95366    8.50000 70000.00000
 1865.50000    8.58371   41.10428   40.40308   39.25610    2.67517   19.85211    0.09998    5.06721   57.10728   -4.20581    8.50000 70000.00000
 1865.60000    8.58297   41.09580   40.27690   39.14513    2.67719   20.07167    0.10093    5.06681   57.07394   -4.11908    8.50000 70000.00000
 1865.70000    8.58472   43.57148   42.31186   40.96510    2.67621   19.79369    0.09977    5.08014   57.26629   -4.12904    8.50000 70000.00000
 1865.80000    8.58320   43.73386   43.11796   41.64815    2.67158   19.21863    0.09870    5.06943   56.78781   -4.11395    8.50000 70000.00000
 1865.90000    8.58268   44.18492   43.52911   42.04509    2.67230   19.75106    0.09957    5.05962   56.50617   -4.51178    8.50000 70000.00000
 1866.00000    8.58511   32.95087   32.74869   32.39076    2.67472   19.83620    0.09948    5.05564   56.63580   -4.31947    8.50000 70000.00000
 1866.10000    8.58875   31.09163   30.81080   30.45098    2.67434   20.26061    0.10009    5.05490   56.70965   -4.87154    8.50000 70000.00000
 1866.20000    8.58937   35.60059   35.37231   34.91488    2.67246   19.98154    0.10020    5.05678   56.81992   -4.89170    8.50000 70000.00000
 1866.30000    8.59260   35.06889   35.50182   34.91255    2.67375   20.66573    0.10216    5.06103   56.61256   -5.30264    8.50000 70000.00000
 1866.40000    8.59486   34.86883   35.22668   34.67056    2.67262   20.37646    0.10068    5.06652   56.49181   -5.74130    8.50000 70000.00000
 1866.50000    8.59908   35.32406   35.64492   35.28230    2.66841   20.55598    0.09918    5.05465   56.54522   -5.41219    8.50000 70000.00000
 1866.60000    8.60052   58.35402   57.09865   56.68565    2.66852   20.80793    0.09790    5.06382   56.69345   -5.22353    8.50000 70000.00000
 1866.70000    8.60045   59.26293   58.07982   57.62429    2.66851   20.67117    0.09832    5.07920   56.38450   -5.32047    8.50000 70000.00000
 1866.80000    8.60259   64.15168   62.95921   62.42611    2.67011   20.69841    0.09575    5.07732   56.72920   -5.14410    8.50000 70000.00000
 1866.90000    8.60217   65.95192   64.57922   63.78384    2.66969   20.13866    0.09765    5.08517   56.38749   -5.14334    8.50000 70000.00000
 1867.00000    8.60032   63.64805   62.20395   61.44209    2.66939   19.92808    0.09680    5.09289   55.76000   -5.14490    8.50000 70000.00000
 1867.10000    8.59478   64.62103   63.34041   62.67247    2.66971   20.54368    0.09830    5.08489   55.69000   -5.89503    8.50000 70000.00000
 1867.20000    8.59539   66.26474   64.94839   64.28871    2.67040   20.12493    0.09859    5.07258   55.74038   -6.31776    8.50000 70000.00000
 1867.30000    8.59516   67.72542   66.71823   66.30665    2.67119   20.74675    0.09714    5.05940   56.16875   -6.37539    8.50000 70000.00000
 1867.40000    8.59666   68.48814   67.34606   67.02211    2.67317   20.13410    0.09720    5.04471   56.56908   -6.08132    8.50000 70000.00000
 1867.50000    8.59432   68.17169   67.41606   67.28676    2.67798   19.99376    0.09707    5.06026   56.56308   -6.06171    8.50000 70000.00000
 1867.60000    8.59237   69.77186   68.97305   69.06939    2.67890   19.86681    0.09660    5.08224   56.43370   -5.60106    8.50000 70000.00000
 1867.70000    8.58864   73.30508   72.18094   72.17316    2.67606   19.88766    0.09701    5.07635   56.45051   -5.99368    8.50000 70000.00000
 1867.80000    8.58498   71.17517   70.52261   70.67525    2.67820   20.20410    0.09958    5.06622   56.90628   -6.49971    8.50000 70000.00000
