~Version ---------------------------------------------------
VERS.   2.0 : CWLS log ASCII Standard -VERSION 2.0
WRAP.    NO : One line per depth step
DLM . SPACE : Column Data Section Delimiter
~Well ------------------------------------------------------
STRT.m          1000.00000 : START DEPTH
STOP.m          2000.00000 : STOP DEPTH
STEP.m             0.10000 : STEP
NULL.             -9999.25 : NULL VALUE
COMP. FORCE 2020 Recreator : 
WELL.   WELL_FORCE_2020_03 : 
FLD .                      : FIELD
LOC .                      : LOCATION
PROV.                      : PROVINCE
CNTY.                      : COUNTY
STAT.                      : STATE
CTRY.                      : COUNTRY
SRVC.                      : SERVICE COMPANY
DATE.                      : DATE
UWI .                      : UNIQUE WELL ID
API .                      : API NUMBER
~Curve Information -----------------------------------------
DEPT                            .m      : 
CALI                            .in     : 
RSHA                            .ohm.m  : 
RMED                            .ohm.m  : 
RDEP                            .ohm.m  : 
RHOB                            .g/cm3  : 
GR                              .gAPI   : 
NPHI                            .v/v    : 
PEF                             .b/e    : 
DTC                             .us/ft  : 
SP                              .mV     : 
BS                              .in     : 
FORCE_2020_LITHOFACIES_LITHOLOGY.code   : 
~Params ----------------------------------------------------
~Other -----------------------------------------------------
~ASCII -----------------------------------------------------
# ...
 1134.10000    9.98188    2.80906    2.89985    2.88026    2.49704  118.22071    0.37028    3.42844  108.77181    4.68171    8.50000 65000.00000
 1134.20000    9.95971    2.71672    2.81187    2.79808    2.49373  119.61772    0.36360    3.43496  108.55467    4.83144    8.50000 65000.00000
 1134.30000    9.96788    2.74586    2.84676    2.83867    2.49031  119.42901    0.36750    3.44673  108.54145    4.47380    8.50000 65000.00000
 1134.40000    9.98641    2.68719    2.78691    2.76304    2.48592  118.94451    0.36792    3.44895  107.51606    4.34785    8.50000 65000.00000
 1134.50000    9.96804    2.68116    2.77351    2.74833    2.49326  117.87129    0.36690    3.44588  107.42339    4.30683    8.50000 65000.00000
 1134.60000    9.97761    2.65571    2.76983    2.74331    2.48850  116.57119    0.36534    3.43986  107.36374    4.55466    8.50000 65000.00000
 1134.70000    9.98002    2.66476    2.76245    2.74643    2.49059  117.16901    0.36165    3.43951  108.17154    4.04871    8.50000 65000.00000
 1134.80000    9.98619    2.67974    2.78732    2.76713    2.49223  117.23754    0.36371    3.43267  108.31936    4.28258    8.50000 65000.00000
 1134.90000    9.95473    2.67683    2.76740    2.75079    2.49630  117.93317    0.36425    3.44077  108.01360    4.22262    8.50000 65000.00000
 1135.00000    9.96591    2.70108    2.77573    2.76194    2.50416  117.70427    0.36232    3.43094  108.88918    4.22920    8.50000 65000.00000
 1135.10000    9.93896    2.64331    2.71643    2.71128    2.50145  119.91001    0.36351    3.42751  108.56589    4.12831    8.50000 65000.00000
 1135.20000    9.97112    2.67909    2.82241    2.81114    2.50018  120.26016    0.36154    3.42087  109.17842    4.39779    8.50000 65000.00000
 1135.30000    9.97156    2.66399    2.82499    2.80764    2.49813  119.86103    0.36037    3.40111  109.86699    4.33916    8.50000 65000.00000
 1135.40000    9.99646    2.53473    2.69866    2.68360    2.49481  118.29494    0.36008    3.39447  109.84138    4.54998    8.50000 65000.00000
 1135.50000   10.01992    2.63256    2.79433    2.75299    2.49649  117.77912    0.35964    3.39892  110.20777    4.80873    8.50000 65000.00000
 1135.60000    9.98926    2.56296    2.74142    2.69582    2.49174  117.14252    0.35688    3.39978  110.32445    4.98162    8.50000 65000.00000
 1135.70000    9.97901    2.60146    2.78968    2.75395    2.48949  118.31838    0.35868    3.40235  110.73080    4.82856    8.50000 65000.00000
 1135.80000    9.97035    2.60187    2.74640    2.70279    2.48684  119.19222    0.35647    3.40054  110.31288    5.17944    8.50000 65000.00000
 1135.90000    9.96195    2.56802    2.70078    2.64511    2.49388  119.88619    0.35832    3.42067  109.29794    5.30397    8.50000 65000.00000
 1136.00000    9.93726    2.64397    2.76988    2.72772    2.49639  118.62329    0.36004    3.42642  109.11439    5.32742    8.50000 65000.00000
 1136.10000    9.92878    2.62439    2.72399    2.68621    2.49459  117.30005    0.35713    3.40945  109.63771    4.86452    8.50000 65000.00000
 1136.20000    9.90905    2.61080    2.71463    2.67698    2.49298  115.85876    0.35847    3.38921  109.75577    5.05061    8.50000 65000.00000
 1136.30000    9.93950    2.63159    2.73542    2.69946    2.49841  114.49209    0.36307    3.36939  110.16460    5.01991    8.50000 65000.00000
 1136.40000    9.93578    2.61028    2.70605    2.66464    2.49529  114.43500    0.36307    3.37302  110.09696    5.08453    8.50000 65000.00000
 1136.50000    9.91949    2.58652    2.67518    2.65090    2.49704  116.31438    0.36472    3.37455  110.68966    4.97653    8.50000 65000.00000
 1136.60000    9.89580    2.72800    2.77875    2.76517    2.49176  117.87955    0.36418    3.37134  110.94056    4.88245    8.50000 65000.00000
 1136.70000    9.90331    2.73780    2.79082    2.78040    2.49813  117.92503    0.36662    3.36024  111.83881    4.68605    8.50000 65000.00000
 1136.80000    9.92073    2.71173    2.80192    2.78054    2.49432  116.65982    0.36795    3.37635  111.93685    4.71600    8.50000 65000.00000
 1136.90000    9.89186    2.93379    3.01686    2.99955    2.49281  118.09531    0.37161    3.37900  111.52194    4.70542    8.50000 65000.00000
 1137.00000    9.90563    3.12464    3.19882    3.16157    2.48802  116.93437    0.37433    3.36959  112.00349    4.46333    8.50000 65000.00000
 1137.10000    9.90113    3.09964    3.19318    3.14735    2.49070  118.05263    0.37689    3.37782  111.25353    4.51872    8.50000 65000.00000
 1137.20000    9.91022    3.04257    3.14081    3.09164    2.49563  116.18985    0.37506    3.37582  111.57084    4.64806    8.50000 65000.00000
 1137.30000    9.91763    3.14440    3.18315    3.13712    2.49924  116.47136    0.37618    3.37845  111.14217    4.65408    8.50000 65000.00000
 1137.40000    9.93037    3.13251    3.17333    3.13137    2.50330  116.19730    0.37634    3.39765  110.45913    4.66873    8.50000 65000.00000
 1137.50000    9.90711    3.21762    3.23747    3.18932    2.50331  116.68323    0.37669    3.39425  109.84302    4.64648    8.50000 65000.00000
 1137.60000    9.90357    3.05111    3.07122    3.04864    2.49809  117.62866    0.37432    3.40272  109.37718    4.49870    8.50000 65000.00000
 1137.70000    9.87074    3.03317    3.05147    3.02622    2.50038  119.18017    0.37545    3.37513  108.85691    4.58047    8.50000 65000.00000
 1137.80000    9.86410    2.98921    3.00515    2.97311    2.50184  118.62472    0.37219    3.36898  108.63943    4.69616    8.50000 65000.00000
 1137.90000    9.87229    2.85491    2.85813    2.84617    2.50333  118.31301    0.37596    3.38216  108.43366    4.21669    8.50000 65000.00000
 1138.00000    9.87164    2.85120    2.85170    2.84842    2.49568  117.20746    0.37477    3.37031  109.49579    4.41261    8.50000 65000.00000
 1138.10000    9.89401    2.77174    2.77408    2.77109    2.49012  118.37994    0.37142    3.37282  109.09163    4.34203    8.50000 65000.00000
 1138.20000    9.88725    2.78014    2.76188    2.77002    2.48966  118.15125    0.37192    3.37247  108.84269    4.36578    8.50000 65000.00000
 1138.30000    9.91938    2.86038    2.83949    2.83422    2.48731  117.83086    0.37194    3.38509  108.70854    4.25175    8.50000 65000.00000
 1138.40000    9.88798    2.84824    2.82494    2.83099    2.48646  117.00325    0.37167    3.39441  108.55163    3.98237    8.50000 65000.00000
 1138.50000    9.89239    2.92586    2.91940    2.91446    2.49229  119.09375    0.37049    3.40307  108.22774    4.39575    8.50000 65000.00000
 1138.60000    9.87827    2.94191    2.93996    2.92880    2.49312  116.51559    0.36468    3.41483  108.01334    4.46993    8.50000 65000.00000
 1138.70000    9.92646    2.87863    2.91524    2.90515    2.49350  115.45187    0.35736    3.43245  107.97706    4.67130    8.50000 65000.00000
 1138.80000    9.89825    2.86420    2.89339    2.88135    2.49161  115.44003    0.36037    3.42922  107.27895    4.61862    8.50000 65000.00000
 1138.90000    9.90223    2.88809    2.87069    2.86381    2.49253  115.84379    0.36237    3.41707  107.07635    4.67969    8.50000 65000.00000
 1139.00000    9.88488    2.74861    2.71400    2.71202    2.49351  114.48950    0.35799    3.42614  108.41965    4.71094    8.50000 65000.00000
 1139.10000    9.88021    2.63510    2.61481    2.62396    2.49771  115.57449    0.35995    3.43101  108.39864    4.96361    8.50000 65000.00000
 1139.20000    9.85554    2.65795    2.62125    2.63281    2.49047  115.66069    0.35594    3.43989  107.84939    4.74807    8.50000 65000.00000
 1139.30000    9.87117    2.63873    2.57966    2.60236    2.48922  114.91033    0.35504    3.43269  107.59491    4.39369    8.50000 65000.00000
 1139.40000    9.87022    2.50033    2.45260    2.46647    2.48119  113.85123    0.35502    3.43547  107.54923    4.32768    8.50000 65000.00000
 1139.50000    9.86698    2.54864    2.48466    2.50005    2.48079  114.04815    0.35549    3.41746  107.90623    4.48079    8.50000 65000.00000
 1139.60000    9.88787    2.49547    2.46660    2.48438    2.47722  113.33819    0.35688    3.41314  108.09910    4.39284    8.50000 65000.00000
