~Version ---------------------------------------------------
VERS.   2.0 : CWLS log ASCII Standard -VERSION 2.0
WRAP.    NO : One line per depth step
DLM . SPACE : Column Data Section Delimiter
~Well ------------------------------------------------------
STRT.m          1000.00000 : START DEPTH
STOP.m          2000.00000 : STOP DEPTH
STEP.m             0.10000 : STEP
NULL.             -9999.25 : NULL VALUE
COMP. FORCE 2020 Recreator : 
WELL.   WELL_FORCE_2020_04 : 
FLD .                      : FIELD
LOC .                      : LOCATION
PROV.                      : PROVINCE
CNTY.                      : COUNTY
STAT.                      : STATE
CTRY.                      : COUNTRY
SRVC.                      : SERVICE COMPANY
DATE.                      : DATE
UWI .                      : UNIQUE WELL ID
API .                      : API NUMBER
~Curve Information -----------------------------------------
DEPT                            .m      : 
CALI                            .in     : 
RSHA                            .ohm.m  : 
RMED                            .ohm.m  : 
RDEP                            .ohm.m  : 
RHOB                            .g/cm3  : 
GR                              .gAPI   : 
NPHI                            .v/v    : 
PEF                             .b/e    : 
DTC                             .us/ft  : 
SP                              .mV     : 
BS                              .in     : 
FORCE_2020_LITHOFACIES_LITHOLOGY.code   : 
~Params ----------------------------------------------------
~Other -----------------------------------------------------
~ASCII -----------------------------------------------------
# ...
 1795.10000    8.58610    4.85268    4.76560    4.67967    2.50402   78.38363    0.29668    3.15491   96.66892    0.16046    8.50000 80000.00000
 1795.20000    8.58597    4.81455    4.71835    4.62903    2.50714   78.68024    0.29619    3.15223   96.83298   -0.17239    8.50000 80000.00000
 1795.30000    8.58354    4.89156    4.81412    4.75142    2.50473   78.70984    0.29839    3.16547   96.89448   -0.34120    8.50000 80000.00000
 1795.40000    8.58275    4.88642    4.81062    4.73097    2.50377   78.40451    0.29819    3.16606   96.96583   -0.16031    8.50000 80000.00000
 1795.50000    8.58352    4.84357    4.81353    4.75043    2.50859   78.84303    0.29945    3.16129   96.76654   -0.12729    8.50000 80000.00000
 1795.60000    8.58407    4.87547    4.84114    4.79100    2.51110   78.36352    0.29758    3.16176   97.24887   -0.16594    8.50000 80000.00000
 1795.70000    8.58614    4.49658    4.55700    4.49868    2.51584   78.23392    0.29941    3.15761   96.96896    0.31358    8.50000 80000.00000
 1795.80000    8.58182    4.30415    4.36846    4.30833    2.51212   78.03838    0.30163    3.16373   97.05180    0.10258    8.50000 80000.00000
 1795.90000    8.58186    4.17926    4.27559    4.20850    2.51608   78.43276    0.30240    3.17565   96.48325    0.36295    8.50000 80000.00000
 1796.00000    8.58393    4.26437    4.34188    4.26755    2.51540   78.81702    0.30295    3.17452   97.05661    0.32331    8.50000 80000.00000
 1796.10000    8.58226    4.28401    4.39718    4.30747    2.52267   78.98936    0.30317    3.18631   96.67287    0.51953    8.50000 80000.00000
 1796.20000    8.58510    4.28533    4.40825    4.31915    2.52149   78.54633    0.30394    3.19061   96.31611    0.31488    8.50000 80000.00000
 1796.30000    8.58725    4.21067    4.32522    4.24512    2.52070   79.62431    0.30822    3.20412   95.75335    0.42405    8.50000 80000.00000
 1796.40000    8.58858    4.14967    4.35376    4.25565    2.52241   79.65789    0.30945    3.21120   95.34685    0.33123    8.50000 80000.00000
 1796.50000    8.59103    4.04460    4.19725    4.11740    2.51735   78.89076    0.31178    3.20944   95.38850    0.75163    8.50000 80000.00000
 1796.60000    8.59081    4.05681    4.23864    4.13028    2.51854   78.27001    0.31120    3.20912   94.54783    0.69114    8.50000 80000.00000
 1796.70000    8.59138    4.12564    4.32509    4.22273    2.52141   77.74141    0.31540    3.20489   93.85589    0.50277    8.50000 80000.00000
 1796.80000    8.59011    4.04714    4.23313    4.15226    2.52373   77.99229    0.31566    3.21375   93.90359    0.43470    8.50000 80000.00000
 1796.90000    8.59015    4.04744    4.28763    4.21948    2.53313   78.44767    0.31786    3.21010   94.25159    0.07391    8.50000 80000.00000
 1797.00000    8.58501    3.85102    4.06527    4.02157    2.53855   78.80663    0.31842    3.20223   94.56442    0.41653    8.50000 80000.00000
 1797.10000    8.57894    3.92907    4.13225    4.10669    2.53710   79.31125    0.31661    3.20975   94.80588    0.68822    8.50000 80000.00000
 1797.20000    8.58003    3.97607    4.14495    4.13552    2.53626   80.53711    0.32016    3.21619   94.51172    0.71319    8.50000 80000.00000
 1797.30000    8.58048    3.85188    4.05183    4.05576    2.52880   80.83251    0.32091    3.21895   93.63936    0.89231    8.50000 80000.00000
 1797.40000    8.58449    3.67235    3.84589    3.84110    2.53052   80.71524    0.31912    3.20387   93.97399    1.06894    8.50000 80000.00000
 1797.50000    8.58765    3.72999    3.91436    3.92685    2.52977   81.96285    0.31828    3.19741   93.81150    0.91948    8.50000 80000.00000
 1797.60000    8.58912    3.67216    3.84036    3.83659    2.53088   82.72067    0.31582    3.19404   94.29617    0.87152    8.50000 80000.00000
 1797.70000    8.58920    3.76532    3.90325    3.87177    2.52608   82.24912    0.31544    3.18455   94.51755    0.75377    8.50000 80000.00000
 1797.80000    8.58928    3.84352    3.95445    3.90983    2.52272   81.51939    0.31433    3.19519   95.18745    0.47643    8.50000 80000.00000
 1797.90000    8.59111    3.90053    4.05449    4.00404    2.51939   81.04128    0.31323    3.19352   95.48736    0.43035    8.50000 80000.00000
 1798.00000    8.59126    3.86021    4.01381    3.95241    2.52123   80.34550    0.31373    3.19263   95.51038    0.10790    8.50000 80000.00000
 1798.10000    8.59002    3.81514    3.98432    3.93619    2.52521   80.22237    0.31420    3.18441   94.85191    0.79816    8.50000 80000.00000
 1798.20000    8.59117    3.81874    3.95810    3.92471    2.52922   80.29017    0.31479    3.18259   95.95347    0.99120    8.50000 80000.00000
 1798.30000    8.58835    3.91603    4.03866    4.01145    2.52964   80.45756    0.31435    3.18182   96.01559    1.11533    8.50000 80000.00000
 1798.40000    8.58828    3.89113    4.04990    4.00884    2.53248   81.15938    0.31391    3.16933   96.19359    0.73061    8.50000 80000.00000
 1798.50000    8.58677    3.93029    4.02834    4.00501    2.53338   81.61551    0.31421    3.17004   96.58958    0.79476    8.50000 80000.00000
 1798.60000    8.58715    3.93042    4.03580    4.01487    2.53525   82.90421    0.31220    3.18872   96.18591    0.34437    8.50000 80000.00000
 1798.70000    8.58651    3.82241    3.88056    3.90453    2.53202   83.43255    0.30979    3.17485   96.60654    0.67472    8.50000 80000.00000
 1798.80000    8.58587    3.77509    3.80379    3.84657    2.52826   83.14047    0.31174    3.18029   96.87158    0.93362    8.50000 80000.00000
 1798.90000    8.58594    3.86198    3.83521    3.88634    2.52680   82.80955    0.31447    3.17133   97.20303    0.73428    8.50000 80000.00000
 1799.00000    8.58767    3.84730    3.78202    3.82020    2.52335   82.79034    0.31495    3.16599   97.41636    0.32184    8.50000 80000.00000
 1799.10000    8.58791    3.87010    3.81313    3.84302    2.51671   83.60659    0.31501    3.17613   97.09532   -0.14334    8.50000 80000.00000
 1799.20000    8.58871    4.00211    3.91026    3.95052    2.52059   82.96647    0.31389    3.18579   96.66523   -0.54558    8.50000 80000.00000
 1799.30000    8.58689    3.81880    3.74184    3.77954    2.52664   82.22943    0.31194    3.17754   96.93940   -0.31569    8.50000 80000.00000
 1799.40000    8.58751    3.96229    3.90050    3.92488    2.52691   83.42434    0.31045    3.16446   97.25414   -0.36381    8.50000 80000.00000
 1799.50000    8.58395    4.12616    4.01045    4.06970    2.52711   82.98965    0.31132    3.16265   96.32551   -0.23689    8.50000 80000.00000
 1799.60000    8.58156    4.30168    4.12977    4.19653    2.53068   81.76791    0.31179    3.17405   95.87694   -0.41662    8.50000 80000.00000
 1799.70000    8.58011    4.42309    4.27279    4.34530    2.52473   81.59300    0.31413    3.17346   96.12157   -0.51999    8.50000 80000.00000
 1799.80000    8.57816    4.45470    4.35012    4.42128    2.52600   80.93418    0.31595    3.18114   95.53836   -0.43264    8.50000 80000.00000
 1799.90000    8.57533    4.33850    4.21815    4.30625    2.52467   81.55507    0.31780    3.16167   95.62372   -0.42851    8.50000 80000.00000
 1800.00000    8.57699    4.49262    4.34236    4.43022    2.53165   82.25864    0.32030    3.15235   95.06923   -0.35137    8.50000 80000.00000
 1800.10000    8.57633    4.57879    4.38402    4.50550    2.52479   82.33241    0.31557    3.14818   95.32008   -0.03087    8.50000 80000.00000
 1800.20000    8.57619    4.79694    4.59626    4.70119    2.52296   81.47197    0.31355    3.17841   95.60019   -0.77431    8.50000 80000.00000
 1800.30000    8.57401    4.77363    4.57140    4.67237    2.51869   81.42707    0.31214    3.18333   94.72646   -0.90761    8.50000 80000.00000
 1800.40000    8.57240    4.68016    4.49443    4.60032    2.51699   81.91514    0.31233    3.18840   95.18769   -1.11001    8.50000 80000.00000
 1800.50000    8.57000    8.41507    9.17691    9.00306    2.46654   78.86544    0.32168    3.10329   96.16051   -0.67686    8.50000 80000.00000
 1800.60000    8.56989   12.81950   13.93021   13.65671    2.41389   76.40980    0.33357    3.03186   98.43867   -0.84770    8.50000 80000.00000
