~Version ---------------------------------------------------
VERS.   2.0 : CWLS log ASCII Standard -VERSION 2.0
WRAP.    NO : One line per depth step
DLM . SPACE : Column Data Section Delimiter
~Well ------------------------------------------------------
STRT.m          1000.00000 : START DEPTH
STOP.m          2000.00000 : STOP DEPTH
STEP.m             0.10000 : STEP
NULL.             -9999.25 : NULL VALUE
COMP. FORCE 2020 Recreator : 
WELL.   WELL_FORCE_2020_01 : 
FLD .                      : FIELD
LOC .                      : LOCATION
PROV.                      : PROVINCE
CNTY.                      : COUNTY
STAT.                      : STATE
CTRY.                      : COUNTRY
SRVC.                      : SERVICE COMPANY
DATE.                      : DATE
UWI .                      : UNIQUE WELL ID
API .                      : API NUMBER
~Curve Information -----------------------------------------
DEPT                            .m      : 
CALI                            .in     : 
RSHA                            .ohm.m  : 
RMED                            .ohm.m  : 
RDEP                            .ohm.m  : 
RHOB                            .g/cm3  : 
GR                              .gAPI   : 
NPHI                            .v/v    : 
PEF                             .b/e    : 
DTC                             .us/ft  : 
SP                              .mV     : 
BS                              .in     : 
FORCE_2020_LITHOFACIES_LITHOLOGY.code   : 
~Params ----------------------------------------------------
~Other -----------------------------------------------------
~ASCII -----------------------------------------------------
# ...
 1666.40000    8.57720  112.84437  108.90042  111.82111    2.83713   25.69472    0.06715    3.15333   52.15503    1.51968    8.50000 74000.00000
 1666.50000    8.57932  117.45644  113.56055  116.19488    2.83621   25.60654    0.06711    3.15545   52.24728    1.52508    8.50000 74000.00000
 1666.60000    8.57807  122.03713  118.70753  121.56933    2.83573   25.68675    0.06916    3.14836   52.20517    1.61802    8.50000 74000.00000
 1666.70000    8.57836  115.06532  113.65389  116.11059    2.83301   26.05872    0.06814    3.14909   52.07022    1.41125    8.50000 74000.00000
 1666.80000    8.57955  106.40346  103.88250  107.05428    2.82592   25.67122    0.06703    3.14565   52.20875    1.18811    8.50000 74000.00000
 1666.90000    8.57696  107.72822  105.21544  108.52586    2.82469   25.74401    0.06754    3.14094   52.03164    0.77972    8.50000 74000.00000
 1667.00000    8.57426  100.61389   97.65682  100.09538    2.82473   25.44674    0.06759    3.14056   52.05025    0.92749    8.50000 74000.00000
 1667.10000    8.57260  101.43570   98.10243  100.94604    2.82831   25.38588    0.06744    3.13593   52.29122    0.82820    8.50000 74000.00000
 1667.20000    8.57003  101.34099   97.90001  101.06476    2.82708   24.92467    0.06629    3.14197   52.30639    1.01336    8.50000 74000.00000
 1667.30000    8.56729  104.98478  100.86725  103.71367    2.83311   24.44575    0.06678    3.14054   52.23238    1.15522    8.50000 74000.00000
 1667.40000    8.56743  105.57589  101.45565  104.34903    2.82852   24.90502    0.06636    3.14076   52.19841    1.48773    8.50000 74000.00000
 1667.50000    8.56441  107.89894  103.76378  106.88968    2.82727   25.68389    0.06567    3.15846   52.25817    1.15934    8.50000 74000.00000
 1667.60000    8.56277   94.05974   91.46115   93.13251    2.82849   25.51027    0.06522    3.14436   52.23811    0.96483    8.50000 74000.00000
 1667.70000    8.56521   93.39283   91.42295   92.80373    2.82734   25.76858    0.06603    3.15900   52.28828    0.77550    8.50000 74000.00000
 1667.80000    8.56788   77.30217   79.06674   79.06106    2.82587   26.05490    0.06656    3.15473   52.50669    0.31304    8.50000 74000.00000
 1667.90000    8.56777   88.35755   91.52141   91.24803    2.82366   25.55870    0.06587    3.14958   52.53744    0.30122    8.50000 74000.00000
 1668.00000    8.56885   88.27356   90.43246   90.58904    2.82332   25.39448    0.06426    3.13697   52.54499    0.21552    8.50000 74000.00000
 1668.10000    8.57016   94.59151   96.85159   97.23920    2.82451   26.42629    0.06368    3.14361   52.39440    0.35637    8.50000 74000.00000
 1668.20000    8.57015   97.57588  101.05432  100.95019    2.82721   27.11874    0.06571    3.14453   52.39534    0.42724    8.50000 74000.00000
 1668.30000    8.57343   95.55704   98.04637   98.00770    2.82177   26.69740    0.06314    3.14181   52.40074    0.57241    8.50000 74000.00000
 1668.40000    8.57464   89.75967   91.87073   92.26231    2.82133   25.98500    0.06202    3.14826   52.40483    0.65522    8.50000 74000.00000
 1668.50000    8.57981   99.76551  102.88050  102.32290    2.82098   26.22104    0.06048    3.14722   52.59837    0.97222    8.50000 74000.00000
 1668.60000    8.57664   95.94750   99.59033   99.23137    2.82185   25.98246    0.06001    3.15275   52.58488    1.36268    8.50000 74000.00000
 1668.70000    8.57783   91.88741   94.89726   94.25923    2.82153   25.43682    0.06015    3.16512   52.61670    1.21156    8.50000 74000.00000
 1668.80000    8.57753   99.47015  102.76037  102.57201    2.82155   25.57592    0.06065    3.15760   52.69347    1.12549    8.50000 74000.00000
 1668.90000    8.57857   95.31539   99.23427   98.89289    2.82047   26.12560    0.06142    3.15930   52.50919    1.43673    8.50000 74000.00000
 1669.00000    8.58088   99.56248  104.43344  104.12938    2.82309   26.40244    0.06211    3.16319   52.62383    1.34053    8.50000 74000.00000
 1669.10000    8.57965  118.36466  122.24950  123.71527    2.82240   26.72298    0.06101    3.15816   52.46699    1.14899    8.50000 74000.00000
 1669.20000    8.58147  116.41035  120.50828  121.71870    2.82039   26.82847    0.06205    3.16232   52.52853    1.10558    8.50000 74000.00000
 1669.30000    8.58465  116.39248  121.39020  122.15087    2.81944   27.16740    0.06490    3.15823   52.63971    0.96964    8.50000 74000.00000
 1669.40000    8.58583  111.21076  116.73977  117.70495    2.81657   27.49276    0.06461    3.14601   53.05664    1.04476    8.50000 74000.00000
 1669.50000    8.58393  111.85653  117.17361  118.01767    2.82150   27.16350    0.06435    3.15619   53.01328    0.63322    8.50000 74000.00000
 1669.60000    8.58704  105.94544  110.93693  111.70864    2.82301   26.67167    0.06485    3.13954   53.09645    0.84222    8.50000 74000.00000
 1669.70000    8.58565  106.81262  111.89814  112.80989    2.82321   27.47846    0.06501    3.14337   53.17315    0.85726    8.50000 74000.00000
 1669.80000    8.58557  104.99507  109.60822  110.64544    2.82271   27.29682    0.06475    3.13911   52.82568    0.94105    8.50000 74000.00000
 1669.90000    8.58480  103.63363  108.10153  109.08166    2.82107   27.32599    0.06445    3.13012   52.44032    1.16073    8.50000 74000.00000
 1670.00000    8.58431   94.13846   97.09510   98.32011    2.81999   27.78752    0.06493    3.12746   52.48624    1.31141    8.50000 74000.00000
 1670.10000    8.58449   95.89194   98.86476   99.78235    2.81840   27.75816    0.06522    3.13133   52.39733    1.44429    8.50000 74000.00000
 1670.20000    8.58345  107.29563  109.24207  109.27888    2.81754   26.77178    0.06561    3.12864   52.57897    1.51814    8.50000 74000.00000
 1670.30000    8.58245  103.77794  104.94647  105.20388    2.81967   26.50172    0.06531    3.13001   52.44856    1.17384    8.50000 74000.00000
 1670.40000    8.58087  106.11252  107.15917  107.31952    2.82306   26.45370    0.06656    3.11827   52.57459    1.21084    8.50000 74000.00000
 1670.50000    8.57883  109.96616  110.56097  110.72124    2.82204   25.96432    0.06458    3.12116   52.41549    1.04064    8.50000 74000.00000
 1670.60000    8.57662  100.31504  100.79354  101.30251    2.82244   25.59860    0.06425    3.12275   52.39373    0.67669    8.50000 74000.00000
 1670.70000    8.57947   99.89250   99.78092  100.42603    2.81811   25.91058    0.06507    3.11933   52.10994    0.42092    8.50000 74000.00000
 1670.80000    8.57768  103.41316  103.30236  104.35080    2.81434   26.43238    0.06460    3.10986   52.11711    0.48513    8.50000 74000.00000
 1670.90000    8.57894   93.56602   92.79245   94.18693    2.81400   25.68342    0.06427    3.10534   52.27447    0.48452    8.50000 74000.00000
 1671.00000    8.57760   95.16461   93.49638   94.95443    2.81680   25.62111    0.06205    3.09929   52.25032    0.36110    8.50000 74000.00000
 1671.10000    8.57304   91.57463   89.14592   90.50727    2.81621   25.47440    0.06131    3.10292   52.23887    0.64300    8.50000 74000.00000
 1671.20000    8.57358   75.64974   74.43167   74.00056    2.81738   25.71672    0.06054    3.11238   52.22986    0.96789    8.50000 74000.00000
 1671.30000    8.57396   87.19900   86.09295   85.28112    2.81900   25.63597    0.06009    3.10987   52.31619    1.27729    8.50000 74000.00000
 1671.40000    8.57519   92.38430   91.97495   90.74235    2.82004   25.36459    0.05682    3.10661   52.21650    1.26799    8.50000 74000.00000
 1671.50000    8.57587   93.42392   93.32487   92.12369    2.81814   24.98424    0.05755    3.11291   51.84717    1.09963    8.50000 74000.00000
 1671.60000    8.57492   94.21887   94.43691   93.23687    2.81714   25.79306    0.05721    3.10299   51.91561    1.39756    8.50000 74000.00000
 1671.70000    8.57344   99.51558   99.69872   98.19836    2.81828   26.43866    0.05668    3.09785   51.86613    1.34629    8.50000 74000.00000
 1671.80000    8.57519  104.68509  104.31110  102.47477    2.81541   26.01135    0.05764    3.09918   51.67145    1.69540    8.50000 74000.00000
 1671.90000    8.57504  108.94304  107.73192  106.33456    2.81256   25.57476    0.05643    3.08675   51.81242    1.86315    8.50000 74000.00000
