~Version ---------------------------------------------------
VERS.   2.0 : CWLS log ASCII Standard -VERSION 2.0
WRAP.    NO : One line per depth step
DLM . SPACE : Column Data Section Delimiter
~Well ------------------------------------------------------
STRT.m          1000.00000 : START DEPTH
STOP.m          2000.00000 : STOP DEPTH
STEP.m             0.10000 : STEP
NULL.             -9999.25 : NULL VALUE
COMP. FORCE 2020 Recreator : 
WELL.   WELL_FORCE_2020_10 : 
FLD .                      : FIELD
LOC .                      : LOCATION
PROV.                      : PROVINCE
CNTY.                      : COUNTY
STAT.                      : STATE
CTRY.                      : COUNTRY
SRVC.                      : SERVICE COMPANY
DATE.                      : DATE
UWI .                      : UNIQUE WELL ID
API .                      : API NUMBER
~Curve Information -----------------------------------------
DEPT                            .m      : 
CALI                            .in     : 
RSHA                            .ohm.m  : 
RMED                            .ohm.m  : 
RDEP                            .ohm.m  : 
RHOB                            .g/cm3  : 
GR                              .gAPI   : 
NPHI                            .v/v    : 
PEF                             .b/e    : 
DTC                             .us/ft  : 
SP                              .mV     : 
BS                              .in     : 
FORCE_2020_LITHOFACIES_LITHOLOGY.code   : 
~Params ----------------------------------------------------
~Other -----------------------------------------------------
~ASCII -----------------------------------------------------
# ...
 1397.60000    8.57036 3139.13734 3280.83093 3209.15674    2.95795   11.93807    0.02171    4.97378   49.65341    5.69868    8.50000 86000.00000
 1397.70000    8.56921 2505.27927 2484.13750 2462.77364    2.95963   12.15973    0.02122    4.97592   49.65909    5.79840    8.50000 86000.00000
 1397.80000    8.56856 2285.58696 2265.40986 2238.32763    2.95938   12.02596    0.02026    4.95599   49.61614    5.92728    8.50000 86000.00000
 1397.90000    8.57096 2293.67942 2286.30659 2256.15752    2.95844   12.00246    0.02035    4.97179   49.74007    5.91441    8.50000 86000.00000
 1398.00000    8.57427 2255.19184 2240.20304 2212.29657    2.95915   12.10710    0.01972    4.97468   49.56675    5.66931    8.50000 86000.00000
 1398.10000    8.57375 2281.68798 2270.06600 2245.03694    2.95585   12.33498    0.02037    4.97208   49.56193    5.81075    8.50000 86000.00000
 1398.20000    8.57712 2336.80013 2319.74617 2296.57698    2.95721   12.56848    0.02016    4.97499   49.41353    5.81493    8.50000 86000.00000
 1398.30000    8.57888 2329.77641 2310.96690 2289.74490    2.95932   12.66105    0.01973    4.97204   49.46077    5.68708    8.50000 86000.00000
 1398.40000    8.58084 2102.68030 2091.48855 2085.98786    2.96003   12.67376    0.02154    4.96170   49.39051    5.79730    8.50000 86000.00000
 1398.50000    8.57788 2105.94334 2095.92842 2090.36954    2.95953   12.94345    0.02197    4.97166   49.28335    5.82015    8.50000 86000.00000
 1398.60000    8.58246 2077.37983 2050.38657 2045.96522    2.96071   12.56779    0.02062    4.99591   49.33153    5.73225    8.50000 86000.00000
 1398.70000    8.58392 2072.02459 2049.90611 2045.44422    2.96249   12.44828    0.02009    4.99481   49.45496    5.85645    8.50000 86000.00000
 1398.80000    8.58325 2254.81196 2225.88123 2207.95764    2.96210   12.85238    0.02093    4.99414   49.51832    6.15592    8.50000 86000.00000
 1398.90000    8.58311 2325.89206 2292.98802 2277.25451    2.96360   12.64374    0.02024    4.99596   49.62251    6.14162    8.50000 86000.00000
 1399.00000    8.58503 2461.33283 2418.45251 2404.91079    2.96179   12.27409    0.01964    4.99872   49.54689    6.34733    8.50000 86000.00000
 1399.10000    8.58264 2321.02776 2302.51726 2288.20587    2.96109   12.19861    0.01987    4.99163   49.35137    6.10237    8.50000 86000.00000
 1399.20000    8.58248 2292.08806 2253.65342 2234.73920    2.96092   12.60804    0.02079    4.99584   49.19643    6.08847    8.50000 86000.00000
 1399.30000    8.58497 2504.47799 2488.26732 2498.40586    2.95933   12.42400    0.02051    4.99747   49.32313    6.11457    8.50000 86000.00000
 1399.40000    8.58743 2527.91767 2522.49269 2527.31437    2.95611   12.43615    0.02091    5.01566   49.49085    6.10270    8.50000 86000.00000
 1399.50000    8.58762 2569.22412 2580.02220 2571.77443    2.95496   12.38605    0.02073    5.01888   49.49003    5.98941    8.50000 86000.00000
 1399.60000    8.58674 2169.75869 2227.01238 2236.80332    2.95616   12.19957    0.02045    5.01257   49.46581    6.13440    8.50000 86000.00000
 1399.70000    8.58917 2194.01286 2284.92432 2294.90639    2.95681   12.55245    0.01988    5.00074   49.70368    6.11559    8.50000 86000.00000
 1399.80000    8.59206 2356.24720 2442.21606 2452.37347    2.95669   12.35152    0.02020    4.98286   49.56122    5.98379    8.50000 86000.00000
 1399.90000    8.59094 2339.30605 2431.82559 2440.89874    2.95857   12.31950    0.02055    4.99358   49.45202    5.82230    8.50000 86000.00000
 1400.00000    8.59053 2350.23956 2471.68840 2478.37195    2.95563   12.32916    0.02054    4.98586   49.53393    5.84190    8.50000 86000.00000
 1400.10000    8.58642 2371.44564 2495.93936 2504.09271    2.95462   12.38254    0.02031    4.98461   49.63063    5.92693    8.50000 86000.00000
 1400.20000    8.58794 2359.19230 2468.86649 2473.78281    2.95446   12.38714    0.02108    4.96848   49.69387    5.78263    8.50000 86000.00000
 1400.30000    8.58662 2486.72954 2594.48414 2601.45153    2.95425   12.23438    0.02080    4.97075   49.87164    6.04618    8.50000 86000.00000
 1400.40000    8.58633 2678.74600 2773.92758 2796.77017    2.95217   12.17440    0.02171    4.97307   49.68524    6.03730    8.50000 86000.00000
 1400.50000    8.58789 2641.10942 2740.16360 2760.53197    2.95092   12.22306    0.02200    4.99199   49.77654    5.73623    8.50000 86000.00000
 1400.60000    8.58917 2704.06163 2799.58779 2818.82827    2.95110   12.20490    0.02160    4.98798   49.97837    5.74512    8.50000 86000.00000
 1400.70000    8.58892 2700.34699 2803.99827 2820.83288    2.95059   12.31154    0.02104    4.97526   50.01913    5.71279    8.50000 86000.00000
 1400.80000    8.59012 2848.93878 2908.67803 2939.32965    2.95098   12.46183    0.02240    4.96770   49.94099    5.71034    8.50000 86000.00000
 1400.90000    8.59123 2508.34420 2537.30948 2591.66135    2.95332   12.59808    0.02219    4.96493   49.98163    5.53483    8.50000 86000.00000
 1401.00000    8.59104 2435.17000 2467.19878 2520.06890    2.95374   12.74520    0.02287    4.98085   49.80090    5.39626    8.50000 86000.00000
 1401.10000    8.58974 2388.02314 2429.25176 2487.27520    2.95590   12.82928    0.02294    4.98512   49.81968    5.27210    8.50000 86000.00000
 1401.20000    8.59022 2339.49927 2356.75336 2416.98092    2.95740   12.98649    0.02328    4.97643   49.87525    5.12436    8.50000 86000.00000
 1401.30000    8.59317 2335.20353 2340.99744 2399.36443    2.95904   12.80645    0.02222    4.95991   49.86874    5.03253    8.50000 86000.00000
 1401.40000    8.59097 2290.52992 2344.77891 2373.06887    2.96155   12.79093    0.02229    4.95088   49.74321    5.11496    8.50000 86000.00000
 1401.50000    8.59150 2208.15857 2263.03757 2300.26596    2.96374   12.89133    0.02190    4.93104   49.68615    4.99562    8.50000 86000.00000
 1401.60000    8.59193 2155.63066 2211.11831 2251.45630    2.96548   12.97019    0.02232    4.92067   49.62261    5.00035    8.50000 86000.00000
 1401.70000    8.59379 2213.54779 2263.21463 2305.50738    2.96365   13.16200    0.02237    4.93915   49.87487    5.01732    8.50000 86000.00000
 1401.80000    8.59379 2194.46092 2216.97057 2262.81273    2.96496   13.08711    0.02211    4.92383   49.81447    5.00653    8.50000 86000.00000
 1401.90000    8.59102 2143.91563 2186.19563 2222.69776    2.96280   12.86394    0.02282    4.93651   49.96739    5.22088    8.50000 86000.00000
 1402.00000    8.59223 2232.43625 2284.95958 2317.33560    2.96127   12.81914    0.02434    4.93690   50.11017    5.40904    8.50000 86000.00000
 1402.10000    8.59087 2249.05719 2264.06621 2303.47960    2.96464   12.92319    0.02371    4.93656   50.07035    5.49282    8.50000 86000.00000
 1402.20000    8.59334 2291.71473 2295.99197 2342.11662    2.96399   12.71196    0.02436    4.94152   50.11045    5.40146    8.50000 86000.00000
 1402.30000    8.58989 2347.32246 2355.24651 2410.69650    2.96813   12.41871    0.02501    4.95823   50.07274    5.37930    8.50000 86000.00000
 1402.40000    8.58992 2553.35375 2587.41957 2617.75190    2.97013   12.53248    0.02591    4.95568   50.01454    5.11469    8.50000 86000.00000
 1402.50000    8.58930 2370.89029 2421.70936 2436.51543    2.97242   12.57380    0.02478    4.95172   50.22858    5.26289    8.50000 86000.00000
 1402.60000    8.58796 2377.53654 2429.54292 2440.98990    2.97216   12.57515    0.02372    4.93966   50.19475    5.16687    8.50000 86000.00000
 1402.70000    8.58607 2398.33822 2473.77503 2490.41808    2.97292   12.28186    0.02394    4.95852   50.05292    5.10456    8.50000 86000.00000
 1402.80000    8.58499 3053.64382 3113.38622 3121.17005    2.97203   12.25406    0.02466    4.97825   50.15744    5.23509    8.50000 86000.00000
 1402.90000    8.58247 2914.51235 3021.97141 3016.22188    2.97242   12.19374    0.02411    4.98148   50.06630    5.16486    8.50000 86000.00000
 1403.00000    8.58094 2898.35622 3006.17362 3000.50039    2.97160   11.75388    0.02351    4.97917   50.16202    5.35473    8.50000 86000.00000
 1403.10000    8.58273 2906.93092 3021.06659 3010.25585    2.97012   11.89008    0.02333    4.97438   50.41914    5.67371    8.50000 86000.00000
