~Version ---------------------------------------------------
VERS.   2.0 : CWLS log ASCII Standard -VERSION 2.0
WRAP.    NO : One line per depth step
DLM . SPACE : Column Data Section Delimiter
~Well ------------------------------------------------------
STRT.m          1000.00000 : START DEPTH
STOP.m          2000.00000 : STOP DEPTH
STEP.m             0.10000 : STEP
NULL.             -9999.25 : NULL VALUE
COMP. FORCE 2020 Recreator : 
WELL.   WELL_FORCE_2020_01 : 
FLD .                      : FIELD
LOC .                      : LOCATION
PROV.                      : PROVINCE
CNTY.                      : COUNTY
STAT.                      : STATE
CTRY.                      : COUNTRY
SRVC.                      : SERVICE COMPANY
DATE.                      : DATE
UWI .                      : UNIQUE WELL ID
API .                      : API NUMBER
~Curve Information -----------------------------------------
DEPT                            .m      : 
CALI                            .in     : 
RSHA                            .ohm.m  : 
RMED                            .ohm.m  : 
RDEP                            .ohm.m  : 
RHOB                            .g/cm3  : 
GR                              .gAPI   : 
NPHI                            .v/v    : 
PEF                             .b/e    : 
DTC                             .us/ft  : 
SP                              .mV     : 
BS                              .in     : 
FORCE_2020_LITHOFACIES_LITHOLOGY.code   : 
~Params ----------------------------------------------------
~Other -----------------------------------------------------
~ASCII -----------------------------------------------------
# ...
 1464.80000    9.82276    2.43711    2.36052    2.34092    2.48356  114.57161    0.37171    3.39177  109.76185    4.05899    8.50000 65000.00000
 1464.90000    9.82709    2.42805    2.35924    2.33609    2.48760  114.03747    0.37610    3.36781  109.21502    3.68105    8.50000 65000.00000
 1465.00000    9.78359    2.45878    2.41641    2.39458    2.49223  113.42323    0.37743    3.35289  109.53088    4.37914    8.50000 65000.00000
 1465.10000    9.82537    2.42504    2.37355    2.35784    2.48208  113.87149    0.37259    3.34709  109.86276    4.68387    8.50000 65000.00000
 1465.20000    9.84058    2.26740    2.25359    2.23099    2.48689  114.58640    0.37289    3.36817  109.94866    4.36963    8.50000 65000.00000
 1465.30000    9.84468    2.34440    2.30938    2.29164    2.48932  114.35441    0.37481    3.40186  110.14983    4.38689    8.50000 65000.00000
 1465.40000    9.85337    2.39612    2.35206    2.33736    2.48681  113.82036    0.37350    3.40394  110.15759    4.18815    8.50000 65000.00000
 1465.50000    9.83865    2.51910    2.47444    2.46494    2.48561  114.32207    0.37073    3.39566  109.75772    4.43003    8.50000 65000.00000
 1465.60000    9.83062    2.51207    2.44648    2.44440    2.48519  114.96074    0.36948    3.36998  110.13694    4.41623    8.50000 65000.00000
 1465.70000    9.81868    2.58957    2.50847    2.50911    2.48545  115.36839    0.36698    3.36347  109.99095    4.33283    8.50000 65000.00000
 1465.80000    9.80927    2.53009    2.44361    2.45466    2.48137  114.84359    0.36876    3.35314  110.00987    3.91440    8.50000 65000.00000
 1465.90000    9.82398    2.50870    2.52258    2.52055    2.48325  115.87541    0.36570    3.35140  109.50375    4.19210    8.50000 65000.00000
 1466.00000    9.80095    2.56142    2.57214    2.56517    2.48386  115.43799    0.36320    3.34777  110.00347    3.77314    8.50000 65000.00000
 1466.10000    9.79709    2.62948    2.66979    2.65920    2.48277  114.01322    0.36220    3.34822  109.40837    3.72789    8.50000 65000.00000
 1466.20000    9.77743    2.64842    2.67600    2.67155    2.47826  114.13554    0.36254    3.33654  109.28522    4.06812    8.50000 65000.00000
 1466.30000    9.79120    2.67021    2.69973    2.71598    2.47511  114.76761    0.36778    3.34665  109.62444    4.36591    8.50000 65000.00000
 1466.40000    9.78163    2.69615    2.71152    2.72608    2.47718  113.94656    0.36763    3.35546  108.76433    4.39113    8.50000 65000.00000
 1466.50000    9.78854    2.76739    2.75926    2.78313    2.47894  114.34025    0.36084    3.38287  108.83877    4.33525    8.50000 65000.00000
 1466.60000    9.81188    2.83329    2.82102    2.85838    2.47878  114.86642    0.36140    3.37002  109.69034    4.35244    8.50000 65000.00000
 1466.70000    9.80621    2.84668    2.83444    2.87262    2.48058  114.82356    0.35980    3.37055  109.12246    4.05282    8.50000 65000.00000
 1466.80000    9.79700    2.85300    2.84254    2.88048    2.47290  113.19975    0.35939    3.38640  108.04100    3.75537    8.50000 65000.00000
 1466.90000    9.78049    2.84680    2.85071    2.89412    2.47636  114.61661    0.35683    3.40546  107.60575    3.87144    8.50000 65000.00000
 1467.00000    9.78606    2.88672    2.90331    2.94657    2.47049  115.36870    0.35552    3.43200  108.10731    3.91201    8.50000 65000.00000
 1467.10000    9.82443    2.86907    2.87356    2.90420    2.46643  115.76823    0.35660    3.43115  108.15954    3.50919    8.50000 65000.00000
 1467.20000    9.79461    2.94073    2.94131    2.97358    2.46948  116.62755    0.36256    3.41796  107.71294    3.34375    8.50000 65000.00000
 1467.30000    9.77346    2.98818    2.98157    3.01702    2.46704  116.68374    0.36086    3.39927  107.97395    3.71791    8.50000 65000.00000
 1467.40000    9.78286    2.90523    2.91480    2.95346    2.46403  117.58848    0.35862    3.39347  107.87964    3.69069    8.50000 65000.00000
 1467.50000    9.78513    2.85552    2.87311    2.90324    2.46483  116.56831    0.36227    3.40129  107.86025    3.64821    8.50000 65000.00000
 1467.60000    9.82267    2.74820    2.80554    2.82476    2.46315  117.25953    0.36186    3.39845  107.87440    3.56871    8.50000 65000.00000
 1467.70000    9.81034    2.79306    2.85366    2.86621    2.46639  117.64636    0.36033    3.41991  106.83163    3.73216    8.50000 65000.00000
 1467.80000    9.79639    2.64741    2.72754    2.73931    2.46834  116.11403    0.36330    3.41140  106.98221    3.51960    8.50000 65000.00000
 1467.90000    9.79813    2.65640    2.73653    2.73973    2.46844  116.70318    0.36309    3.43092  107.26539    3.72261    8.50000 65000.00000
 1468.00000    9.79412    2.60807    2.62160    2.63003    2.46931  114.58577    0.36594    3.44243  107.34661    3.22970    8.50000 65000.00000
 1468.10000    9.81957    2.62478    2.63202    2.64891    2.46801  114.85230    0.37016    3.46746  107.43339    3.70137    8.50000 65000.00000
 1468.20000    9.80714    2.80041    2.82592    2.84064    2.47154  116.18795    0.36928    3.47276  107.38647    3.96774    8.50000 65000.00000
 1468.30000    9.78833    2.77023    2.80205    2.82526    2.47741  115.12618    0.37108    3.47563  106.96208    3.64297    8.50000 65000.00000
 1468.40000    9.76682    2.75225    2.76109    2.77761    2.48335  115.43067    0.36504    3.46195  106.38597    3.55346    8.50000 65000.00000
 1468.50000    9.77417    2.76347    2.78337    2.80932    2.48469  115.74907    0.36665    3.44864  106.66375    3.55516    8.50000 65000.00000
 1468.60000    9.78213    2.63514    2.66732    2.69808    2.48209  114.31274    0.37089    3.45777  106.91066    3.74324    8.50000 65000.00000
 1468.70000    9.77487    2.63166    2.69682    2.69680    2.48045  114.33800    0.37120    3.45496  106.66096    3.98201    8.50000 65000.00000
 1468.80000    9.74942    2.54971    2.61473    2.59532    2.48042  113.88768    0.36995    3.46904  107.37062    4.06429    8.50000 65000.00000
 1468.90000    9.77235    2.52053    2.60346    2.57181    2.48353  116.10358    0.36988    3.46235  107.89142    4.17564    8.50000 65000.00000
 1469.00000    9.80069    2.48621    2.56325    2.54031    2.48059  117.68353    0.36971    3.44457  108.65188    4.23936    8.50000 65000.00000
 1469.10000    9.76860    2.52094    2.56599    2.55172    2.48328  117.33009    0.36715    3.43780  109.49170    4.45094    8.50000 65000.00000
 1469.20000    9.75043    2.48032    2.52849    2.51875    2.47979  116.59201    0.36242    3.44298  109.27120    4.38206    8.50000 65000.00000
 1469.30000    9.76775    2.42150    2.46312    2.45345    2.47936  114.89744    0.35741    3.44236  109.34353    4.32891    8.50000 65000.00000
 1469.40000    9.74630    2.48475    2.52379    2.51818    2.47753  114.51582    0.35706    3.45366  109.54334    4.13053    8.50000 65000.00000
 1469.50000    9.72684    2.53812    2.58725    2.58461    2.48159  115.07071    0.35552    3.45174  108.95672    4.52535    8.50000 65000.00000
 1469.60000    9.71862    2.57696    2.63240    2.63722    2.48449  117.45037    0.35269    3.44755  109.09734    4.95701    8.50000 65000.00000
 1469.70000    9.70796    2.61816    2.65628    2.66492    2.48646  117.74862    0.35324    3.44850  108.26516    4.93948    8.50000 65000.00000
 1469.80000    9.73142    2.64340    2.71684    2.72840    2.48668  116.79466    0.35424    3.44456  109.30528    4.88443    8.50000 65000.00000
 1469.90000    9.75431    2.70508    2.78920    2.80142    2.48634  117.21510    0.35342    3.46426  108.99069    5.05412    8.50000 65000.00000
 1470.00000    9.79011    2.70002    2.78037    2.79503    2.49006  116.75345    0.35112    3.44153  109.26293    4.97364    8.50000 65000.00000
 1470.10000    9.76791    2.75476    2.84182    2.85046    2.48749  117.78276    0.34706    3.45106  109.67586    5.32626    8.50000 65000.00000
 1470.20000    9.77037    2.72361    2.81237    2.82884    2.48669  116.65493    0.34460    3.42019  108.88662    4.91136    8.50000 65000.00000
 1470.30000    9.78516    2.49460    2.55578    2.57738    2.49028  115.50155    0.34450    3.39947  109.21725    4.80769    8.50000 65000.00000
