~Version ---------------------------------------------------
VERS.   2.0 : CWLS log ASCII Standard -VERSION 2.0
WRAP.    NO : One line per depth step
DLM . SPACE : Column Data Section Delimiter
~Well ------------------------------------------------------
STRT.m          1000.00000 : START DEPTH
STOP.m          2000.00000 : STOP DEPTH
STEP.m             0.10000 : STEP
NULL.             -9999.25 : NULL VALUE
COMP. FORCE 2020 Recreator : 
WELL.   WELL_FORCE_2020_08 : 
FLD .                      : FIELD
LOC .                      : LOCATION
PROV.                      : PROVINCE
CNTY.                      : COUNTY
STAT.                      : STATE
CTRY.                      : COUNTRY
SRVC.                      : SERVICE COMPANY
DATE.                      : DATE
UWI .                      : UNIQUE WELL ID
API .                      : API NUMBER
~Curve Information -----------------------------------------
DEPT                            .m      : 
CALI                            .in     : 
RSHA                            .ohm.m  : 
RMED                            .ohm.m  : 
RDEP                            .ohm.m  : 
RHOB                            .g/cm3  : 
GR                              .gAPI   : 
NPHI                            .v/v    : 
PEF                             .b/e    : 
DTC                             .us/ft  : 
SP                              .mV     : 
BS                              .in     : 
FORCE_2020_LITHOFACIES_LITHOLOGY.code   : 
~Params ----------------------------------------------------
~Other -----------------------------------------------------
~ASCII -----------------------------------------------------
# ...
 1733.60000    8.58336    6.23137    6.20832    6.27608    2.40877   77.04182    0.26113    2.51950   95.06173  -15.61318    8.50000 65030.00000
 1733.70000    8.58031    6.49424    6.44450    6.52640    2.40191   76.37635    0.25882    2.51284   95.67387  -15.65749    8.50000 65030.00000
 1733.80000    8.57845    6.58873    6.51755    6.60069    2.40014   75.64512    0.26317    2.50621   95.01226  -15.90960    8.50000 65030.00000
 1733.90000    8.58154    6.49660    6.56366    6.58984    2.40450   76.92350    0.26010    2.50657   94.82526  -15.45990    8.50000 65030.00000
 1734.00000    8.58340    6.45475    6.58370    6.59383    2.40620   77.33687    0.26216    2.51139   94.89124  -15.72151    8.50000 65030.00000
 1734.10000    8.58195    7.18034    7.31111    7.32678    2.41226   78.81599    0.26729    2.52496   94.44967  -15.09414    8.50000 65030.00000
 1734.20000    8.58095    7.77526    7.78146    7.80591    2.40973   78.96334    0.26250    2.52008   94.49030  -15.30675    8.50000 65030.00000
 1734.30000    8.58272    7.57035    7.60085    7.61750    2.40715   78.25720    0.26149    2.53278   93.78345  -15.72294    8.50000 65030.00000
 1734.40000    8.58090    7.58604    7.60749    7.63493    2.41007   77.98808    0.25927    2.53090   94.33770  -15.54282    8.50000 65030.00000
 1734.50000    8.58227    7.35319    7.28532    7.34749    2.40993   77.27385    0.25811    2.52596   93.65038  -15.86332    8.50000 65030.00000
 1734.60000    8.58094    7.55308    7.42838    7.55814    2.41423   77.70341    0.25909    2.52460   93.33053  -16.42962    8.50000 65030.00000
 1734.70000    8.57840    7.49042    7.41126    7.53023    2.41244   78.70194    0.25711    2.51168   93.69347  -16.86728    8.50000 65030.00000
 1734.80000    8.57964    7.41146    7.37542    7.48299    2.40762   78.49093    0.25802    2.53666   93.52805  -16.74699    8.50000 65030.00000
 1734.90000    8.58008    7.54781    7.51705    7.61512    2.40970   76.98309    0.26093    2.53892   93.24610  -16.53497    8.50000 65030.00000
 1735.00000    8.57779    7.66185    7.59755    7.69640    2.41421   74.77148    0.26340    2.55155   93.20651  -16.47100    8.50000 65030.00000
 1735.10000    8.57783    8.06530    8.02030    8.14446    2.41347   75.26361    0.26432    2.54507   93.11394  -16.03999    8.50000 65030.00000
 1735.20000    8.57828    8.36913    8.31647    8.46303    2.41258   73.90379    0.26272    2.53504   92.96916  -15.37298    8.50000 65030.00000
 1735.30000    8.57811    8.48103    8.47459    8.64284    2.41539   73.33817    0.25883    2.54665   93.24651  -15.32499    8.50000 65030.00000
 1735.40000    8.57857    8.72675    8.74839    8.92942    2.41641   72.92348    0.26017    2.56050   91.78683  -15.16529    8.50000 65030.00000
 1735.50000    8.57559    8.74341    8.82471    8.96311    2.40705   72.43232    0.25746    2.57196   91.52016  -15.02966    8.50000 65030.00000
 1735.60000    8.57502    8.83563    8.93292    9.12722    2.41188   73.53033    0.25808    2.58100   91.87831  -15.35224    8.50000 65030.00000
 1735.70000    8.57698    8.75013    8.90474    9.07595    2.41116   73.36525    0.25672    2.58178   91.28654  -15.47600    8.50000 65030.00000
 1735.80000    8.57860    8.46733    8.60754    8.79461    2.41899   74.12304    0.25614    2.59980   90.83401  -15.11151    8.50000 65030.00000
 1735.90000    8.58116    8.32371    8.48681    8.68583    2.42210   75.10800    0.25124    2.62201   91.27600  -15.20020    8.50000 65030.00000
 1736.00000    8.57743    8.21822    8.23232    8.46696    2.42296   73.26774    0.25272    2.62651   91.21062  -15.16871    8.50000 65030.00000
 1736.10000    8.58016    8.22862    8.30057    8.54606    2.42351   73.06872    0.25108    2.63120   91.06343  -14.82224    8.50000 65030.00000
 1736.20000    8.58237    7.74984    7.89554    8.09337    2.42211   71.97700    0.24928    2.65603   91.41814  -14.96300    8.50000 65030.00000
 1736.30000    8.58248    7.53039    7.89510    8.06256    2.42211   71.72937    0.25033    2.64656   92.28853  -14.86189    8.50000 65030.00000
 1736.40000    8.58281    7.87081    8.15803    8.38249    2.41944   71.62988    0.25235    2.64274   93.28099  -14.91744    8.50000 65030.00000
 1736.50000    8.58316    8.13321    8.43457    8.65016    2.41410   71.22321    0.25887    2.64865   91.91932  -14.37191    8.50000 65030.00000
 1736.60000    8.58344    8.03155    8.36002    8.57424    2.41187   72.55806    0.25996    2.65725   92.63658  -14.54645    8.50000 65030.00000
 1736.70000    8.58236    7.89449    8.24880    8.43423    2.40530   72.13378    0.26037    2.67069   92.87835  -14.65232    8.50000 65030.00000
 1736.80000    8.58225    7.79749    8.13962    8.31540    2.40501   72.09615    0.26223    2.67246   92.75939  -14.69172    8.50000 65030.00000
 1736.90000    8.58054    7.87303    8.22613    8.39503    2.40811   72.39309    0.26074    2.65916   91.97389  -14.93848    8.50000 65030.00000
 1737.00000    8.58002    8.05380    8.35459    8.52547    2.40672   73.32119    0.25827    2.66267   91.74660  -14.72311    8.50000 65030.00000
 1737.10000    8.58059    7.84431    8.16050    8.33381    2.40827   74.31490    0.25655    2.66008   91.99820  -14.68641    8.50000 65030.00000
 1737.20000    8.58126    7.57553    7.83548    7.98977    2.41028   73.59249    0.25927    2.66907   92.10690  -15.11589    8.50000 65030.00000
 1737.30000    8.58304    7.05406    7.29957    7.46612    2.40711   73.55958    0.26306    2.68508   92.81769  -15.22321    8.50000 65030.00000
 1737.40000    8.58220    6.75850    7.04263    7.13510    2.40112   74.38726    0.26381    2.66739   92.51965  -15.02013    8.50000 65030.00000
 1737.50000    8.58271    6.67611    6.93640    7.00293    2.39710   73.67376    0.26618    2.64702   93.26194  -15.17930    8.50000 65030.00000
 1737.60000    8.58524    7.00842    7.23536    7.32120    2.39743   73.03344    0.26775    2.64861   93.05305  -15.71792    8.50000 65030.00000
 1737.70000    8.58745    7.16481    7.34839    7.39159    2.39067   72.64596    0.26485    2.62873   92.97462  -15.43526    8.50000 65030.00000
 1737.80000    8.58578    7.27118    7.42110    7.47943    2.39029   74.03633    0.26668    2.63083   93.63251  -15.42636    8.50000 65030.00000
 1737.90000    8.58609    7.59564    8.00901    8.07938    2.38870   73.43469    0.27165    2.63731   93.22134  -16.11089    8.50000 65030.00000
 1738.00000    8.58497    7.65278    8.01711    8.07664    2.39040   72.12131    0.27254    2.63438   92.96200  -15.93040    8.50000 65030.00000
 1738.10000    8.58711    7.50410    7.86051    7.91428    2.38773   73.70120    0.27507    2.63535   93.16872  -16.31360    8.50000 65030.00000
 1738.20000    8.58463    7.45311    7.67817    7.71389    2.38376   74.08833    0.27630    2.63623   92.70554  -16.83677    8.50000 65030.00000
 1738.30000    8.58402    7.01236    7.21804    7.28149    2.38735   74.29258    0.27928    2.60592   92.61286  -17.06389    8.50000 65030.00000
 1738.40000    8.58467    6.79296    6.89756    6.97601    2.39109   72.56474    0.27755    2.61711   91.82305  -16.79750    8.50000 65030.00000
 1738.50000    8.58587    6.54138    6.71242    6.75590    2.39560   73.61593    0.27753    2.62416   91.62750  -16.37334    8.50000 65030.00000
 1738.60000    8.58668    6.24020    6.39194    6.43629    2.39445   73.54426    0.27397    2.61401   93.20118  -16.62062    8.50000 65030.00000
 1738.70000    8.58641    6.67086    6.78019    6.86306    2.39080   73.60159    0.27148    2.61804   92.61334  -16.36656    8.50000 65030.00000
 1738.80000    8.58997    7.04733    7.15833    7.24750    2.39087   74.92969    0.27190    2.62674   92.01949  -16.92022    8.50000 65030.00000
 1738.90000    8.59081    7.36343    7.53402    7.59405    2.39776   74.48657    0.27389    2.62758   91.90766  -16.55009    8.50000 65030.00000
 1739.00000    8.59120    7.37704    7.48011    7.56614    2.40246   73.72704    0.27222    2.62558   92.18675  -16.15641    8.50000 65030.00000
 1739.10000    8.59171    7.37765    7.47755    7.57713    2.40113   73.92197    0.27283    2.63190   92.24127  -16.24028    8.50000 65030.00000
