~Version ---------------------------------------------------
VERS.   2.0 : CWLS log ASCII Standard -VERSION 2.0
WRAP.    NO : One line per depth step
DLM . SPACE : Column Data Section Delimiter
~Well ------------------------------------------------------
STRT.m          1000.00000 : START DEPTH
STOP.m          2000.00000 : STOP DEPTH
STEP.m             0.10000 : STEP
NULL.             -9999.25 : NULL VALUE
COMP. FORCE 2020 Recreator : 
WELL.   WELL_FORCE_2020_07 : 
FLD .                      : FIELD
LOC .                      : LOCATION
PROV.                      : PROVINCE
CNTY.                      : COUNTY
STAT.                      : STATE
CTRY.                      : COUNTRY
SRVC.                      : SERVICE COMPANY
DATE.                      : DATE
UWI .                      : UNIQUE WELL ID
API .                      : API NUMBER
~Curve Information -----------------------------------------
DEPT                            .m      : 
CALI                            .in     : 
RSHA                            .ohm.m  : 
RMED                            .ohm.m  : 
RDEP                            .ohm.m  : 
RHOB                            .g/cm3  : 
GR                              .gAPI   : 
NPHI                            .v/v    : 
PEF                             .b/e    : 
DTC                             .us/ft  : 
SP                              .mV     : 
BS                              .in     : 
FORCE_2020_LITHOFACIES_LITHOLOGY.code   : 
~Params ----------------------------------------------------
~Other -----------------------------------------------------
~ASCII -----------------------------------------------------
# ...
 1666.40000    8.57640  193.46478  200.68227  195.00350    1.68634   39.97136    0.47445    2.04982  119.22929   -6.17043    8.50000 90000.00000
 1666.50000    8.57968  190.59145  197.73269  192.07325    1.73985   42.30467    0.46601    2.11511  118.13458   -6.26442    8.50000 90000.00000
 1666.60000    8.58122  182.62460  189.18177  183.89942    1.79600   44.60738    0.45602    2.18880  116.88787   -5.80745    8.50000 90000.00000
 1666.70000    8.58166  170.04080  177.41791  173.03411    1.85412   46.95267    0.44700    2.27524  114.79608   -5.41470    8.50000 90000.00000
 1666.80000    8.58253  158.08406  164.69622  159.90686    1.90462   49.77088    0.43484    2.35926  114.21821   -5.09314    8.50000 90000.00000
 1666.90000    8.57936  153.71887  160.27377  155.38794    1.95619   52.56950    0.42735    2.42399  112.72628   -4.93117    8.50000 90000.00000
 1667.00000    8.57829  153.33862  159.90759  155.01951    2.01407   54.98883    0.41994    2.50328  111.17195   -4.99885    8.50000 80000.00000
 1667.10000    8.57730  140.93982  148.36101  143.51659    2.06049   57.83320    0.41184    2.58115  109.14226   -4.31157    8.50000 80000.00000
 1667.20000    8.57778  126.88961  133.52419  128.98169    2.11117   60.76790    0.40377    2.67174  108.22034   -3.59396    8.50000 80000.00000
 1667.30000    8.57564  107.05257  112.26840  108.28674    2.15706   63.12374    0.39002    2.75429  107.36601   -3.11166    8.50000 80000.00000
 1667.40000    8.57773  105.15886  110.40203  106.35291    2.21391   66.43185    0.37702    2.82077  105.86233   -2.72515    8.50000 80000.00000
 1667.50000    8.57838   94.01392   98.62611   93.92036    2.26368   68.93597    0.36706    2.89947  104.74111   -2.41396    8.50000 80000.00000
 1667.60000    8.57684   87.17056   92.91718   88.18136    2.31413   71.04229    0.35436    2.96534  103.22699   -2.12483    8.50000 80000.00000
 1667.70000    8.57637   68.29537   72.14614   69.35268    2.35736   74.85906    0.34258    3.03110  102.86426   -1.13180    8.50000 80000.00000
 1667.80000    8.57425   60.84918   64.66683   62.14702    2.41312   77.84228    0.33222    3.10641  101.32989   -0.68892    8.50000 80000.00000
 1667.90000    8.57375   16.20479   16.97621   16.87605    2.46630   80.69652    0.31702    3.16906   99.08826   -0.89238    8.50000 80000.00000
 1668.00000    8.57408    5.59916    5.66078    5.59536    2.51845   82.54781    0.30732    3.23591   97.28584   -0.80318    8.50000 80000.00000
 1668.10000    8.57467    5.60259    5.65153    5.58650    2.51429   83.40059    0.30628    3.24329   97.06402   -0.78530    8.50000 80000.00000
 1668.20000    8.57248    5.49755    5.45633    5.40228    2.51811   83.68136    0.30354    3.24537   96.83829   -0.79507    8.50000 80000.00000
 1668.30000    8.57280    5.24796    5.25638    5.18845    2.51814   83.33033    0.30565    3.24982   97.09888   -0.77676    8.50000 80000.00000
 1668.40000    8.57336    5.26159    5.28647    5.21896    2.51956   84.17080    0.30818    3.24380   96.93365   -1.11212    8.50000 80000.00000
 1668.50000    8.57895    4.92039    5.01273    4.91672    2.51491   84.75171    0.30986    3.24959   96.21307   -1.17773    8.50000 80000.00000
 1668.60000    8.57847    4.84858    4.99122    4.91481    2.51049   85.39972    0.30731    3.27388   95.43462   -0.92947    8.50000 80000.00000
 1668.70000    8.57813    4.86309    5.01470    4.94005    2.51003   86.03315    0.31311    3.27802   94.88071   -0.91287    8.50000 80000.00000
 1668.80000    8.57267    4.80831    4.94909    4.85569    2.50876   85.91279    0.31097    3.27830   95.19635   -0.64536    8.50000 80000.00000
 1668.90000    8.57524    4.86680    5.01564    4.90907    2.51474   86.69449    0.31135    3.27395   95.31917   -0.84808    8.50000 80000.00000
 1669.00000    8.57682    4.75687    4.92066    4.80921    2.51754   86.89811    0.31010    3.28341   95.32030   -1.11780    8.50000 80000.00000
 1669.10000    8.57448    4.52721    4.62504    4.51586    2.51359   87.96163    0.30881    3.27350   95.39341   -0.73306    8.50000 80000.00000
 1669.20000    8.57776    4.50641    4.58023    4.46807    2.51074   88.14206    0.30838    3.26670   95.29811   -0.92091    8.50000 80000.00000
 1669.30000    8.57820    4.48735    4.50730    4.42036    2.50506   86.96281    0.30477    3.24706   95.02864   -1.03105    8.50000 80000.00000
 1669.40000    8.58074    4.39514    4.37237    4.28976    2.50928   87.15849    0.30344    3.23700   94.94358   -1.11518    8.50000 80000.00000
 1669.50000    8.57960    4.34253    4.30537    4.27794    2.51034   86.70619    0.30433    3.23326   95.35930   -0.87185    8.50000 80000.00000
 1669.60000    8.58014    4.28040    4.21505    4.19111    2.50849   85.55178    0.30288    3.23186   95.76580   -0.98636    8.50000 80000.00000
 1669.70000    8.58588    4.13199    4.05511    4.06098    2.51594   86.06744    0.30363    3.22832   95.89055   -0.82559    8.50000 80000.00000
 1669.80000    8.58630    3.93653    3.94270    3.93896    2.51479   85.31233    0.30549    3.22998   95.17801   -0.93021    8.50000 80000.00000
 1669.90000    8.58762    3.77942    3.78186    3.81237    2.51680   85.41493    0.30724    3.22044   95.28236   -0.66711    8.50000 80000.00000
 1670.00000    8.58697    3.69298    3.67916    3.70209    2.51637   85.28935    0.30914    3.23379   95.31313   -0.47171    8.50000 80000.00000
 1670.10000    8.58787    3.67615    3.63626    3.66770    2.51168   85.31740    0.30906    3.23445   95.16455   -0.72634    8.50000 80000.00000
 1670.20000    8.58798    3.83705    3.77276    3.82226    2.51281   84.23406    0.30843    3.22498   95.44863   -0.86257    8.50000 80000.00000
 1670.30000    8.58998    4.04116    4.00622    4.06135    2.51427   84.21004    0.30749    3.22081   95.24863   -1.37299    8.50000 80000.00000
 1670.40000    8.59090    4.23778    4.18033    4.26436    2.50991   84.85868    0.30458    3.21300   95.76435   -1.23983    8.50000 80000.00000
 1670.50000    8.59241    4.19892    4.14519    4.23460    2.51458   84.00606    0.30301    3.22311   95.70567   -1.30946    8.50000 80000.00000
 1670.60000    8.58826    4.24271    4.19873    4.27472    2.51742   83.77271    0.30010    3.21290   95.65469   -1.17115    8.50000 80000.00000
 1670.70000    8.58761    4.05801    3.99098    4.08181    2.52253   83.77983    0.30086    3.20448   95.65943   -1.10019    8.50000 80000.00000
 1670.80000    8.58797    4.32229    4.24967    4.32266    2.51747   83.34304    0.29394    3.19896   95.84432   -0.61520    8.50000 80000.00000
 1670.90000    8.58975    4.38054    4.31136    4.38152    2.51681   82.96936    0.29637    3.19785   95.81247   -0.74940    8.50000 80000.00000
 1671.00000    8.59019    4.43035    4.33400    4.42220    2.51347   83.09241    0.29683    3.17720   95.42159   -0.11255    8.50000 80000.00000
 1671.10000    8.58839    4.59185    4.48169    4.55362    2.51058   82.51501    0.29877    3.17068   95.49116    0.08420    8.50000 80000.00000
 1671.20000    8.59496    4.62775    4.52193    4.59167    2.51185   80.98800    0.30021    3.18066   96.08082    0.34098    8.50000 80000.00000
 1671.30000    8.59391    4.51636    4.43007    4.49887    2.51594   80.67502    0.29990    3.17405   96.15550    0.73391    8.50000 80000.00000
 1671.40000    8.59588    4.41914    4.35520    4.42331    2.52458   81.97898    0.30069    3.20547   96.61023    1.13645    8.50000 80000.00000
 1671.50000    8.59273    4.38241    4.34323    4.41647    2.52388   82.20421    0.30063    3.19532   96.59154    1.11235    8.50000 80000.00000
 1671.60000    8.59421    4.26737    4.26093    4.32141    2.52338   82.77743    0.30096    3.21288   96.18890    1.02200    8.50000 80000.00000
 1671.70000    8.59472    4.29794    4.32450    4.38447    2.52116   82.81259    0.30297    3.21376   96.18599    0.78840    8.50000 80000.00000
 1671.80000    8.58861    4.31128    4.32174    4.37845    2.52184   82.79712    0.30191    3.21293   95.55450    0.73917    8.50000 80000.00000
 1671.90000    8.58768    4.27066    4.25351    4.33156    2.52022   82.55677    0.30123    3.19732   95.69717    0.79404    8.50000 80000.00000
