~Version ---------------------------------------------------
VERS.   2.0 : CWLS log ASCII Standard -VERSION 2.0
WRAP.    NO : One line per depth step
DLM . SPACE : Column Data Section Delimiter
~Well ------------------------------------------------------
STRT.m          1000.00000 : START DEPTH
STOP.m          2000.00000 : STOP DEPTH
STEP.m             0.10000 : STEP
NULL.             -9999.25 : NULL VALUE
COMP. FORCE 2020 Recreator : 
WELL.   WELL_FORCE_2020_02 : 
FLD .                      : FIELD
LOC .                      : LOCATION
PROV.                      : PROVINCE
CNTY.                      : COUNTY
STAT.                      : STATE
CTRY.                      : COUNTRY
SRVC.                      : SERVICE COMPANY
DATE.                      : DATE
UWI .                      : UNIQUE WELL ID
API .                      : API NUMBER
~Curve Information -----------------------------------------
DEPT                            .m      : 
CALI                            .in     : 
RSHA                            .ohm.m  : 
RMED                            .ohm.m  : 
RDEP                            .ohm.m  : 
RHOB                            .g/cm3  : 
GR                              .gAPI   : 
NPHI                            .v/v    : 
PEF                             .b/e    : 
DTC                             .us/ft  : 
SP                              .mV     : 
BS                              .in     : 
FORCE_2020_LITHOFACIES_LITHOLOGY.code   : 
~Params ----------------------------------------------------
~Other -----------------------------------------------------
~ASCII -----------------------------------------------------
# ...
 1995.90000    8.57785 9117.41437 9552.87273 9639.07014    2.72782  138.68600    0.01547    4.00580   44.00312   12.83458    8.50000 93000.00000
 1996.00000    8.58105 9762.83082 10155.36480 10284.88325    2.70841  138.28556    0.01493    4.01920   44.51010   12.71336    8.50000 93000.00000
 1996.10000    8.58129 9811.91254 10200.83877 10331.78859    2.70663  137.49330    0.01500    3.99173   44.93187   12.42423    8.50000 93000.00000
 1996.20000    8.58121 9835.00853 10221.81501 10351.57295    2.71145  135.72510    0.01486    3.95145   44.94231   12.09079    8.50000 93000.00000
 1996.30000    8.58094 9853.26252 10245.91431 10374.64605    2.72430  135.52966    0.01523    3.93529   45.08763   11.59059    8.50000 93000.00000
 1996.40000    8.58126 9518.52437 9885.44861 10033.57792    2.72398  137.87849    0.01490    3.93709   44.55754   11.39283    8.50000 93000.00000
 1996.50000    8.58274 9627.01165 10001.94796 10142.57166    2.72040  137.19081    0.01463    3.87786   44.85416   10.93805    8.50000 93000.00000
 1996.60000    8.58447 16906.41171 16576.79142 16764.89201    2.73277  142.18353    0.01448    3.92505   44.01362   10.73228    8.50000 93000.00000
 1996.70000    8.58450 15152.43093 14385.96251 14657.79216    2.72573  140.46930    0.01486    3.88495   44.06659   10.83227    8.50000 93000.00000
 1996.80000    8.58245 15574.62124 14828.50117 15122.52512    2.71189  138.93231    0.01418    3.88142   44.47034    9.89094    8.50000 93000.00000
 1996.90000    8.58439 14559.73481 13528.08283 13877.96206    2.71887  139.94669    0.01387    3.92092   43.81093   10.08776    8.50000 93000.00000
 1997.00000    8.58288 15394.14236 14357.68925 14684.05453    2.72301  141.16987    0.01285    3.90290   44.68949   10.22309    8.50000 93000.00000
 1997.10000    8.57818 14913.28042 13844.37121 14104.17602    2.72104  140.51799    0.01267    3.87844   43.82818   10.15697    8.50000 93000.00000
 1997.20000    8.57814 14926.66825 13852.89040 14114.30755    2.71634  141.39543    0.01248    3.87636   44.31086    9.75077    8.50000 93000.00000
 1997.30000    8.57950 15129.44326 14038.59371 14298.04745    2.71611  143.05018    0.01316    3.87438   43.33346   10.10527    8.50000 93000.00000
 1997.40000    8.58405 12608.00369 11868.06310 11958.76298    2.72395  143.40587    0.01320    3.86393   43.22618   10.67794    8.50000 93000.00000
 1997.50000    8.58566 12655.52198 11924.31205 11998.20383    2.73516  143.76913    0.01353    3.79532   42.83562   10.34600    8.50000 93000.00000
 1997.60000    8.58366 12591.20503 11866.08231 11940.13569    2.73376  144.39192    0.01274    3.79465   42.12151   10.33259    8.50000 93000.00000
 1997.70000    8.58371 12635.11424 11891.11373 11970.18271    2.74471  144.26223    0.01272    3.76126   42.54868   11.25489    8.50000 93000.00000
 1997.80000    8.58218 12437.31552   -9999.25 11798.53463    2.71322  141.91564    0.01268    3.77628   42.70526   10.83380    8.50000 93000.00000
 1997.90000    8.57899 13957.53503 13460.86791 13426.47472    2.71756  142.92394    0.01291    3.81428   42.76306   10.05642    8.50000 93000.00000
 1998.00000    8.57783 13911.03160 13416.49127 13389.95985    2.72911  141.82407    0.01362    3.78602   42.64075   10.35808    8.50000 93000.00000
 1998.10000    8.57756 13284.96726 12832.05996 12763.02075    2.73909  143.86472    0.01408    3.77640   42.53921   10.38125    8.50000 93000.00000
 1998.20000    8.57842 13584.59946 13110.79864 13046.50776    2.74575  144.42510    0.01482    3.75250   42.65664   10.01521    8.50000 93000.00000
 1998.30000    8.58004 13680.51877 13194.77506 13136.82992    2.73946  145.53176    0.01504    3.76634   42.90667   10.33279    8.50000 93000.00000
 1998.40000    8.57836 13691.87747 13213.65712 13153.46332    2.73130  144.66160    0.01519    3.74795   42.10134   10.51593    8.50000 93000.00000
 1998.50000    8.58046 13898.89478 13413.60921 13348.45903    2.72142  145.03806    0.01532    3.72253   42.13827   10.87112    8.50000 93000.00000
 1998.60000    8.58260 17633.10578 17752.81476 17885.28905    2.70821  144.55080    0.01576    3.74688   41.95694   11.73313    8.50000 93000.00000
 1998.70000    8.58258 10056.72010 10892.63069 10959.16052    2.71176  144.60582    0.01614    3.74759   42.14433   11.61634    8.50000 93000.00000
 1998.80000    8.58251 10391.32658 11157.71678 11279.55560    2.71288  143.83102    0.01565    3.78002   41.65522   11.48961    8.50000 93000.00000
 1998.90000    8.58320 9258.22083 10066.29764 10164.31663    2.71990  145.26763    0.01647    3.81577   41.56739   11.57129    8.50000 93000.00000
 1999.00000    8.57282 8977.23841 9762.52646 9872.17023    2.69843  141.65138    0.02396    3.69110   43.82652    8.94687    8.50000 93000.00000
 1999.10000    8.57334 8451.71593 9268.71134 9410.15053    2.69822  141.25127    0.02514    3.70842   43.40572    8.68318    8.50000 93000.00000
 1999.20000    8.57295 8889.73371 9749.61262 9898.28461    2.69430  142.17865    0.02579    3.70813   44.06895    8.70586    8.50000 93000.00000
 1999.30000    8.57386 9351.61912 10261.26680 10418.06698    2.68660  142.19376    0.02635    3.68602   43.92323    8.64311    8.50000 93000.00000
 1999.40000    8.57129 9645.69027 10630.84197 10799.24539    2.69636  138.50351    0.02663    3.66612   44.64210    8.21741    8.50000 93000.00000
 1999.50000    8.56732 10113.10964 11140.69473 11324.15732    2.70024  137.39192    0.02709    3.63762   44.93427    8.05898    8.50000 93000.00000
 1999.60000    8.56363 10526.42511 11617.85780 11827.86213    2.69778  134.93755    0.02779    3.64463   46.01765    8.15478    8.50000 93000.00000
 1999.70000    8.56234 11265.03306 12435.21536 12659.89960    2.69839  133.81286    0.02894    3.63680   46.72659    7.77716    8.50000 93000.00000
 1999.80000    8.56464 11948.08894 13243.88162 13475.77752    2.70042  134.65849    0.03027    3.65492   47.13873    6.88384    8.50000 93000.00000
 1999.90000    8.56687 12793.75269 14195.02798 14446.00303    2.72033  136.03830    0.03152    3.62903   46.56391    7.03809    8.50000 93000.00000
 2000.00000    8.56800 10937.85485 12057.05058 12538.44810    2.70580  138.42494    0.03293    3.57574   46.52457    7.36499    8.50000 30000.00000
