~Version ---------------------------------------------------
VERS.   2.0 : CWLS log ASCII Standard -VERSION 2.0
WRAP.    NO : One line per depth step
DLM . SPACE : Column Data Section Delimiter
~Well ------------------------------------------------------
STRT.m          1000.00000 : START DEPTH
STOP.m          2000.00000 : STOP DEPTH
STEP.m             0.10000 : STEP
NULL.             -9999.25 : NULL VALUE
COMP. FORCE 2020 Recreator : 
WELL.   WELL_FORCE_2020_09 : 
FLD .                      : FIELD
LOC .                      : LOCATION
PROV.                      : PROVINCE
CNTY.                      : COUNTY
STAT.                      : STATE
CTRY.                      : COUNTRY
SRVC.                      : SERVICE COMPANY
DATE.                      : DATE
UWI .                      : UNIQUE WELL ID
API .                      : API NUMBER
~Curve Information -----------------------------------------
DEPT                            .m      : 
CALI                            .in     : 
RSHA                            .ohm.m  : 
RMED                            .ohm.m  : 
RDEP                            .ohm.m  : 
RHOB                            .g/cm3  : 
GR                              .gAPI   : 
NPHI                            .v/v    : 
PEF                             .b/e    : 
DTC                             .us/ft  : 
SP                              .mV     : 
BS                              .in     : 
FORCE_2020_LITHOFACIES_LITHOLOGY.code   : 
~Params ----------------------------------------------------
~Other -----------------------------------------------------
~ASCII -----------------------------------------------------
# ...
 1929.60000    8.58730    6.87249    6.82216    6.91066    2.41202   76.60117    0.25808    2.57360   93.09469  -14.96507    8.50000 65030.00000
 1929.70000    8.58647    7.04482    6.99078    7.07877    2.41394   75.55832    0.25698    2.56340   92.73868  -14.47085    8.50000 65030.00000
 1929.80000    8.58703    6.98706    7.01540    7.07404    2.41768   75.87276    0.25830    2.56034   92.88145  -14.74650    8.50000 65030.00000
 1929.90000    8.58682    7.11953    7.16879    7.20453    2.41470   75.65771    0.25930    2.55974   93.15525  -14.56362    8.50000 65030.00000
 1930.00000    8.58586    7.26054    7.26291    7.29384    2.41903   73.66999    0.26104    2.56363   92.46854  -14.64677    8.50000 65030.00000
 1930.10000    8.58461    7.09099    7.12839    7.13003    2.42533   73.28176    0.26142    2.56690   92.35408  -14.68003    8.50000 65030.00000
 1930.20000    8.58490    7.32979    7.33028    7.35307    2.42221   72.74752    0.26262    2.56964   93.18462  -15.07305    8.50000 65030.00000
 1930.30000    8.58662    7.31540    7.28651    7.33005    2.41907   73.78794    0.26261    2.56554   93.21581  -15.48843    8.50000 65030.00000
 1930.40000    8.58574    7.31217    7.30689    7.34922    2.41802   73.95387    0.26051    2.57438   93.46583  -15.65532    8.50000 65030.00000
 1930.50000    8.58905    7.45177    7.41200    7.47316    2.42102   72.94477    0.26278    2.57284   93.47698  -15.32045    8.50000 65030.00000
 1930.60000    8.58647    7.49662    7.50311    7.54656    2.41960   73.12959    0.26582    2.57460   92.55794  -14.90811    8.50000 65030.00000
 1930.70000    8.58603    7.52137    7.58754    7.62691    2.41486   73.75995    0.26923    2.58304   93.52599  -14.78826    8.50000 65030.00000
 1930.80000    8.58645    6.99762    7.11631    7.08464    2.41405   73.50293    0.26964    2.58112   93.81029  -14.65172    8.50000 65030.00000
 1930.90000    8.58737    7.06997    7.15320    7.14375    2.41584   73.80680    0.26815    2.59091   93.65901  -14.90770    8.50000 65030.00000
 1931.00000    8.58654    6.78709    6.85077    6.82888    2.41902   74.05140    0.26560    2.58613   93.12894  -14.19514    8.50000 65030.00000
 1931.10000    8.58685    6.78652    6.85772    6.83099    2.41520   74.79392   -9999.25    2.58432   92.94274  -14.54262    8.50000 65030.00000
 1931.20000    8.58479    6.82226    6.88551    6.86084    2.41229   74.77173    0.26413    2.58764   92.40225  -14.14668    8.50000 65030.00000
 1931.30000    8.58647    6.99682    7.06719    7.00231    2.40880   73.11843    0.26203    2.57437   92.21057  -14.00566    8.50000 65030.00000
 1931.40000    8.58484    7.16982    7.22716    7.16418    2.41120   72.98032    0.26234    2.56899   92.08259  -13.63551    8.50000 65030.00000
 1931.50000    8.58641    6.77837    6.83680    6.78356    2.40738   71.61924    0.26166    2.56524   92.41343  -13.47069    8.50000 65030.00000
 1931.60000    8.58453    6.93942    6.95554    6.92297    2.40308   72.67689    0.25986    2.55692   92.98140  -13.97426    8.50000 65030.00000
 1931.70000    8.58353    6.68180    6.72167    6.72251    2.40678   72.87510    0.25738    2.56277   92.86542  -14.63180    8.50000 65030.00000
 1931.80000    8.58694    6.86599    6.90064    6.91608    2.40952   73.06284    0.25792    2.57284   92.66666  -15.15186    8.50000 65030.00000
 1931.90000    8.58755    6.94319    6.95729    6.88784    2.40806   72.52142    0.26065    2.56203   92.67665  -15.02092    8.50000 65030.00000
 1932.00000    8.58688    6.91187    6.91177    6.86646    2.41134   72.87794    0.25944    2.58167   92.13771  -15.18857    8.50000 65030.00000
 1932.10000    8.58571    6.77810    6.82118    6.77985    2.40355   73.83415    0.25857    2.58306   92.87596  -15.20318    8.50000 65030.00000
 1932.20000    8.58688    6.76926    6.70024    6.69351    2.40031   73.11123    0.26043    2.57484   92.26102  -14.89173    8.50000 65030.00000
 1932.30000    8.58775    6.74835    6.77710    6.78569    2.40356   74.80024    0.25574    2.54888   91.22730  -14.31333    8.50000 65030.00000
 1932.40000    8.58978    7.08252    7.11680    7.12290    2.40692   73.00792    0.25451    2.55597   90.81591  -14.03642    8.50000 65030.00000
 1932.50000    8.58992    7.49034    7.64833    7.66139    2.40394   73.35013    0.25929    2.56028   91.54092  -14.07443    8.50000 65030.00000
 1932.60000    8.58883    8.40152    8.54956    8.42646    2.39827   74.37966    0.25708    2.56120   91.50104  -14.08865    8.50000 65030.00000
 1932.70000    8.59365    8.93346    8.89307    8.91029    2.40057   74.08107    0.25577    2.56328   92.64933  -13.95081    8.50000 65030.00000
 1932.80000    8.59384    9.01731    8.87745    8.90243    2.39931   73.81289    0.25767    2.56004   91.70344  -14.41080    8.50000 65030.00000
 1932.90000    8.59260    9.22085    9.03860    9.06947    2.39692   74.37468    0.25735    2.58475   91.76677  -14.20534    8.50000 65030.00000
 1933.00000    8.59167    9.00234    8.87762    8.90655    2.39528   73.65372    0.26035    2.58907   91.99982  -13.84295    8.50000 65030.00000
 1933.10000    8.59612    9.06366    8.92498    8.94921    2.39401   73.48079    0.25735    2.59368   91.43758  -14.19068    8.50000 65030.00000
 1933.20000    8.59757    9.16404    9.03579    9.05995    2.38884   73.52042    0.25490    2.59723   91.11014  -14.55171    8.50000 65030.00000
 1933.30000    8.60003    9.33815    9.19585    9.22843    2.38834   74.02363    0.25533    2.59692   91.67128  -14.84354    8.50000 65030.00000
 1933.40000    8.59890    9.26534    9.11958    9.14458    2.38138   74.43805    0.25369    2.60509   91.22455  -14.86699    8.50000 65030.00000
 1933.50000    8.60090    9.46295    9.22350    9.23878    2.37544   74.06849    0.25450    2.60686   90.78710  -15.52957    8.50000 65030.00000
 1933.60000    8.59995    9.62889    9.43149    9.43814    2.37717   75.54696    0.25528    2.62129   90.49377  -15.33139    8.50000 65030.00000
 1933.70000    8.59938    9.36259    9.23313    9.21536    2.37462   74.42966    0.25806    2.62312   90.51744  -15.66142    8.50000 65030.00000
 1933.80000    8.60113    9.22181    9.10356    9.08242    2.37377   73.43076    0.25717    2.62327   90.87710  -15.07249    8.50000 65030.00000
 1933.90000    8.59876    9.04452    8.88475    8.85790    2.37667   74.05886    0.25895    2.62994   90.53921  -15.00379    8.50000 65030.00000
 1934.00000    8.59966    8.56297    8.38593    8.42476    2.38162   74.04324    0.25888    2.63370   90.36197  -15.26626    8.50000 65030.00000
 1934.10000    8.59962    8.89387    8.67044    8.69897    2.37765   74.12763    0.26109    2.61495   90.78747  -15.32583    8.50000 65030.00000
 1934.20000    8.60351    8.83442    8.59718    8.62143    2.38180   74.14422    0.26177    2.60961   91.24655  -15.32196    8.50000 65030.00000
 1934.30000    8.60162    8.68757    8.52254    8.51324    2.37633   74.99793    0.25426    2.61545   91.64182  -15.53506    8.50000 65030.00000
 1934.40000    8.60098    8.21853    8.04228    8.00101    2.37243   74.46697    0.25598    2.62855   92.22412  -15.80144    8.50000 65030.00000
 1934.50000    8.59888    8.10084    7.88110    7.82948    2.37148   74.75579    0.26053    2.63185   92.35324  -16.32500    8.50000 65030.00000
 1934.60000    8.59788    8.03219    7.76765    7.70139    2.36928   74.84596    0.26002    2.63420   91.77394  -16.37588    8.50000 65030.00000
 1934.70000    8.59609    7.49587    7.25598    7.30332    2.37151   76.07966    0.25923    2.63228   91.79665  -16.16495    8.50000 65030.00000
 1934.80000    8.59338    7.29044    7.14045    7.05228    2.37117   76.77830    0.25889    2.62014   91.70608  -16.84613    8.50000 65030.00000
 1934.90000    8.59520    7.15646    7.08056    6.99926    2.37724   76.52093    0.25918    2.61376   92.12343  -16.73532    8.50000 65030.00000
 1935.00000    8.59448    7.18433    7.11679    7.02912    2.37330   76.94550    0.25752    2.60081   91.70712  -17.21373    8.50000 65030.00000
 1935.10000    8.59491    7.27008    7.18767    7.10009    2.37894   77.11966    0.25766    2.58988   91.36891  -17.25781    8.50000 65030.00000
