~Version ---------------------------------------------------
VERS.   2.0 : CWLS log ASCII Standard -VERSION 2.0
WRAP.    NO : One line per depth step
DLM . SPACE : Column Data Section Delimiter
~Well ------------------------------------------------------
STRT.m          1000.00000 : START DEPTH
STOP.m          2000.00000 : STOP DEPTH
STEP.m             0.10000 : STEP
NULL.             -9999.25 : NULL VALUE
COMP. FORCE 2020 Recreator : 
WELL.   WELL_FORCE_2020_01 : 
FLD .                      : FIELD
LOC .                      : LOCATION
PROV.                      : PROVINCE
CNTY.                      : COUNTY
STAT.                      : STATE
CTRY.                      : COUNTRY
SRVC.                      : SERVICE COMPANY
DATE.                      : DATE
UWI .                      : UNIQUE WELL ID
API .                      : API NUMBER
~Curve Information -----------------------------------------
DEPT                            .m      : 
CALI                            .in     : 
RSHA                            .ohm.m  : 
RMED                            .ohm.m  : 
RDEP                            .ohm.m  : 
RHOB                            .g/cm3  : 
GR                              .gAPI   : 
NPHI                            .v/v    : 
PEF                             .b/e    : 
DTC                             .us/ft  : 
SP                              .mV     : 
BS                              .in     : 
FORCE_2020_LITHOFACIES_LITHOLOGY.code   : 
~Params ----------------------------------------------------
~Other -----------------------------------------------------
~ASCII -----------------------------------------------------
# ...
 1134.40000    8.57858   17.86793   17.73357   17.68842    2.28757   14.95763    0.27448    4.72855   76.62144   -2.22975    8.50000 70032.00000
 1134.50000    8.57900   17.03595   17.00788   16.98994    2.29063   14.35081    0.27590    4.72728   76.65239   -2.09914    8.50000 70032.00000
 1134.60000    8.57884   17.10745   17.26042   17.19590    2.29135   13.95153    0.27898    4.72978   76.45421   -2.23405    8.50000 70032.00000
 1134.70000    8.57907   17.18685   17.22853   17.22380    2.29699   14.21105    0.28003    4.73276   76.74674   -1.96503    8.50000 70032.00000
 1134.80000    8.57895   16.05163   15.89519   15.93643    2.29711   14.01992    0.28645    4.74609   76.75561   -1.99565    8.50000 70032.00000
 1134.90000    8.57603   16.14404   15.90724   16.02487    2.29650   14.02587    0.28556    4.75613   76.87317   -1.64386    8.50000 70032.00000
 1135.00000    8.57397   16.94080   16.71709   16.82710    2.29710   14.36628    0.27937    4.75942   76.72083   -1.70480    8.50000 70032.00000
 1135.10000    8.57656   16.24070   16.15188   16.23199    2.29303   14.01186    0.28423    4.77972   76.25192   -2.11600    8.50000 70032.00000
 1135.20000    8.57719   16.28945   16.19215   16.23973    2.29167   14.25577    0.27906    4.78939   75.77734   -1.82145    8.50000 70032.00000
 1135.30000    8.57701   16.19272   16.00277   16.00137    2.28625   14.76685    0.28155    4.80807   75.58687   -1.60446    8.50000 70032.00000
 1135.40000    8.58042   16.28000   16.32806   16.34377    2.28881   15.10490    0.28065    4.80145   75.45782   -1.60052    8.50000 70032.00000
 1135.50000    8.58033   15.95439   16.07499   16.08007    2.28848   15.26817    0.28484    4.81044   75.76350   -1.30246    8.50000 70032.00000
 1135.60000    8.57712   15.69123   15.81085   15.78733    2.28634   15.33667    0.28448    4.81152   75.61977   -1.17733    8.50000 70032.00000
 1135.70000    8.57528   15.35700   15.54303   15.50213    2.28474   15.20242    0.28494    4.81120   75.87318   -1.31080    8.50000 70032.00000
 1135.80000    8.57500   15.68174   15.71088   15.74569    2.28206   15.20863    0.28297    4.81165   74.85290   -1.17060    8.50000 70032.00000
 1135.90000    8.57618   14.40359   14.39587   14.35892    2.28676   15.45308    0.28135    4.81243   75.49785   -1.04369    8.50000 70032.00000
 1136.00000    8.57352   13.52540   13.51644   13.57174    2.28452   15.49754    0.28467    4.82728   75.53081   -0.97343    8.50000 70032.00000
 1136.10000    8.57287   14.89725   14.86325   14.86111    2.27868   15.03248    0.28293    4.81662   75.10210   -0.98429    8.50000 70032.00000
 1136.20000    8.57311   14.18439   14.05208   14.11458    2.27625   15.07494    0.28211    4.83638   74.54063   -1.34509    8.50000 70032.00000
 1136.30000    8.57004   13.77823   13.61974   13.70076    2.27385   15.10632    0.28506    4.84356   74.33347   -1.49955    8.50000 70032.00000
 1136.40000    8.57053   13.88811   13.66433   13.69411    2.27608   15.43940    0.28604    4.83633   74.34069   -1.45388    8.50000 70032.00000
 1136.50000    8.57249   14.43187   14.28464   14.31102    2.27822   15.36371    0.28454    4.80745   74.69581   -1.60077    8.50000 70032.00000
 1136.60000    8.56785   15.23849   14.87910   15.06455    2.27551   16.10175    0.28164    4.80892   74.67731   -1.55542    8.50000 70032.00000
 1136.70000    8.56785   15.69986   15.04029   15.18388    2.27146   16.86595    0.28298    4.80199   74.80706   -1.79190    8.50000 70032.00000
 1136.80000    8.57141   15.96663   15.32844   15.43287    2.26761   16.57473    0.28071    4.79759   74.28204   -2.07019    8.50000 70032.00000
 1136.90000    8.57132   16.37289   15.70492   15.84277    2.27113   16.76850    0.27988    4.80324   74.61647   -1.93938    8.50000 70032.00000
 1137.00000    8.57402   16.33788   15.60899   15.66765    2.27182   16.65894    0.27871    4.81421   74.68701   -2.15036    8.50000 70032.00000
 1137.10000    8.57429   15.66070   14.98168   15.01083    2.27192   16.46480    0.28635    4.81783   74.47426   -1.72932    8.50000 70032.00000
 1137.20000    8.57399   16.03390   15.27789   15.31553    2.27342   17.03579    0.28361    4.81061   74.68299   -1.49639    8.50000 70032.00000
 1137.30000    8.57344   16.03130   15.46550   15.48219    2.27423   16.61693    0.28399    4.80106   75.20669   -1.61898    8.50000 70032.00000
 1137.40000    8.57207   15.92349   15.48137   15.56244    2.27896   16.59798    0.28336    4.77199   75.28467   -1.83695    8.50000 70032.00000
 1137.50000    8.57292   15.46154   14.78089   14.87365    2.28373   16.27269    0.28640    4.78062   74.65318   -1.94388    8.50000 70032.00000
 1137.60000    8.57358   15.53627   14.89540   15.03818    2.28148   16.38665    0.28596    4.78254   74.39506   -2.28311    8.50000 70032.00000
 1137.70000    8.57773   15.57908   14.97023   15.09233    2.28088   16.03494    0.28475    4.77649   73.71202   -2.47493    8.50000 70032.00000
 1137.80000    8.57970   16.18601   15.55363   15.60022    2.27802   16.52114    0.28393    4.76621   73.26862   -2.73159    8.50000 70032.00000
 1137.90000    8.57809   16.63446   16.09788   16.10116    2.28343   16.36476    0.28863    4.74517   73.73523   -3.14860    8.50000 70032.00000
 1138.00000    8.57688   17.04308   16.46101   16.46433    2.27722   16.30765    0.29036    4.73374   73.40929   -3.31642    8.50000 70032.00000
 1138.10000    8.57879   18.45301   18.11368   18.00323    2.27910   15.45715    0.28677    4.75222   73.27405   -3.37668    8.50000 70032.00000
 1138.20000    8.57939   17.96426   17.62484   17.56247    2.28641   15.93573    0.28658    4.75900   73.51686   -3.35890    8.50000 70032.00000
 1138.30000    8.57995   17.34259   17.15647   17.10913    2.28639   16.09543    0.28699    4.75409   73.70749   -3.04128    8.50000 70032.00000
 1138.40000    8.58197   17.52557   17.28719   17.23570    2.28545   16.19218    0.28741    4.76586   73.93949   -2.73871    8.50000 70032.00000
 1138.50000    8.58136   17.31436   17.19968   17.17795    2.28394   16.29502    0.28854    4.76959   73.93355   -2.50319    8.50000 70032.00000
 1138.60000    8.58042   17.15213   16.99676   16.95867    2.28072   16.46901    0.28928    4.78950   73.79642   -2.48241    8.50000 70032.00000
 1138.70000    8.58565   16.34336   16.41663   16.18464    2.28214   16.72217    0.29553    4.79177   73.52409   -2.77917    8.50000 70032.00000
 1138.80000    8.58426   15.33636   15.60448   15.43527    2.28075   16.02024    0.29346    4.80410   73.51597   -2.58305    8.50000 70032.00000
 1138.90000    8.58258   15.51744   15.76885   15.54329    2.28383   15.79626    0.29052    4.80105   74.27575   -2.58066    8.50000 70032.00000
 1139.00000    8.58135   15.62637   16.05496   15.76177    2.27794   16.01046    0.28562    4.80156   73.64210   -2.59163    8.50000 70032.00000
 1139.10000    8.58000   15.41143   15.87966   15.61999    2.27365   16.25245    0.28816    4.79287   72.95141   -2.58813    8.50000 70032.00000
 1139.20000    8.57926   16.61704   16.73441   16.59229    2.27137   16.07061    0.28462    4.80384   73.32644   -2.90090    8.50000 70032.00000
 1139.30000    8.57676   16.28062   16.46417   16.34094    2.27121   15.62197    0.28481    4.81569   73.41880   -2.97664    8.50000 70032.00000
 1139.40000    8.57910   15.97151   16.10082   15.98954    2.27159   15.60404    0.28783    4.80747   72.84136   -2.93824    8.50000 70032.00000
 1139.50000    8.57997   15.80223   15.85797   15.74141    2.27060   15.39178    0.28646    4.83380   72.76385   -3.12243    8.50000 70032.00000
 1139.60000    8.57800   15.76465   15.99497   15.86116    2.26496   14.96218    0.28364    4.83260   72.96849   -2.89635    8.50000 70032.00000
 1139.70000    8.57765   16.09581   16.32240   16.26901    2.26414   15.17224    0.28135    4.83719   73.45697   -2.64608    8.50000 70032.00000
 1139.80000    8.57521   15.99965   16.25307   16.24686    2.26488   15.13620    0.27933    4.84201   74.16568   -2.35566    8.50000 70032.00000
 1139.90000    8.57578   15.79748   15.92656   16.07455    2.26807   14.99854    0.28323    4.86386   74.20656   -2.34401    8.50000 70032.00000
