~Version ---------------------------------------------------
VERS.   2.0 : CWLS log ASCII Standard -VERSION 2.0
WRAP.    NO : One line per depth step
DLM . SPACE : Column Data Section Delimiter
~Well ------------------------------------------------------
STRT.m          1000.00000 : START DEPTH
STOP.m          2000.00000 : STOP DEPTH
STEP.m             0.10000 : STEP
NULL.             -9999.25 : NULL VALUE
COMP. FORCE 2020 Recreator : 
WELL.   WELL_FORCE_2020_02 : 
FLD .                      : FIELD
LOC .                      : LOCATION
PROV.                      : PROVINCE
CNTY.                      : COUNTY
STAT.                      : STATE
CTRY.                      : COUNTRY
SRVC.                      : SERVICE COMPANY
DATE.                      : DATE
UWI .                      : UNIQUE WELL ID
API .                      : API NUMBER
~Curve Information -----------------------------------------
DEPT                            .m      : 
CALI                            .in     : 
RSHA                            .ohm.m  : 
RMED                            .ohm.m  : 
RDEP                            .ohm.m  : 
RHOB                            .g/cm3  : 
GR                              .gAPI   : 
NPHI                            .v/v    : 
PEF                             .b/e    : 
DTC                             .us/ft  : 
SP                              .mV     : 
BS                              .in     : 
FORCE_2020_LITHOFACIES_LITHOLOGY.code   : 
~Params ----------------------------------------------------
~Other -----------------------------------------------------
~ASCII -----------------------------------------------------
# ...
 1862.40000    9.92024    2.53571    2.50584    2.47132    2.47285  108.59450    0.36061    3.37833  107.97910    3.51161    8.50000 65000.00000
 1862.50000    9.93001    2.67852    2.66092    2.60903    2.47354  106.05679    0.36225    3.38077  108.02079    3.41468    8.50000 65000.00000
 1862.60000    9.90132    2.76613    2.73709    2.67651    2.47325  108.02800    0.35669    3.38115  108.02103    3.57159    8.50000 65000.00000
 1862.70000    9.90687    2.74462    2.75773    2.69354    2.47337  106.71691    0.35306    3.36867  108.38734    3.64229    8.50000 65000.00000
 1862.80000    9.89479    2.63470    2.67089    2.61498    2.47651  106.15312    0.35429    3.36684  107.84805    3.42868    8.50000 65000.00000
 1862.90000    9.89523    2.61692    2.66693    2.60836    2.47216  107.75862    0.35323    3.34915  108.16714    3.31810    8.50000 65000.00000
 1863.00000    9.89069    2.63701    2.68071    2.61897    2.47391  109.18442    0.35777    3.35572  107.61265    3.73776    8.50000 65000.00000
 1863.10000    9.89514    2.79926    2.82486    2.75612    2.47496  110.36032    0.35729    3.36050  107.52767    3.98739    8.50000 65000.00000
 1863.20000    9.85520    2.82799    2.87769    2.81037    2.47348  110.58517    0.36105    3.36660  107.07852    4.05764    8.50000 65000.00000
 1863.30000    9.85244    2.70596    2.78148    2.71441    2.47015  111.04339    0.36320    3.37946  106.58763    4.19336    8.50000 65000.00000
 1863.40000    9.88084    2.76577    2.84541    2.77127    2.46948  109.77783    0.36586    3.37495  106.52559    3.94649    8.50000 65000.00000
 1863.50000    9.87131    2.79814    2.88692    2.80308    2.47293  109.22990    0.36598    3.38232  105.68460    4.32678    8.50000 65000.00000
 1863.60000    9.86682    2.77542    2.86891    2.80360    2.47487  107.76833    0.36735    3.38554  105.64019    4.37176    8.50000 65000.00000
 1863.70000    9.92081    2.75856    2.82898    2.78291    2.47546  107.81902    0.36482    3.37004  105.34428    4.44308    8.50000 65000.00000
 1863.80000    9.88488    2.77268    2.83970    2.80302    2.47328  106.68674    0.36692    3.35656  105.72103    4.80430    8.50000 65000.00000
 1863.90000    9.88805    2.80124    2.89138    2.84457    2.46976  107.46223    0.36376    3.35217  105.63761    4.59517    8.50000 65000.00000
 1864.00000    9.89449    2.76933    2.88670    2.83175    2.46596  108.68556    0.36352    3.34615  105.76785    4.76810    8.50000 65000.00000
 1864.10000    9.91431    2.77219    2.88164    2.83985    2.47354  111.04760    0.36037    3.35702  105.48598    4.59475    8.50000 65000.00000
 1864.20000    9.89317    2.73151    2.79885    2.76124    2.47362  110.16668    0.35921    3.36862  105.30439    4.68695    8.50000 65000.00000
 1864.30000    9.89501    2.72435    2.79440    2.74809    2.47349  110.72075    0.36047    3.36104  104.89084    5.00338    8.50000 65000.00000
 1864.40000    9.92046    2.72760    2.80935    2.76054    2.47074  110.35696    0.35593    3.34537  105.41860    5.01795    8.50000 65000.00000
 1864.50000    9.92530    2.84166    2.90784    2.86945    2.47063  111.52820    0.35284    3.32388  105.51578    4.95663    8.50000 65000.00000
 1864.60000    9.89400    2.69947    2.74170    2.73016    2.47158  113.86477    0.35230    3.33587  105.57888    4.99293    8.50000 65000.00000
 1864.70000    9.92675    2.71844    2.79263    2.77394    2.46967  113.70234    0.35448    3.32729  105.92670    5.22030    8.50000 65000.00000
 1864.80000    9.92156    2.72421    2.77087    2.75971    2.47030  116.06965    0.36355    3.33260  106.40420    5.50267    8.50000 65000.00000
 1864.90000    9.93597    2.72445    2.73941    2.73742    2.47274  116.62069    0.36365    3.33788  106.88850    5.65388    8.50000 65000.00000
 1865.00000    9.95282    2.87073    2.94132    2.93055    2.47742  116.61980    0.36341    3.37057  107.95637    5.85080    8.50000 65000.00000
 1865.10000    9.91251    2.84574    2.91571    2.90945    2.48074  116.18780    0.35846    3.36060  108.46858    5.67116    8.50000 65000.00000
 1865.20000    9.90800    2.70805    2.79655    2.78206    2.48165  114.37237    0.35891    3.34128  108.94771    5.74240    8.50000 65000.00000
 1865.30000    9.93727    2.69793    2.74920    2.73475    2.48368  114.79028    0.35498    3.34469  109.38641    5.90352    8.50000 65000.00000
 1865.40000    9.90023    2.70215    2.75756    2.75159    2.49204  115.64501    0.35565    3.35650  109.45495    6.00388    8.50000 65000.00000
 1865.50000    9.89291    2.68421    2.72651    2.72302    2.49258  116.41246    0.35475    3.34155  109.62890    5.86308    8.50000 65000.00000
 1865.60000    9.89613    2.77389    2.83134    2.81339    2.49695  116.64476    0.35473    3.33415  110.30813    5.53057    8.50000 65000.00000
 1865.70000    9.87683    2.76290    2.79809    2.76764    2.49034  118.45788    0.35340    3.33632  109.85410    5.34853    8.50000 65000.00000
 1865.80000    9.85457    2.76368    2.82747    2.79135    2.49518  119.75943    0.35198    3.34341  109.68303    5.30822    8.50000 65000.00000
 1865.90000    9.88519    2.86653    2.94977    2.90155    2.49125  121.51791    0.34949    3.35148  109.54467    5.04496    8.50000 65000.00000
 1866.00000    9.89742    2.77759    2.86945    2.82497    2.49508  120.13503    0.35335    3.35499  108.72027    4.95466    8.50000 65000.00000
 1866.10000    9.86803    2.78642    2.87442    2.82553    2.49678  119.05172    0.35599    3.38095  108.97429    4.53443    8.50000 65000.00000
 1866.20000    9.88048    2.79063    2.86555    2.80835    2.49035  117.53162    0.35879    3.38320  109.79276    4.37422    8.50000 65000.00000
 1866.30000    9.88427    2.75835    2.84648    2.78896    2.49269  118.38177    0.36051    3.37825  108.91048    4.13613    8.50000 65000.00000
 1866.40000    9.87569    2.74534    2.82171    2.77218    2.48550  119.20045    0.36238    3.39463  109.54871    3.87727    8.50000 65000.00000
 1866.50000    9.83607    2.76309    2.80908    2.76948    2.48932  120.46740    0.36244    3.38933  109.80064    4.04680    8.50000 65000.00000
 1866.60000    9.81711    2.66573    2.72443    2.67470    2.49059  120.71248    0.36872    3.40716  109.68916    3.94866    8.50000 65000.00000
 1866.70000    9.82807    2.61898    2.69100    2.62935    2.48579  119.94912    0.36860    3.38408  110.00785    3.99195    8.50000 65000.00000
 1866.80000    9.80265    2.51459    2.57916    2.51876    2.48496  119.74171    0.36580    3.39940  110.08389    3.67604    8.50000 65000.00000
 1866.90000    9.83050    2.55794    2.62619    2.55119    2.49182  117.70440    0.35869    3.40522  109.91697    3.51683    8.50000 65000.00000
 1867.00000    9.84495    2.57362    2.68041    2.59995    2.49241  117.97965    0.36251    3.39603  109.86706    3.52416    8.50000 65000.00000
 1867.10000    9.80066    2.47783    2.50893    2.43803    2.49580  117.39561    0.36273    3.40572  109.51252    3.59595    8.50000 65000.00000
 1867.20000    9.81659    2.46124    2.48702    2.41243    2.49920  116.27062    0.36747    3.41524  109.06308    3.33299    8.50000 65000.00000
 1867.30000    9.82351    2.43144    2.46993    2.39633    2.49826  118.35811    0.36630    3.44249  109.09994    3.29208    8.50000 65000.00000
 1867.40000    9.83247    2.36932    2.42136    2.35147    2.49791  117.52600    0.36684    3.42056  108.91873    3.08111    8.50000 65000.00000
 1867.50000    9.84880    2.37417    2.43921    2.36250    2.49495  117.01744    0.36645    3.41193  109.24303    3.17164    8.50000 65000.00000
 1867.60000    9.85123    2.39942    2.46139    2.38563    2.49603  115.84116    0.36624    3.39745  108.30299    3.27658    8.50000 65000.00000
 1867.70000    9.85313    2.32020    2.36461    2.30468    2.49319  115.65092    0.36565    3.39712  108.31057    3.24269    8.50000 65000.00000
 1867.80000    9.88273    2.39729    2.40786    2.35483    2.49765  114.76213    0.36944    3.38160  108.02688    3.51610    8.50000 65000.00000
 1867.90000    9.89181    2.42624    2.41527    2.37066    2.48622  113.72387    0.37202    3.37573  109.17207    3.81581    8.50000 65000.00000
