~Version ---------------------------------------------------
VERS.   2.0 : CWLS log ASCII Standard -VERSION 2.0
WRAP.    NO : One line per depth step
DLM . SPACE : Column Data Section Delimiter
~Well ------------------------------------------------------
STRT.m          1000.00000 : START DEPTH
STOP.m          2000.00000 : STOP DEPTH
STEP.m             0.10000 : STEP
NULL.             -9999.25 : NULL VALUE
COMP. FORCE 2020 Recreator : 
WELL.   WELL_FORCE_2020_09 : 
FLD .                      : FIELD
LOC .                      : LOCATION
PROV.                      : PROVINCE
CNTY.                      : COUNTY
STAT.                      : STATE
CTRY.                      : COUNTRY
SRVC.                      : SERVICE COMPANY
DATE.                      : DATE
UWI .                      : UNIQUE WELL ID
API .                      : API NUMBER
~Curve Information -----------------------------------------
DEPT                            .m      : 
CALI                            .in     : 
RSHA                            .ohm.m  : 
RMED                            .ohm.m  : 
RDEP                            .ohm.m  : 
RHOB                            .g/cm3  : 
GR                              .gAPI   : 
NPHI                            .v/v    : 
PEF                             .b/e    : 
DTC                             .us/ft  : 
SP                              .mV     : 
BS                              .in     : 
FORCE_2020_LITHOFACIES_LITHOLOGY.code   : 
~Params ----------------------------------------------------
~Other -----------------------------------------------------
~ASCII -----------------------------------------------------
# ...
 1330.40000    8.57386    9.66531    9.44960    9.32693    2.17103   96.29956    0.32831    3.03843   97.27191    3.66860    8.50000 99000.00000
 1330.50000    8.57331    9.77803    9.51108    9.41009    2.17933   95.52444    0.33325    3.03429   97.35567    3.43198    8.50000 99000.00000
 1330.60000    8.57265    9.77554    9.49316    9.39467    2.17682   95.76320    0.33417    3.04337   97.38291    3.67857    8.50000 99000.00000
 1330.70000    8.57449    9.90511    9.59791    9.50248    2.18011   94.81779    0.32871    3.04522   97.99779    3.82708    8.50000 99000.00000
 1330.80000    8.57211   10.27571    9.94859    9.90968    2.18437   94.83427    0.32688    3.03003   97.91204    3.58802    8.50000 99000.00000
 1330.90000    8.57355    9.94327    9.62651    9.62855    2.18027   95.02623    0.33026    3.03833   97.61490    3.52924    8.50000 99000.00000
 1331.00000    8.57250    9.60083    9.34033    9.29517    2.17571   95.28408    0.32781    3.01525   98.52934    3.69509    8.50000 99000.00000
 1331.10000    8.57202    9.20125    8.98290    8.94915    2.17359   96.87182    0.33029    3.01218   98.47677    3.71079    8.50000 99000.00000
 1331.20000    8.57156    9.36182    9.05027    9.04494    2.16650   96.93099    0.33018    3.01632   98.90168    3.45810    8.50000 99000.00000
 1331.30000    8.57261    9.66943    9.44829    9.39887    2.16854   97.39326    0.33372    3.02846   98.91160    3.69302    8.50000 99000.00000
 1331.40000    8.57296    9.46732    9.29712    9.21579    2.16724   96.70438    0.33669    3.02766   98.18356    3.77009    8.50000 99000.00000
 1331.50000    8.56987    9.02198    8.91319    8.82931    2.16847   96.16681    0.34014    3.03312   98.53323    3.52203    8.50000 99000.00000
 1331.60000    8.57498    8.89159    8.79857    8.71416    2.17500   96.50161    0.33989    3.04151   98.75809    3.81417    8.50000 99000.00000
 1331.70000    8.57669    8.73582    8.65156    8.61352    2.16712   94.42372    0.34271    3.07632   98.65508    3.30300    8.50000 99000.00000
 1331.80000    8.57857    9.56269    9.51127    9.47307    2.16894   93.88625    0.34190    3.04629   99.07936    3.14796    8.50000 99000.00000
 1331.90000    8.58118    9.06050    9.02809    9.02197    2.17044   94.62809    0.33675    3.06721   98.81719    3.27365    8.50000 99000.00000
 1332.00000    8.58040    8.76613    8.59968    8.55446    2.17068   95.91893    0.33531    3.06162   99.14838    3.37980    8.50000 99000.00000
 1332.10000    8.58187    9.38429    9.15166    9.07448    2.17306   94.72432    0.33427    3.07767   99.16837    3.37942    8.50000 99000.00000
 1332.20000    8.58156    9.33081    9.27301    9.16084    2.17280   94.75675    0.33648    3.09421   99.11105    3.08934    8.50000 99000.00000
 1332.30000    8.57938    8.68815    8.68952    8.60549    2.17269   94.42476    0.33841    3.07887   98.71374    3.05650    8.50000 99000.00000
 1332.40000    8.57952    8.34651    8.38962    8.26765    2.16688   94.40372    0.33817    3.04967   99.22456    3.04687    8.50000 99000.00000
 1332.50000    8.57974    7.65755    7.72528    7.63815    2.16358   94.12512    0.33816    3.06970   99.88769    2.83788    8.50000 99000.00000
 1332.60000    8.57940    7.22925    7.36113    7.27072    2.16012   93.40470    0.33910    3.03850   99.48679    3.07928    8.50000 99000.00000
 1332.70000    8.57920    7.22821    7.29624    7.24585    2.16845   92.97281    0.33779    3.02128   99.13186    2.76485    8.50000 99000.00000
 1332.80000    8.57979    7.60416    7.69349    7.59800    2.16912   93.73649    0.34141    3.01711   99.05115    2.98788    8.50000 99000.00000
 1332.90000    8.58085    7.35032    7.42748    7.27932    2.16683   94.05257    0.33545    3.01931   98.98701    3.20096    8.50000 99000.00000
 1333.00000    8.57749    7.43915    7.52398    7.35405    2.16083   95.34102    0.33250    2.99936   99.52991    3.49540    8.50000 99000.00000
 1333.10000    8.57917    7.52648    7.52625    7.38922    2.16324   94.32807    0.33090    2.99944   98.60518    3.33220    8.50000 99000.00000
 1333.20000    8.57824    7.93234    7.88710    7.74207    2.16242   92.93756    0.32636    2.99416   98.81887    3.76392    8.50000 99000.00000
 1333.30000    8.57855    8.06803    8.06996    7.92348    2.16473   94.08492    0.32733    2.96616   98.89510    3.70448    8.50000 99000.00000
 1333.40000    8.57886    8.09765    8.02700    7.90674    2.16174   93.74532    0.33188    2.97569   99.26275    3.72800    8.50000 99000.00000
 1333.50000    8.57585    9.95697    9.96262    9.93881    2.16261   93.46222    0.33424    2.95976   99.05440    3.25738    8.50000 99000.00000
 1333.60000    8.57917    9.81182    9.86813    9.84390    2.16270   95.05385    0.33723    2.93424   99.13788    3.27497    8.50000 99000.00000
 1333.70000    8.57644    9.84963    9.92416    9.90746    2.15806   94.34234    0.33445    2.93776   98.50221    3.05515    8.50000 99000.00000
 1333.80000    8.57847   10.17820   10.23009   10.19367    2.16301   94.57922    0.33492    2.95181   98.32389    3.68753    8.50000 99000.00000
 1333.90000    8.57327    9.41385    9.47231    9.43022    2.16795   94.38504    0.33229    2.96222   98.65566    4.01043    8.50000 99000.00000
 1334.00000    8.57322   12.29676   12.04653   11.73853    2.16213   92.92768    0.33544    2.96443   98.43141    3.92368    8.50000 99000.00000
 1334.10000    8.57304   11.88144   11.72462   11.40423    2.15970   91.33529    0.33440    2.96339   98.21989    4.13833    8.50000 99000.00000
 1334.20000    8.57357   11.30003   11.19477   10.93044    2.15672   92.34199    0.33575    2.95808   98.70448    4.09580    8.50000 99000.00000
 1334.30000    8.57212   11.11508   10.89712   10.66687    2.16139   91.60032    0.33771    2.96838   99.00621    4.61233    8.50000 99000.00000
 1334.40000    8.57513   11.21855   11.01800   10.79365    2.16765   92.06012    0.33621    2.96299   98.63699    4.60008    8.50000 99000.00000
 1334.50000    8.57661   11.28297   10.96982   10.78465    2.17194   92.02797    0.33487    2.95771   97.76218    4.44351    8.50000 99000.00000
 1334.60000    8.57631   11.25082   10.94965   10.74239    2.17946   91.43715    0.33380    2.94135   96.95757    4.21920    8.50000 99000.00000
 1334.70000    8.57546   11.43054   11.15992   10.95905    2.17663   92.58872    0.33378    2.97269   97.25467    4.32734    8.50000 99000.00000
 1334.80000    8.57604   11.45865   11.17304   10.94836    2.17039   93.07656    0.33676    2.95816   96.88300    4.32300    8.50000 99000.00000
 1334.90000    8.57616   11.02306   10.72874   10.55188    2.16891   92.48681    0.33461    2.95754   96.26995    4.16571    8.50000 99000.00000
 1335.00000    8.57483   11.09709   10.75944   10.58091    2.17029   91.02422    0.33902    2.94832   96.71298    3.57555    8.50000 99000.00000
 1335.10000    8.57681   11.68531   11.34886   11.19207    2.17763   90.79231    0.34198    2.97391   96.33174    3.38788    8.50000 99000.00000
 1335.20000    8.57715   11.70567   11.48206   11.32991    2.18055   89.79143    0.34392    2.96877   96.12373    3.06672    8.50000 99000.00000
 1335.30000    8.58123   11.61133   11.41961   11.26265    2.18409   90.41633    0.34447    2.97086   95.85445    2.91899    8.50000 99000.00000
 1335.40000    8.58076   11.48712   11.30480   11.11665    2.18836   88.27089    0.34113    2.99870   95.78230    3.30992    8.50000 99000.00000
 1335.50000    8.57972   11.83166   11.69156   11.49686    2.19360   88.17810    0.33835    2.99227   96.00603    3.17492    8.50000 99000.00000
 1335.60000    8.58070   10.17695    9.96498    9.68626    2.19662   88.86307    0.33330    2.98268   96.79739    3.47152    8.50000 99000.00000
 1335.70000    8.57746   10.26399   10.01021    9.74026    2.19787   88.49582    0.32797    3.00544   96.48803    3.51797    8.50000 99000.00000
 1335.80000    8.57868   10.30214   10.00801    9.75288    2.19887   88.22827    0.33140    3.03168   96.92758    3.36696    8.50000 99000.00000
 1335.90000    8.57851   10.26082    9.94774    9.70386    2.19352   87.78283    0.33249    2.99825   96.45758    3.05371    8.50000 99000.00000
