~Version ---------------------------------------------------
VERS.   2.0 : CWLS log ASCII Standard -VERSION 2.0
WRAP.    NO : One line per depth step
DLM . SPACE : Column Data Section Delimiter
~Well ------------------------------------------------------
STRT.m          1000.00000 : START DEPTH
STOP.m          2000.00000 : STOP DEPTH
STEP.m             0.10000 : STEP
NULL.             -9999.25 : NULL VALUE
COMP. FORCE 2020 Recreator : 
WELL.   WELL_FORCE_2020_03 : 
FLD .                      : FIELD
LOC .                      : LOCATION
PROV.                      : PROVINCE
CNTY.                      : COUNTY
STAT.                      : STATE
CTRY.                      : COUNTRY
SRVC.                      : SERVICE COMPANY
DATE.                      : DATE
UWI .                      : UNIQUE WELL ID
API .                      : API NUMBER
~Curve Information -----------------------------------------
DEPT                            .m      : 
CALI                            .in     : 
RSHA                            .ohm.m  : 
RMED                            .ohm.m  : 
RDEP                            .ohm.m  : 
RHOB                            .g/cm3  : 
GR                              .gAPI   : 
NPHI                            .v/v    : 
PEF                             .b/e    : 
DTC                             .us/ft  : 
SP                              .mV     : 
BS                              .in     : 
FORCE_2020_LITHOFACIES_LITHOLOGY.code   : 
~Params ----------------------------------------------------
~Other -----------------------------------------------------
~ASCII -----------------------------------------------------
# ...
 1929.30000    8.56838 2602.13917 2595.70178 2600.10589    2.96426   11.63889    0.01908    5.03089   49.95623    5.69535    8.50000 86000.00000
 1929.40000    8.56858 2408.14722 2424.30784 2389.08736    2.96456   11.86466    0.01954    5.04514   50.12812    5.61041    8.50000 86000.00000
 1929.50000    8.56957 2537.41337 2542.50845 2506.33572    2.96678   11.70313    0.01937    5.04503   50.27894    5.72246    8.50000 86000.00000
 1929.60000    8.56812 2516.82389 2523.79912 2488.07618    2.96532   11.61770    0.01896    5.03933   50.18549    5.72737    8.50000 86000.00000
 1929.70000    8.57387 2562.00478 2574.54786 2533.87882    2.96543   11.53845    0.01890    5.02118   50.26665    5.74387    8.50000 86000.00000
 1929.80000    8.57753 2551.85153 2554.80969 2517.44182    2.96505   11.74493    0.01806    5.01303   49.97667    5.86873    8.50000 86000.00000
 1929.90000    8.57992 2589.85202 2614.89586 2574.05205    2.96658   11.55995    0.01776    5.01812   49.95691    5.97666    8.50000 86000.00000
 1930.00000    8.57943 2331.87069 2351.01718 2303.69613    2.96560   11.28261    0.01692    5.01285   49.89226    5.96554    8.50000 86000.00000
 1930.10000    8.57833 2299.50395 2326.34578 2276.65261    2.96497   11.41208    0.01759    4.99829   50.17449    5.98907    8.50000 86000.00000
 1930.20000    8.57461 2328.14719 2346.60161 2298.51450    2.96405   11.20117    0.01766    4.99669   50.03435    5.94471    8.50000 86000.00000
 1930.30000    8.57703 2084.06826 2086.88170 2044.37474    2.96317   11.22157    0.01865    4.99246   50.02174    5.92288    8.50000 86000.00000
 1930.40000    8.58183 1875.73658 1879.49987 1863.08483    2.96205   11.57980    0.01910    4.97679   49.97964    5.77022    8.50000 86000.00000
 1930.50000    8.58506 1901.11220 1911.72006 1894.45767    2.96076   11.65931    0.01899    4.96249   50.08436    5.77347    8.50000 86000.00000
 1930.60000    8.58726 1939.31278 1986.67766 1962.48369    2.96063   11.41209    0.01854    4.97300   49.95608    5.62616    8.50000 86000.00000
 1930.70000    8.58797 3179.11742 3247.21164 3102.57042    2.96084   11.35321    0.01963    4.98426   49.93761    5.64935    8.50000 86000.00000
 1930.80000    8.58258 3378.68306 3436.67051 3279.27259    2.96128   11.54806    0.01983    4.98336   50.09248    5.76955    8.50000 86000.00000
 1930.90000    8.58120 3303.71422 3346.62802 3197.71881    2.96331   11.43022    0.01945    4.95642   49.95359    5.87712    8.50000 86000.00000
 1931.00000    8.58435 3352.64254 3389.94244 3237.79814    2.96379   11.09365    0.01870    4.94563   49.97761    5.90778    8.50000 86000.00000
 1931.10000    8.58654 3350.52757 3396.02498 3237.18774    2.96479   10.97857    0.01941    4.94776   50.08045    5.90950    8.50000 86000.00000
 1931.20000    8.58818 3335.04783 3387.63379 3229.43561    2.96302   11.16867    0.01990    4.93608   49.95957    5.82812    8.50000 86000.00000
 1931.30000    8.58724 3057.08028 3127.86243 2983.70854    2.96121   11.26604    0.02014    4.93652   49.70772    5.84182    8.50000 86000.00000
 1931.40000    8.58669 3148.65743 3215.32913 3066.80013    2.96375   11.30943    0.02061    4.94516   49.66108    5.97355    8.50000 86000.00000
 1931.50000    8.58657 3230.39379 3289.30731 3135.30725    2.96377   10.94471    0.02065    4.93476   49.69142    5.96696    8.50000 86000.00000
 1931.60000    8.58600 3103.49751 3173.29072 3019.52973    2.96304   10.92960    0.02133    4.94130   49.79526    6.16038    8.50000 86000.00000
 1931.70000    8.58470 3098.71919 3172.99199 3017.69574    2.96158   11.08375    0.02138    4.93658   49.83426    5.87356    8.50000 86000.00000
 1931.80000    8.58250 3250.24463 3392.83517 3214.54174    2.96089   10.77209    0.02245    4.94985   49.81913    5.86045    8.50000 86000.00000
 1931.90000    8.57981 3523.99455 3701.21858 3498.91104    2.96072   10.76086    0.02201    4.95938   49.90928    5.84073    8.50000 86000.00000
 1932.00000    8.57868 3480.50121 3636.76583 3437.28591    2.95967   10.74947    0.02219    4.95776   50.06818    5.77805    8.50000 86000.00000
 1932.10000    8.57893 3831.03417 4030.01210 3819.81350    2.95770   11.03455    0.02275    4.97431   50.19487    5.87727    8.50000 86000.00000
 1932.20000    8.57830 3803.05058 4006.42917 3795.15639    2.95563   11.04731    0.02135    4.98070   50.03705    6.11164    8.50000 86000.00000
 1932.30000    8.58067 3750.06038 3960.46941 3745.99148    2.95670   11.23509    0.02286    4.98166   50.13528    6.20759    8.50000 86000.00000
 1932.40000    8.58078 3854.29000 4080.62780 3874.03463    2.95888   11.40145    0.02187    4.98633   50.23171    6.33156    8.50000 86000.00000
 1932.50000    8.57483 3854.73756 4094.14230 3886.19113    2.95925   11.18347    0.02133    4.99374   50.10637    6.32760    8.50000 86000.00000
 1932.60000    8.57428 3804.45285 4038.37628 3834.87275    2.95893   10.54206    0.02081    4.99340   50.06980    6.58301    8.50000 86000.00000
 1932.70000    8.57124 3834.68546 4047.74522 3844.78537    2.96143   11.11252    0.02067    4.98671   50.12608    6.65608    8.50000 86000.00000
 1932.80000    8.56856 2600.56827 2788.93475 2705.82871    2.96125   11.26525    0.01873    4.97476   50.06981    6.67581    8.50000 86000.00000
 1932.90000    8.56789 2266.52919 2451.29123 2374.55137    2.96011   11.18366    0.01855    4.97010   49.92666    6.71653    8.50000 86000.00000
 1933.00000    8.56913 2273.51345 2479.94637 2388.61492    2.96161   11.46389    0.01921    4.99103   49.83942    6.45895    8.50000 86000.00000
 1933.10000    8.57099 2269.53390 2460.06889 2369.64626    2.96024   11.66139    0.01951    4.97773   50.02174    6.47005    8.50000 86000.00000
 1933.20000    8.57100 2204.12484 2389.56978 2303.96714    2.96308   11.75372    0.01975    4.97914   49.91914    6.32654    8.50000 86000.00000
 1933.30000    8.57104 2211.00743 2392.00020 2304.59281    2.96307   11.64801    0.01917    4.98527   49.99920    6.28412    8.50000 86000.00000
 1933.40000    8.57626 2181.08084 2363.66630 2280.29315    2.96277   11.91133    0.01859    4.99116   50.27472    6.25152    8.50000 86000.00000
 1933.50000    8.57857 2222.08154 2397.75725 2315.61634    2.96060   12.04864    0.01927    4.99038   50.46730    6.33416    8.50000 86000.00000
 1933.60000    8.57823 2045.09106 2232.82756 2154.95735    2.96156   12.32019    0.01946    4.99318   50.32305    6.35376    8.50000 86000.00000
 1933.70000    8.57701 2031.20561 2222.90858 2144.04190    2.96215   12.59476    0.01882    4.98258   50.34333    6.27302    8.50000 86000.00000
 1933.80000    8.57680 2074.91578 2264.97849 2187.11240    2.96214   12.52200    0.01944    4.99565   50.41004    6.45373    8.50000 86000.00000
 1933.90000    8.57409 2078.57592 2180.89667 2128.40540    2.95815   12.73244    0.01836    4.99264   50.38737    6.48466    8.50000 86000.00000
 1934.00000    8.57503 1853.86955 1927.21837 1905.69992    2.95842   12.73337    0.01920    4.98162   50.41556    6.52389    8.50000 86000.00000
 1934.10000    8.57525 1894.67923 1971.12064 1952.85144    2.95752   12.94147    0.01899    4.98202   50.26683    6.56952    8.50000 86000.00000
 1934.20000    8.57835 1576.89795 1591.56857 1582.99595    2.95862   12.79504    0.01835    4.97945   50.20996    6.49307    8.50000 86000.00000
 1934.30000    8.57640 1621.22268 1626.79504 1620.92539    2.96100   12.92316    0.01854    4.97346   50.09339    6.15790    8.50000 86000.00000
 1934.40000    8.58105 1610.30605 1612.91480 1612.53995    2.96159   13.02762    0.01722    4.96619   50.01155    6.12120    8.50000 86000.00000
 1934.50000    8.57936 1576.64194 1562.13961 1549.60471    2.95982   13.24876    0.01798    4.97647   50.10012    6.03821    8.50000 86000.00000
 1934.60000    8.58230 1579.76492 1554.17813 1541.24667    2.96179   13.50493    0.01822    4.97320   50.12737    5.97579    8.50000 86000.00000
 1934.70000    8.57718 1686.69816 1687.70827 1676.50771    2.96349   13.88889    0.01849    4.97502   50.05882    5.90750    8.50000 86000.00000
 1934.80000    8.57928 1812.24303 1779.03889 1768.32462    2.96289   13.40595    0.01873    4.98587   50.06255    5.81244    8.50000 86000.00000
