~Version ---------------------------------------------------
VERS.   2.0 : CWLS log ASCII Standard -VERSION 2.0
WRAP.    NO : One line per depth step
DLM . SPACE : Column Data Section Delimiter
~Well ------------------------------------------------------
STRT.m          1000.00000 : START DEPTH
STOP.m          2000.00000 : STOP DEPTH
STEP.m             0.10000 : STEP
NULL.             -9999.25 : NULL VALUE
COMP. FORCE 2020 Recreator : 
WELL.   WELL_FORCE_2020_04 : 
FLD .                      : FIELD
LOC .                      : LOCATION
PROV.                      : PROVINCE
CNTY.                      : COUNTY
STAT.                      : STATE
CTRY.                      : COUNTRY
SRVC.                      : SERVICE COMPANY
DATE.                      : DATE
UWI .                      : UNIQUE WELL ID
API .                      : API NUMBER
~Curve Information -----------------------------------------
DEPT                            .m      : 
CALI                            .in     : 
RSHA                            .ohm.m  : 
RMED                            .ohm.m  : 
RDEP                            .ohm.m  : 
RHOB                            .g/cm3  : 
GR                              .gAPI   : 
NPHI                            .v/v    : 
PEF                             .b/e    : 
DTC                             .us/ft  : 
SP                              .mV     : 
BS                              .in     : 
FORCE_2020_LITHOFACIES_LITHOLOGY.code   : 
~Params ----------------------------------------------------
~Other -----------------------------------------------------
~ASCII -----------------------------------------------------
# ...
 1067.20000    8.57432   17.03051   16.76213   17.15236    2.29269   13.78951    0.28895    4.83236   73.26365   -1.49327    8.50000 70032.00000
 1067.30000    8.57482   17.39012   17.08644   17.50177    2.29234   13.98851    0.29253    4.82151   74.31907   -1.75477    8.50000 70032.00000
 1067.40000    8.57467   17.35639   16.91011   17.30976    2.29506   13.89176    0.29496    4.83550   74.29759   -1.45915    8.50000 70032.00000
 1067.50000    8.57307   16.73147   16.41478   16.72289    2.29722   13.68321    0.29221    4.85481   74.27517   -1.56104    8.50000 70032.00000
 1067.60000    8.57156   16.38756   16.07291   16.32348    2.29010   13.63898    0.29099    4.86062   74.34931   -1.39596    8.50000 70032.00000
 1067.70000    8.57317   15.15278   14.79710   15.13087    2.29289   13.61394    0.29236    4.85887   74.96634   -1.53610    8.50000 70032.00000
 1067.80000    8.57458   15.42934   14.87023   15.24531    2.28732   13.99168    0.29149    4.85002   74.46766   -1.54973    8.50000 70032.00000
 1067.90000    8.57498   15.07891   14.52525   14.90143    2.29021   14.08029    0.29498    4.85660   74.31170   -1.14643    8.50000 70032.00000
 1068.00000    8.57656   15.46729   14.87409   15.28050    2.28473   14.55697    0.29911    4.86716   74.31699   -1.49317    8.50000 70032.00000
 1068.10000    8.57850   15.57352   14.89667   15.30612    2.27823   14.36558    0.29443    4.86393   74.51550   -1.43189    8.50000 70032.00000
 1068.20000    8.57889   13.80029   13.56084   13.75049    2.28248   14.64157    0.29298    4.85775   74.16344   -1.47807    8.50000 70032.00000
 1068.30000    8.57742   14.22048   13.93811   14.03538    2.28822   14.41893    0.29053    4.88254   74.58593   -1.26817    8.50000 70032.00000
 1068.40000    8.57795   14.20672   13.90730   13.99552    2.28664   14.77089    0.29358    4.89858   74.78676   -1.50548    8.50000 70032.00000
 1068.50000    8.57977   13.95171   13.72375   13.81899    2.29294   14.98223    0.29342    4.89850   74.32565   -1.99425    8.50000 70032.00000
 1068.60000    8.58100   13.84517   13.63031   13.68452    2.28613   15.19775    0.29448    4.89689   74.74181   -2.10968    8.50000 70032.00000
 1068.70000    8.58122   14.75855   14.57610   14.58193    2.29036   15.40620    0.29759    4.89072   74.84196   -1.99418    8.50000 70032.00000
 1068.80000    8.58284   14.23937   13.98719   14.00891    2.28155   15.45156    0.30176    4.87595   74.35103   -1.78344    8.50000 70032.00000
 1068.90000    8.58655   14.31830   14.09469   14.13067    2.27824   15.49975    0.29979    4.87097   75.06369   -1.97607    8.50000 70032.00000
 1069.00000    8.58724   14.68250   14.25938   14.26945    2.28088   15.57206    0.29923    4.87634   75.35700   -1.74416    8.50000 70032.00000
 1069.10000    8.58561   14.66907   14.22201   14.28101    2.28131   15.94598    0.29993    4.85834   74.98568   -1.96783    8.50000 70032.00000
 1069.20000    8.58581   14.49018   14.00770   14.07315    2.27711   15.87379    0.30049    4.85061   74.53134   -1.86283    8.50000 70032.00000
 1069.30000    8.58676   13.86172   13.23007   13.29554    2.27628   16.22930    0.30001    4.85422   74.66422   -1.98561    8.50000 70032.00000
 1069.40000    8.59019   14.09267   13.37123   13.48411    2.27435   16.27391    0.30123    4.85726   74.38961   -1.73913    8.50000 70032.00000
 1069.50000    8.58804   14.07805   13.39651   13.52161    2.26940   16.30483    0.30026    4.84090   74.50738   -1.76360    8.50000 70032.00000
 1069.60000    8.59273   14.45482   13.79439   13.86723    2.26573   16.28076    0.29999    4.83272   74.56586   -1.64622    8.50000 70032.00000
 1069.70000    8.59323   14.75518   13.96997   14.06784    2.26891   16.50488    0.29938    4.84153   74.02363   -1.62550    8.50000 70032.00000
 1069.80000    8.59042   15.08033   14.24467   14.40714    2.27297   16.28085    0.30020    4.84392   73.78700   -1.55956    8.50000 70032.00000
 1069.90000    8.59205   15.06704   14.37692   14.48845    2.27415   16.00210    0.30246    4.83918   74.37534   -1.48652    8.50000 70032.00000
 1070.00000    8.59157   15.02159   14.41007   14.49156    2.27461   16.12036    0.30067    4.82487   74.88047   -1.56600    8.50000 70032.00000
 1070.10000    8.58961   14.88925   14.33323   14.35109    2.27515   15.59041    0.29973    4.83256   75.24679   -1.45281    8.50000 70032.00000
 1070.20000    8.59039   14.83853   14.37990   14.37502    2.28124   15.68963    0.30350    4.83117   75.15432   -1.31544    8.50000 70032.00000
 1070.30000    8.58998   14.45465   14.03736   14.04843    2.27994   15.51074    0.30170    4.82316   75.20511   -1.23396    8.50000 70032.00000
 1070.40000    8.59238   13.70796   13.38516   13.41272    2.27978   15.64596    0.29902    4.82986   75.00229   -1.10849    8.50000 70032.00000
 1070.50000    8.59045   13.88604   13.68090   13.63687    2.27477   15.88936    0.29803    4.81928   74.36310   -0.88052    8.50000 70032.00000
 1070.60000    8.59108   14.08052   13.75318   13.72344    2.27485   15.92510    0.29748    4.82290   74.83941   -0.83348    8.50000 70032.00000
 1070.70000    8.59153   14.78581   14.63282   14.59577    2.28007   15.53272    0.30191    4.82609   74.00632   -1.15876    8.50000 70032.00000
 1070.80000    8.59318   14.01516   13.87445   13.89593    2.27236   15.64768    0.29868    4.81759   74.39944   -1.49824    8.50000 70032.00000
 1070.90000    8.59539   14.45182   14.26148   14.24761    2.27641   15.60549    0.29471    4.82004   74.94753   -1.61426    8.50000 70032.00000
 1071.00000    8.59219   14.50781   14.22257   14.22526    2.27347   15.55093    0.29163    4.83212   74.50550   -1.59643    8.50000 70032.00000
 1071.10000    8.59322   14.58703   14.45324   14.43061    2.26968   15.56960    0.29529    4.81871   74.70603   -1.55436    8.50000 70032.00000
 1071.20000    8.59228   14.10897   14.10155   14.00754    2.27038   15.13764    0.29271    4.83010   75.04900   -1.52910    8.50000 70032.00000
 1071.30000    8.59078   13.76684   13.74187   13.67106    2.26968   15.06874    0.29110    4.83241   75.02843   -1.39271    8.50000 70032.00000
 1071.40000    8.59082   14.35585   14.07976   14.07684    2.26839   15.11972    0.28784    4.82812   74.95275   -0.99329    8.50000 70032.00000
 1071.50000    8.58472   14.31503   14.17202   14.05571    2.26531   15.23981    0.28038    4.83922   74.31236   -1.17961    8.50000 70032.00000
 1071.60000    8.58595   14.08949   13.95905   13.80403    2.26608   15.34789    0.28248    4.84878   74.39205   -1.47211    8.50000 70032.00000
 1071.70000    8.58681   14.54576   14.33768   14.33186    2.27061   15.36455    0.28244    4.84781   74.70880   -1.51766    8.50000 70032.00000
 1071.80000    8.58673   13.72193   13.56648   13.63150    2.26865   15.12018    0.28188    4.83300   75.17620   -1.53103    8.50000 70032.00000
 1071.90000    8.58956   13.69371   13.53719   13.52656    2.26374   15.10069    0.28212    4.82751   74.97303   -1.50407    8.50000 70032.00000
 1072.00000    8.58818   13.58270   13.43715   13.38980    2.26069   15.22518    0.28137    4.83412   74.52352   -1.46827    8.50000 70032.00000
 1072.10000    8.58973   13.96024   13.65471   13.61982    2.26295   15.18534    0.28294    4.84574   74.39695   -1.64528    8.50000 70032.00000
 1072.20000    8.59253   13.60560   13.34082   13.34583    2.26531   15.30805    0.28270    4.83630   74.06033   -1.54792    8.50000 70032.00000
 1072.30000    8.58837   13.59664   13.26948   13.25138    2.26004   15.37246    0.27840    4.83448   73.99202   -1.83291    8.50000 70032.00000
 1072.40000    8.59017   13.44465   13.11252   13.08253    2.26024   15.55185    0.28073    4.83423   74.24829   -1.88241    8.50000 70032.00000
 1072.50000    8.59059   13.54922   13.25525   13.16792    2.25296   15.64393    0.28291    4.81425   74.39713   -2.19642    8.50000 70032.00000
 1072.60000    8.59416   13.50498   13.04483   13.05896    2.25778   15.00351    0.28164    4.79037   74.72461   -2.43609    8.50000 70032.00000
 1072.70000    8.59343   13.85458   13.20194   13.24403    2.25574   15.18505    0.28266    4.78978   74.98993   -2.36004    8.50000 70032.00000
