~Version ---------------------------------------------------
VERS.   2.0 : CWLS log ASCII Standard -VERSION 2.0
WRAP.    NO : One line per depth step
DLM . SPACE : Column Data Section Delimiter
~Well ------------------------------------------------------
STRT.m          1000.00000 : START DEPTH
STOP.m          2000.00000 : STOP DEPTH
STEP.m             0.10000 : STEP
NULL.             -9999.25 : NULL VALUE
COMP. FORCE 2020 Recreator : 
WELL.   WELL_FORCE_2020_02 : 
FLD .                      : FIELD
LOC .                      : LOCATION
PROV.                      : PROVINCE
CNTY.                      : COUNTY
STAT.                      : STATE
CTRY.                      : COUNTRY
SRVC.                      : SERVICE COMPANY
DATE.                      : DATE
UWI .                      : UNIQUE WELL ID
API .                      : API NUMBER
~Curve Information -----------------------------------------
DEPT                            .m      : 
CALI                            .in     : 
RSHA                            .ohm.m  : 
RMED                            .ohm.m  : 
RDEP                            .ohm.m  : 
RHOB                            .g/cm3  : 
GR                              .gAPI   : 
NPHI                            .v/v    : 
PEF                             .b/e    : 
DTC                             .us/ft  : 
SP                              .mV     : 
BS                              .in     : 
FORCE_2020_LITHOFACIES_LITHOLOGY.code   : 
~Params ----------------------------------------------------
~Other -----------------------------------------------------
~ASCII -----------------------------------------------------
# ...
 1929.60000    8.58159 13660.23385 13629.58704 13658.52360    2.74337  143.25398    0.01332    3.77346   43.22631   11.05658    8.50000 93000.00000
 1929.70000   -9999.25 13675.46753 13646.50911 13674.32776    2.74201  143.20301    0.01380    3.73545   43.26501   11.14061    8.50000 93000.00000
 1929.80000    8.57861 13738.44767 13739.32569 13769.62467    2.74267  145.65604    0.01399    3.74968   42.86843   11.01751    8.50000 93000.00000
 1929.90000    8.57590 15378.58805 15507.51706 15585.64915    2.76009  145.26405    0.01391    3.76408   42.67523   11.69096    8.50000 93000.00000
 1930.00000    8.57741 15375.57444 15505.36305 15583.34312    2.77220  145.92203    0.01379    3.77750   42.82993   12.27090    8.50000 93000.00000
 1930.10000    8.57676 15141.24602 15301.24357 15389.77521    2.77677  147.86057    0.01396    3.71920   42.17360   12.89446    8.50000 93000.00000
 1930.20000    8.57935 13535.38558 13628.77595   -9999.25    2.78937  143.82969    0.01400    3.77766   42.63717   12.98944    8.50000 93000.00000
 1930.30000    8.58040 13534.11805 13628.21785 13805.31319    2.78201  143.31303    0.01430    3.71786   42.54828   12.47273    8.50000 93000.00000
 1930.40000    8.58010 13907.29125 14001.23567 14105.37881    2.78166  143.50417    0.01485    3.76090   43.06785   12.84901    8.50000 93000.00000
 1930.50000    8.57905 13953.94722 14052.07066 14158.63042    2.78152  142.06170    0.01439    3.81414   43.31049   12.96753    8.50000 93000.00000
 1930.60000    8.57892 14601.63950 14664.39299 14783.37759    2.80008  143.05220    0.01422    3.84967   43.93824   13.66972    8.50000 93000.00000
 1930.70000    8.57662 14626.07836 14689.62592 14809.55412    2.81150  144.54692    0.01434    3.87817   43.73574   13.65987    8.50000 93000.00000
 1930.80000    8.57753 13724.95365 13802.73807 13963.54095    2.80864  143.15680    0.01470    3.87178   43.99926   13.53272    8.50000 93000.00000
 1930.90000    8.57707 13645.17522 13728.68656 13886.13630    2.79496  138.90817    0.01509    3.92461   44.36845   13.66104    8.50000 93000.00000
 1931.00000    8.57518 13556.61309 13644.30532 13801.44788    2.78909  142.08312    0.01561    3.92894   44.45697   14.00674    8.50000 93000.00000
 1931.10000    8.57584 6846.05941 7188.60456 7234.42206    2.77438  144.35828    0.01564    3.89999   43.84056   13.84450    8.50000 93000.00000
 1931.20000    8.57819 6790.65942 7121.94776 7183.26660    2.77208  144.00346    0.01565    3.87463   43.76424   13.75415    8.50000 93000.00000
 1931.30000    8.57686 6402.20752 6795.98139 6833.67653    2.75297  145.25235    0.01597    3.89432   44.15371   14.38260    8.50000 93000.00000
 1931.40000    8.57837 6453.14999 6832.58141 6862.32431    2.75787  143.89783    0.01593    3.93317   44.29955   13.73973    8.50000 93000.00000
 1931.50000    8.57946 6357.69473 6729.53075 6754.52614    2.75994  144.44367    0.01591    3.96148   43.98762   14.21532    8.50000 93000.00000
 1931.60000    8.58015 6878.93537 7219.97891 7209.83098    2.77558  145.17808    0.01622    3.93057   43.56614   14.54882    8.50000 93000.00000
 1931.70000    8.58354 5944.38575 6076.36298 6107.23290    2.76732  143.77866    0.01614    3.90603   43.42053   14.92190    8.50000 93000.00000
 1931.80000    8.58425 6431.64144 6517.30877 6565.38633    2.76168  144.16099    0.01594    3.93359   44.31411   14.91882    8.50000 93000.00000
 1931.90000    8.58501 6280.16049 6351.03120 6398.14258    2.73042  141.79770    0.01596    3.88557   44.32614   15.27770    8.50000 93000.00000
 1932.00000    8.58647 4458.99387 4387.00025 4382.68233    2.72258  142.06136    0.01572    3.88359   44.38790   14.82980    8.50000 93000.00000
 1932.10000    8.58458 4524.34301 4448.86845 4445.56723    2.70590  138.46584    0.01598    3.89678   44.60809   14.38630    8.50000 93000.00000
 1932.20000    8.58718 5294.38139 5209.23802 5267.55461    2.71181  138.83208    0.01572    3.89339   44.97613   13.67033    8.50000 93000.00000
 1932.30000    8.58585 5251.97802 5196.42057 5242.84577    2.70512  139.48205    0.01573    3.87487   44.90990   13.09537    8.50000 93000.00000
 1932.40000    8.58350 5342.36465 5275.60718 5321.72033    2.71292  139.63677    0.01545    4.00071   45.11355   13.35738    8.50000 93000.00000
 1932.50000    8.58225 4667.10653 4548.16837 4642.90347    2.72707  141.83069    0.01502    3.99904   45.09122   13.55250    8.50000 93000.00000
 1932.60000    8.58654 5933.42570 5917.30585 6032.49949    2.71929  144.13965    0.01537    3.94806   44.56275   13.34203    8.50000 93000.00000
 1932.70000    8.58569 5214.62447 5224.46176 5334.08317    2.71843  142.04621    0.01566    3.92885   44.48822   13.30425    8.50000 93000.00000
 1932.80000    8.58447 5246.96127 5255.14596 5361.53959    2.71952  139.77170    0.01594    3.91778   44.61386   13.65246    8.50000 93000.00000
 1932.90000    8.58403 5208.79060 5216.08160 5319.11611    2.73381  141.22666    0.01573    3.93786   44.88661   13.92888    8.50000 93000.00000
 1933.00000    8.58627 5270.42466 5281.92875 5388.32192    2.74685  144.24168    0.01573    3.89450   44.41446   14.06129    8.50000 93000.00000
 1933.10000    8.58859 5304.29654 5315.71978 5422.60161    2.73826  142.67796    0.01568    3.88650   44.73960   13.37617    8.50000 93000.00000
 1933.20000    8.58589 4888.17364 4860.76015 4922.77256    2.74213  140.41739    0.01535    3.90111   45.43062   13.49633    8.50000 93000.00000
 1933.30000    8.58520 4804.61390 4781.64518 4838.47063    2.73970  142.20107    0.01518    3.96775   45.51653   13.90362    8.50000 93000.00000
 1933.40000    8.58674 4846.55818 4821.59314 4879.05785    2.75368  140.82798    0.01551    3.93701   46.37135   13.04311    8.50000 93000.00000
 1933.50000    8.58533 5367.91425 5385.89600 5422.17234    2.74835  141.44769    0.01535    3.88906   45.76515   13.59943    8.50000 93000.00000
 1933.60000    8.58417 5502.54217 5511.69526 5533.53852    2.73971  139.86034    0.01616    3.91093   46.42107   13.21291    8.50000 93000.00000
 1933.70000    8.58331 6477.27108 6498.81504 6572.63739    2.73508  140.58934    0.01620    3.89206   46.38238   12.51333    8.50000 93000.00000
 1933.80000    8.58400 6171.90178 6223.20056 6304.45455    2.73419  141.89259    0.01618    3.91549   46.58423   12.42692    8.50000 93000.00000
 1933.90000    8.58495 5844.33336 5929.12444 5994.32681    2.74555  139.80088    0.01660    3.86282   46.01931   12.24879    8.50000 93000.00000
 1934.00000    8.58378 5836.09009 5907.77452 5974.38035    2.76578  139.65141    0.01639    3.91321   45.84732   11.87522    8.50000 93000.00000
 1934.10000    8.58205 5907.02196 5988.98161 6054.41851    2.77011  137.40199    0.01703    3.89059   45.05555   11.87552    8.50000 93000.00000
 1934.20000    8.58076 5844.46225 5928.54414 5993.28583    2.76405  138.57446    0.01638    3.86077   44.69492   11.70076    8.50000 93000.00000
 1934.30000    8.57774 5171.75721 5266.40574 5268.44623    2.74068  138.45773    0.01644    3.88075   44.70836   11.80260    8.50000 93000.00000
 1934.40000    8.57632 9570.68156 8693.77547 8873.88243    2.72864  137.71939    0.01678    3.85360   44.85842   11.55930    8.50000 93000.00000
 1934.50000    8.57693 9485.55320 8618.17989 8799.51170    2.71783  139.42719    0.01673    3.75045   44.93210   11.66519    8.50000 93000.00000
 1934.60000    8.57512 9480.56720 8615.68136 8797.38054    2.69135  137.00040    0.01705    3.76810   44.77353   11.13450    8.50000 93000.00000
 1934.70000    8.57206 8587.12962 7659.88590 7828.52780    2.68159  134.84691    0.01706    3.76090   45.35766   10.85561    8.50000 93000.00000
 1934.80000    8.57374 9675.19022 8716.75949 9087.82679    2.66810  135.44355    0.01675    3.78934   45.18974   10.67264    8.50000 93000.00000
 1934.90000    8.57509 10023.12356 9068.66840 9492.18507    2.66211  135.25243    0.01625    3.83808   45.10508   10.09959    8.50000 93000.00000
 1935.00000    8.57586 10087.09744 9134.03936 9554.25261    2.66765  134.09125    0.01608    3.85519   44.94345    9.69320    8.50000 93000.00000
