~Version ---------------------------------------------------
VERS.   2.0 : CWLS log ASCII Standard -VERSION 2.0
WRAP.    NO : One line per depth step
DLM . SPACE : Column Data Section Delimiter
~Well ------------------------------------------------------
STRT.m          1000.00000 : START DEPTH
STOP.m          2000.00000 : STOP DEPTH
STEP.m             0.10000 : STEP
NULL.             -9999.25 : NULL VALUE
COMP. FORCE 2020 Recreator : 
WELL.   WELL_FORCE_2020_10 : 
FLD .                      : FIELD
LOC .                      : LOCATION
PROV.                      : PROVINCE
CNTY.                      : COUNTY
STAT.                      : STATE
CTRY.                      : COUNTRY
SRVC.                      : SERVICE COMPANY
DATE.                      : DATE
UWI .                      : UNIQUE WELL ID
API .                      : API NUMBER
~Curve Information -----------------------------------------
DEPT                            .m      : 
CALI                            .in     : 
RSHA                            .ohm.m  : 
RMED                            .ohm.m  : 
RDEP                            .ohm.m  : 
RHOB                            .g/cm3  : 
GR                              .gAPI   : 
NPHI                            .v/v    : 
PEF                             .b/e    : 
DTC                             .us/ft  : 
SP                              .mV     : 
BS                              .in     : 
FORCE_2020_LITHOFACIES_LITHOLOGY.code   : 
~Params ----------------------------------------------------
~Other -----------------------------------------------------
~ASCII -----------------------------------------------------
# ...
 1134.40000    8.58858    7.98295    7.81336    7.96212    2.40262   69.84652    0.25843    2.61138   92.13114  -13.78484    8.50000 65030.00000
 1134.50000    8.58782    7.95308    7.73900    7.91309   -9999.25   70.88404    0.25614    2.60813   92.67172  -13.58468    8.50000 65030.00000
 1134.60000    8.58741    7.91417    7.74095    7.90391    2.40152   72.46907    0.25973    2.60715   92.18442  -13.89905    8.50000 65030.00000
 1134.70000    8.58698    7.63204    7.53416    7.69520    2.39348   70.48385    0.25831    2.59723   92.55034  -13.48811    8.50000 65030.00000
 1134.80000    8.58761    7.49252    7.41384    7.54295    2.39894   70.45803    0.25347    2.59832   91.48713  -13.41661    8.50000 65030.00000
 1134.90000    8.58575    7.69763    7.71686    7.78972    2.39542   69.49562    0.25380    2.58046   92.44006  -13.21107    8.50000 65030.00000
 1135.00000    8.58641    7.29635    7.31154    7.42785    2.39947   69.70759    0.25407    2.58501   92.70938  -13.58585    8.50000 65030.00000
 1135.10000    8.58655    7.16255    7.26064    7.30704    2.39738   70.76290    0.25147    2.59025   92.26156  -13.73328    8.50000 65030.00000
 1135.20000    8.58533    7.55422    7.61874    7.65314    2.39416   72.39261    0.24956    2.57708   92.28877  -13.33294    8.50000 65030.00000
 1135.30000    8.58490    7.34450    7.34275    7.39305    2.39094   72.21861    0.24823    2.57531   92.92861  -12.70888    8.50000 65030.00000
 1135.40000    8.58055    7.40174    7.38163    7.43411    2.39044   72.21028    0.24929    2.55832   93.13840  -12.38600    8.50000 65030.00000
 1135.50000    8.57632    7.18689    7.21127    7.22576    2.38964   73.79246    0.25289    2.56514   93.39396  -12.79768    8.50000 65030.00000
 1135.60000    8.57520    7.01135    6.93235    6.92863    2.38163   73.11613    0.25303    2.56121   93.81931  -12.77811    8.50000 65030.00000
 1135.70000    8.57478    6.86865    6.80562    6.82717    2.37920   73.72067    0.25253    2.53571   93.68991  -12.59798    8.50000 65030.00000
 1135.80000    8.57715    6.60566    6.60524    6.62925    2.38285   74.94711    0.25208    2.54702   92.40214  -12.59144    8.50000 65030.00000
 1135.90000    8.58041    6.71696    6.74084    6.74304    2.38199   75.66012    0.25431    2.53834   92.60646  -12.69297    8.50000 65030.00000
 1136.00000    8.58039    6.78005    6.80978    6.78358    2.37693   76.02090    0.25186    2.54938   92.31128  -13.17514    8.50000 65030.00000
 1136.10000    8.58100    6.67934    6.68539    6.68216    2.37644   76.98083    0.25152    2.55422   92.19233  -13.04914    8.50000 65030.00000
 1136.20000    8.58230    6.43262    6.45714    6.44390    2.37887   78.20282    0.25077    2.54391   92.86930  -13.61314    8.50000 65030.00000
 1136.30000    8.58426    6.44700    6.47375    6.45942    2.38316   79.20411    0.25499    2.55549   93.29409  -13.71546    8.50000 65030.00000
 1136.40000    8.58151    6.21593    6.28633    6.26080    2.39198   79.00418    0.25436    2.54564   93.14260  -13.09897    8.50000 65030.00000
 1136.50000    8.58226    6.30747    6.38150    6.35450    2.39027   79.21846    0.25444    2.54952   92.92118  -13.15258    8.50000 65030.00000
 1136.60000    8.57961    6.47803    6.55953    6.51233    2.39632   77.86547    0.25606    2.54963   91.93639  -13.11512    8.50000 65030.00000
 1136.70000    8.57954    6.26230    6.33332    6.29801    2.40174   76.47143    0.25762    2.54847   92.11710  -13.13707    8.50000 65030.00000
 1136.80000    8.57927    6.06465    6.13889    6.11046    2.40792   78.12794    0.25709    2.56094   91.83410  -13.29295    8.50000 65030.00000
 1136.90000    8.57899    5.94606    5.96506    5.95393    2.39603   78.35803    0.25941    2.56541   92.16618  -13.51863    8.50000 65030.00000
 1137.00000    8.57919    6.08354    6.05108    6.09485    2.39912   79.38591    0.25907    2.57622   91.38709  -13.70769    8.50000 65030.00000
 1137.10000    8.57877    6.18877    6.19410    6.21405    2.39767   78.67755    0.25938    2.56583   90.99748  -13.48747    8.50000 65030.00000
 1137.20000    8.57983    5.80997    5.79611    5.85149    2.40137   77.39677    0.25955    2.56696   90.38637  -13.51382    8.50000 65030.00000
 1137.30000    8.58079    5.48171    5.44628    5.52482    2.39669   76.99875    0.26256    2.57861   89.32495  -14.16549    8.50000 65030.00000
 1137.40000    8.57974    5.57931    5.74405    5.77871    2.39524   77.10695    0.26769    2.57254   89.03729  -14.63259    8.50000 65030.00000
 1137.50000    8.58414    6.20932    6.15594    6.19748    2.39429   78.06796    0.26870    2.58466   88.97750  -14.77684    8.50000 65030.00000
 1137.60000    8.58622    6.23297    6.18757    6.19813    2.39685   76.68170    0.26146    2.58036   88.87858  -14.53570    8.50000 65030.00000
 1137.70000    8.58851    6.46661    6.40890    6.39547    2.40246   76.56854    0.26051    2.58702   88.60696  -14.27929    8.50000 65030.00000
 1137.80000    8.58968    6.48626    6.45708    6.42100    2.41220   75.84616    0.26206    2.61016   88.48273  -14.05182    8.50000 65030.00000
 1137.90000    8.59000    6.96877    6.96056    6.88448    2.40796   74.90874    0.26378    2.60802   89.21619  -14.25020    8.50000 65030.00000
 1138.00000    8.58713    6.99655    6.95589    6.88560    2.41277   75.12608    0.26275    2.62689   89.32536  -14.13896    8.50000 65030.00000
 1138.10000    8.58638    6.78804    6.76182    6.69699    2.41525   75.12686    0.26335    2.63139   89.16346  -14.32868    8.50000 65030.00000
 1138.20000    8.58620    7.11340    7.12100    7.06036    2.41737   74.87324    0.26586    2.63931   89.41421  -14.17701    8.50000 65030.00000
 1138.30000    8.58328    7.32598    7.38385    7.31813    2.41829   73.85238    0.26475    2.64561   89.98207  -13.82066    8.50000 65030.00000
 1138.40000    8.58017    7.43629    7.48684    7.43297    2.41753   74.29276    0.26524    2.64732   90.09348  -13.96470    8.50000 65030.00000
 1138.50000    8.58270    7.67721    7.69626    7.63975    2.41030   74.50784    0.26839    2.64403   90.13783  -14.72457    8.50000 65030.00000
 1138.60000    8.57966    7.42718    7.47893    7.40735    2.41714   73.93976    0.26745    2.64382   90.35853  -15.09036    8.50000 65030.00000
 1138.70000    8.58232    7.38051    7.45518    7.36296    2.41462   75.53386    0.26939    2.64995   91.39536  -15.05420    8.50000 65030.00000
 1138.80000    8.58212    7.90793    7.95808    7.80739    2.40783   74.59793    0.26772    2.66885   91.22098  -14.38257    8.50000 65030.00000
 1138.90000    8.57927    8.31851    8.33309    8.17820    2.40419   74.71044    0.26578    2.66012   90.27377  -14.49313    8.50000 65030.00000
 1139.00000    8.58039    8.20353    8.25613    8.09182    2.41103   73.12106    0.26429    2.65293   90.36035  -14.43248    8.50000 65030.00000
 1139.10000    8.57903    7.89016    7.90052    7.73180    2.41303   72.57028    0.26538    2.65312   90.75801  -14.22043    8.50000 65030.00000
 1139.20000    8.58002    8.57624    8.55597    8.39129    2.41953   73.30368    0.26592    2.67278   91.23945  -13.95030    8.50000 65030.00000
 1139.30000    8.57840    8.59958    8.55247    8.37767    2.41696   74.21952    0.27036    2.66317   92.30768  -13.60737    8.50000 65030.00000
 1139.40000    8.58056    9.32509    9.36835    9.13248    2.42062   73.50454    0.27180    2.65976   93.15110  -13.12818    8.50000 65030.00000
 1139.50000    8.58254    8.97473    8.85040    8.64996    2.42333   73.22035    0.26908    2.64138   93.29120  -13.28714    8.50000 65030.00000
 1139.60000    8.58244    8.25088    8.36458    8.13699    2.42239   73.39122    0.26886    2.65279   93.44440  -13.41476    8.50000 65030.00000
 1139.70000    8.58175    8.23542    8.32044    8.12015    2.41649   74.96285    0.27586    2.64895   93.46204  -12.90565    8.50000 65030.00000
 1139.80000    8.57882    7.91371    8.12593    7.92296    2.41322   75.65262    0.27543    2.65251   93.18980  -13.12203    8.50000 65030.00000
 1139.90000    8.57919    8.04470    8.24257    8.05305    2.40954   77.01811    0.27122    2.64069   94.19660  -13.05738    8.50000 65030.00000
