~Version ---------------------------------------------------
VERS.   2.0 : CWLS log ASCII Standard -VERSION 2.0
WRAP.    NO : One line per depth step
DLM . SPACE : Column Data Section Delimiter
~Well ------------------------------------------------------
STRT.m          1000.00000 : START DEPTH
STOP.m          2000.00000 : STOP DEPTH
STEP.m             0.10000 : STEP
NULL.             -9999.25 : NULL VALUE
COMP. FORCE 2020 Recreator : 
WELL.   WELL_FORCE_2020_01 : 
FLD .                      : FIELD
LOC .                      : LOCATION
PROV.                      : PROVINCE
CNTY.                      : COUNTY
STAT.                      : STATE
CTRY.                      : COUNTRY
SRVC.                      : SERVICE COMPANY
DATE.                      : DATE
UWI .                      : UNIQUE WELL ID
API .                      : API NUMBER
~Curve Information -----------------------------------------
DEPT                            .m      : 
CALI                            .in     : 
RSHA                            .ohm.m  : 
RMED                            .ohm.m  : 
RDEP                            .ohm.m  : 
RHOB                            .g/cm3  : 
GR                              .gAPI   : 
NPHI                            .v/v    : 
PEF                             .b/e    : 
DTC                             .us/ft  : 
SP                              .mV     : 
BS                              .in     : 
FORCE_2020_LITHOFACIES_LITHOLOGY.code   : 
~Params ----------------------------------------------------
~Other -----------------------------------------------------
~ASCII -----------------------------------------------------
# ...
 1862.40000    8.57424    4.96345    5.09859    5.08718    2.54047   78.58094    0.31731    3.15990   96.72614    0.48129    8.50000 80000.00000
 1862.50000    8.57406    4.91492    4.98583    4.99733    2.53466   78.82420    0.31672    3.16529   97.15029    0.48004    8.50000 80000.00000
 1862.60000    8.56893    4.84579    4.93060    4.93334    2.53135   79.26801    0.31606    3.15106   97.24389    0.24017    8.50000 80000.00000
 1862.70000    8.56923    4.71447    4.79288    4.81119    2.52838   78.75717    0.31993    3.13826   96.73072    0.23626    8.50000 80000.00000
 1862.80000    8.57020    4.52207    4.58190    4.61348    2.51936   79.82411    0.32337    3.13271   97.47970    0.09669    8.50000 80000.00000
 1862.90000    8.57076    4.43132    4.50261    4.52640    2.52422   79.44628    0.32443    3.12367   97.58327    0.05230    8.50000 80000.00000
 1863.00000    8.57179    4.52932    4.56443    4.60371    2.51816   79.18211    0.32365    3.13855   98.09260   -0.39960    8.50000 80000.00000
 1863.10000    8.57310    4.44586    4.40889    4.45520    2.51739   79.78830    0.32249    3.14147   97.87806   -0.20053    8.50000 80000.00000
 1863.20000    8.57071    4.35589    4.37497    4.40528    2.51524   79.80497    0.32235    3.13760   98.14249   -0.77442    8.50000 80000.00000
 1863.30000    8.57166    4.47293    4.48413    4.55594    2.51811   80.83280    0.32282    3.15059   98.49089   -0.79134    8.50000 80000.00000
 1863.40000    8.56726    4.47532    4.49376    4.57343    2.51944   80.94267    0.32349    3.15452   98.73309   -0.82048    8.50000 80000.00000
 1863.50000    8.56804    4.66183    4.73146    4.80847    2.51875   79.97800    0.32432    3.15399   98.96560   -1.07537    8.50000 80000.00000
 1863.60000    8.56873    4.74045    4.77794    4.84893    2.51753   79.26873    0.32193    3.15235   98.99060   -0.87441    8.50000 80000.00000
 1863.70000    8.57072    4.80621    4.88178    4.94758    2.51978   78.99600    0.32308    3.13574   99.50941   -0.65598    8.50000 80000.00000
 1863.80000    8.57071    4.98155    5.02335    5.10223    2.51736   79.64179    0.32291    3.15351   98.87711   -1.04230    8.50000 80000.00000
 1863.90000    8.57256    4.93090    4.97256    5.04958    2.51474   79.83410    0.32244    3.15863   98.14888   -1.13383    8.50000 80000.00000
 1864.00000    8.57256    4.50621    4.56636    4.63613    2.51265   79.57523    0.32677    3.15300   98.39239   -0.68185    8.50000 80000.00000
 1864.10000    8.57173    4.42885    4.54556    4.58222    2.51996   80.43552    0.32332    3.15473   98.08330   -0.65384    8.50000 80000.00000
 1864.20000    8.57208    4.37613    4.47884    4.52736    2.51293   80.27504    0.32349    3.16495   98.31857   -0.68753    8.50000 80000.00000
 1864.30000    8.57030    4.40851    4.47719    4.51486    2.51553   79.74094    0.32139    3.16502   98.85513   -0.52699    8.50000 80000.00000
 1864.40000    8.57340    4.51698    4.59650    4.62080    2.51217   79.60709    0.32016    3.15946   98.53350    0.11832    8.50000 80000.00000
 1864.50000    8.57389    4.37502    4.46666    4.47433    2.51063   79.53679    0.32011    3.16046   99.08847    0.11112    8.50000 80000.00000
 1864.60000    8.57232    4.42440    4.50871    4.50647    2.50792   80.27194    0.32143    3.15663   98.34072   -0.27554    8.50000 80000.00000
 1864.70000    8.57727    4.43878    4.51039    4.51769    2.51016   79.56565    0.32428    3.14189   98.01963    0.28885    8.50000 80000.00000
 1864.80000    8.57439    4.61951    4.67480    4.67441    2.51414   79.97994    0.32260    3.17553   97.99544    0.10729    8.50000 80000.00000
 1864.90000    8.57712    4.69115    4.71077    4.73528    2.52009   79.69789    0.32074    3.17760   97.80815   -0.12510    8.50000 80000.00000
 1865.00000    8.57715    4.97836    5.05728    5.10544    2.51939   80.61508    0.32174    3.18474   97.56047   -0.31303    8.50000 80000.00000
 1865.10000    8.57681    4.86490    4.94477    4.98317    2.53060   80.83726    0.31996    3.17301   97.31349   -0.06129    8.50000 80000.00000
 1865.20000    8.57734    4.97195    4.98811    5.07507    2.52827   79.60570    0.32158    3.17550   97.59121    0.06828    8.50000 80000.00000
 1865.30000    8.57892    4.98994    5.04452    5.13775    2.52763   79.92643    0.32466    3.15834   97.46091   -0.36844    8.50000 80000.00000
 1865.40000    8.57740    4.89522    4.92742    4.98489    2.52361   78.99071    0.32180    3.15917   97.48207   -0.21234    8.50000 80000.00000
 1865.50000    8.57866    5.22455    5.31899    5.37698    2.52384   78.43181    0.32064    3.15181   97.75496    0.47793    8.50000 80000.00000
 1865.60000    8.58075    4.99360    5.05360    5.08825    2.52365   79.69359    0.31970    3.16251   97.64382    0.70475    8.50000 80000.00000
 1865.70000    8.57902    4.92180    4.96704    5.01297    2.52562   79.84812    0.32348    3.18089   97.27128    0.35347    8.50000 80000.00000
 1865.80000    8.57610    4.85584    4.87670    4.91258    2.52215   79.97604    0.32123    3.18989   96.65496   -0.07509    8.50000 80000.00000
 1865.90000    8.57709    4.73631    4.82259    4.82223    2.52592   78.96788    0.31942    3.18178   97.24515    0.11403    8.50000 80000.00000
 1866.00000    8.57598    4.94471    5.02262    5.01389    2.53119   78.62011    0.31732    3.17776   97.50138    0.35733    8.50000 80000.00000
 1866.10000    8.57561    4.97230    5.02905    5.02934    2.52812   78.98226    0.31792    3.18107   97.77476    0.08949    8.50000 80000.00000
 1866.20000    8.57560    5.08809    5.16170    5.12651    2.52462   78.22926    0.31988    3.19389   97.69818   -0.00226    8.50000 80000.00000
 1866.30000    8.57704    5.12296    5.18652    5.15870    2.52798   77.76657    0.32029    3.19970   97.19494   -0.20094    8.50000 80000.00000
 1866.40000    8.57941    5.19144    5.22362    5.19834    2.52753   76.33762    0.32292    3.20174   97.02843   -0.10931    8.50000 80000.00000
 1866.50000    8.57800    5.04942    5.05752    5.05372    2.53094   76.91746    0.32196    3.21163   97.39374   -0.42160    8.50000 80000.00000
 1866.60000    8.57724    5.12434    5.14191    5.13474    2.52882   76.72893    0.32344    3.21290   97.18925   -0.36918    8.50000 80000.00000
 1866.70000    8.57800    5.14369    5.19235    5.19396    2.53440   76.13357    0.32188    3.20960   97.41353    0.10358    8.50000 80000.00000
 1866.80000    8.57591    5.13952    5.17098    5.16737    2.53459   75.60074    0.31930    3.23784   98.17922   -0.08118    8.50000 80000.00000
 1866.90000    8.57683    4.97799    5.00621    5.00530    2.53141   74.66208    0.32109    3.22863   98.35789    0.35053    8.50000 80000.00000
 1867.00000    8.57651    4.78303    4.86177    4.85214    2.53203   74.81869    0.32208    3.24067   97.65297    0.81956    8.50000 80000.00000
 1867.10000    8.57750    4.56994    4.60746    4.57040    2.52901   73.92336    0.32279    3.23230   98.12235    1.06778    8.50000 80000.00000
 1867.20000    8.57931    4.62297    4.69620    4.63690    2.52070   73.65244    0.32515    3.23933   98.12456    1.36583    8.50000 80000.00000
 1867.30000    8.58064    4.46664    4.55574    4.44875    2.52049   74.50553    0.32368    3.23678   97.72205    1.09677    8.50000 80000.00000
 1867.40000    8.58229    4.44422    4.48092    4.38385    2.51942   74.33461    0.31936    3.25165   98.21152    1.60235    8.50000 80000.00000
 1867.50000    8.58400    4.45873    4.48137    4.38745    2.51539   76.38696    0.32119    3.23767   97.87202    1.95171    8.50000 80000.00000
 1867.60000    8.58432    4.11526    4.05653    3.95956    2.51314   77.13774    0.32423    3.25726   97.65968    1.62237    8.50000 80000.00000
 1867.70000    8.58318    4.23077    4.18763    4.10991    2.51271   75.71892    0.32317    3.24730   98.01048    1.50713    8.50000 80000.00000
 1867.80000    8.58554    4.09521    4.08463    4.00593    2.51302   76.21398    0.32024    3.22432   97.87100    1.95231    8.50000 80000.00000
 1867.90000    8.58639    4.07600    4.10071    4.02421    2.50993   76.38107    0.32387    3.22680   97.74776    1.62592    8.50000 80000.00000
