~Version ---------------------------------------------------
VERS.   2.0 : CWLS log ASCII Standard -VERSION 2.0
WRAP.    NO : One line per depth step
DLM . SPACE : Column Data Section Delimiter
~Well ------------------------------------------------------
STRT.m          1000.00000 : START DEPTH
STOP.m          2000.00000 : STOP DEPTH
STEP.m             0.10000 : STEP
NULL.             -9999.25 : NULL VALUE
COMP. FORCE 2020 Recreator : 
WELL.   WELL_FORCE_2020_04 : 
FLD .                      : FIELD
LOC .                      : LOCATION
PROV.                      : PROVINCE
CNTY.                      : COUNTY
STAT.                      : STATE
CTRY.                      : COUNTRY
SRVC.                      : SERVICE COMPANY
DATE.                      : DATE
UWI .                      : UNIQUE WELL ID
API .                      : API NUMBER
~Curve Information -----------------------------------------
DEPT                            .m      : 
CALI                            .in     : 
RSHA                            .ohm.m  : 
RMED                            .ohm.m  : 
RDEP                            .ohm.m  : 
RHOB                            .g/cm3  : 
GR                              .gAPI   : 
NPHI                            .v/v    : 
PEF                             .b/e    : 
DTC                             .us/ft  : 
SP                              .mV     : 
BS                              .in     : 
FORCE_2020_LITHOFACIES_LITHOLOGY.code   : 
~Params ----------------------------------------------------
~Other -----------------------------------------------------
~ASCII -----------------------------------------------------
# ...
 1733.50000    8.58047    4.08651    3.81424    3.85454    2.51143   80.25552    0.30437    3.19556   97.32897    0.84717    8.50000 80000.00000
 1733.60000    8.58235    4.14410    3.87408    3.89663    2.50854   78.43590    0.30226    3.19921   96.83892    0.80932    8.50000 80000.00000
 1733.70000    8.58205    4.20314    3.95179    3.98049    2.50661   78.32658    0.29965    3.20474   96.71286    0.49131    8.50000 80000.00000
 1733.80000    8.58357    4.23045    4.04145    4.09902    2.51142   78.63831    0.29881    3.20058   96.51914    0.38823    8.50000 80000.00000
 1733.90000    8.58370    4.12427    3.92841    4.00123    2.51918   79.09067    0.29812    3.19568   97.34789    0.40236    8.50000 80000.00000
 1734.00000    8.58619    4.14472    3.96166    4.03331    2.51878   78.70014    0.29664    3.20132   96.59071    0.34310    8.50000 80000.00000
 1734.10000    8.58600    4.16285    3.94979    4.05180    2.51965   78.62180    0.29803    3.19985   96.66928    0.28172    8.50000 80000.00000
 1734.20000    8.58620    4.38069    4.17035    4.26750    2.52278   78.31036    0.29652    3.21341   96.26594    0.20014    8.50000 80000.00000
 1734.30000    8.58654    4.32962    4.12235    4.21248    2.51852   78.72041    0.29937    3.20355   95.80943   -0.02287    8.50000 80000.00000
 1734.40000    8.58445    4.49543    4.33399    4.39714    2.51481   77.97027    0.30045    3.20331   95.50613   -0.52264    8.50000 80000.00000
 1734.50000    8.58578    4.57217    4.40673    4.49199    2.51868   78.20796    0.30359    3.22379   95.10453   -0.53887    8.50000 80000.00000
 1734.60000    8.58324    4.68853    4.63775    4.67223    2.52225   77.60100    0.30237    3.21204   95.69577   -0.38544    8.50000 80000.00000
 1734.70000    8.58407    4.69754    4.64704    4.69158    2.51787   77.03784    0.30145    3.19780   95.13420   -0.59600    8.50000 80000.00000
 1734.80000    8.58470    4.65711    4.58970    4.63966    2.51880   76.53123    0.30317    3.21132   95.83324   -0.73716    8.50000 80000.00000
 1734.90000    8.58357    4.77334    4.69267    4.72649    2.52240   75.98320    0.30519    3.21677   95.32588   -0.60832    8.50000 80000.00000
 1735.00000    8.58284    4.94426    4.87734    4.92145    2.52301   76.84236    0.30277    3.22950   95.59884   -0.34133    8.50000 80000.00000
 1735.10000    8.57857    4.97164    4.88884    4.94426    2.52548   76.64744    0.30236    3.21966   95.72340   -0.24890    8.50000 80000.00000
 1735.20000    8.58137    4.97379    4.92568    4.98445    2.51496   76.79703    0.30560    3.21980   95.43637   -0.46625    8.50000 80000.00000
 1735.30000    8.58114    5.02998    4.96653    5.01488    2.51296   77.42682    0.30744    3.21187   95.22415   -0.14651    8.50000 80000.00000
 1735.40000    8.57872    4.98046    4.93518    4.96751    2.51980   77.44724    0.30681    3.19423   95.12672    0.18765    8.50000 80000.00000
 1735.50000    8.58008    4.89730    4.92784    4.96039    2.52417   78.01971    0.30722    3.20676   95.30113    0.31237    8.50000 80000.00000
 1735.60000    8.58000    4.89744    4.95593    4.97338    2.51778   77.75348    0.30596    3.21086   94.67422    0.51870    8.50000 80000.00000
 1735.70000    8.57838    5.05905    5.08865    5.13431    2.51880   78.31530    0.30727    3.20664   94.69881    0.29581    8.50000 80000.00000
 1735.80000    8.57722    4.87923    4.90548    4.93561    2.52161   78.24590    0.31112    3.21821   95.17908    0.22800    8.50000 80000.00000
 1735.90000    8.57605    4.79228    4.77864    4.77238    2.51728   77.16830    0.31344    3.22986   95.25897    0.28214    8.50000 80000.00000
 1736.00000    8.57702    4.73214    4.71839    4.70720    2.51328   77.08133    0.31569    3.23289   95.24941    0.50463    8.50000 80000.00000
 1736.10000    8.57510    4.75160    4.74639    4.72932    2.51083   77.78900    0.31891    3.23067   95.36422    0.30238    8.50000 80000.00000
 1736.20000    8.57489    4.69133    4.68014    4.66224    2.51054   78.49122    0.31907    3.23171   95.34517    0.62993    8.50000 80000.00000
 1736.30000    8.57621    4.48856    4.51346    4.48440    2.51324   78.77532    0.31944    3.22565   96.10845    0.71171    8.50000 80000.00000
 1736.40000    8.57630    4.52739    4.59638    4.55761    2.51874   78.32197    0.31697    3.23880   96.43416    0.81528    8.50000 80000.00000
 1736.50000    8.57638    4.42584    4.47322    4.46418    2.52581   79.59134    0.31829    3.23773   96.36572    0.90144    8.50000 80000.00000
 1736.60000    8.57552    4.33115    4.37153    4.35169    2.52156   80.22398    0.31611    3.21737   96.72401    0.65210    8.50000 80000.00000
 1736.70000    8.57722    3.99131    4.03152    4.04051    2.52375   80.24031    0.31700    3.22998   95.66351    0.58040    8.50000 80000.00000
 1736.80000    8.57413    4.07907    4.14642    4.13592    2.52602   80.24342    0.31843    3.24324   96.55121    0.62345    8.50000 80000.00000
 1736.90000    8.57414    4.17462    4.24803    4.22542    2.52492   79.58560    0.31816    3.23506   95.86419    0.74867    8.50000 80000.00000
 1737.00000    8.57468    3.89284    3.96117    3.96039    2.52470   80.59398    0.31572    3.22565   96.24382    0.79768    8.50000 80000.00000
 1737.10000    8.57290    3.68022    3.74807    3.73308    2.52555   79.70108    0.31935    3.21612   96.10287    0.67292    8.50000 80000.00000
 1737.20000    8.57682    3.69324    3.79948    3.78658    2.52745   79.42627    0.31890    3.22871   96.01845    0.57045    8.50000 80000.00000
 1737.30000    8.57688    3.66398    3.73970    3.72533    2.53176   80.07570    0.31830    3.21219   95.98159    0.65802    8.50000 80000.00000
 1737.40000    8.57589    3.42339    3.55220    3.53435    2.53287   79.61037    0.31770    3.22385   96.13721    0.62647    8.50000 80000.00000
 1737.50000    8.57514    3.33916    3.46046    3.44726    2.52975   79.89183    0.31672    3.23089   95.72650    0.42867    8.50000 80000.00000
 1737.60000    8.57745    3.31913    3.35186    3.33782    2.53119   79.98792    0.31642    3.22289   95.12474   -0.00567    8.50000 80000.00000
 1737.70000    8.57914    3.33491    3.35320    3.33844    2.52999   81.36815    0.31699    3.22117   94.98730   -0.22737    8.50000 80000.00000
 1737.80000    8.57777    3.15968    3.17750    3.12868    2.52998   81.29221    0.31635    3.21841   94.55684    0.00635    8.50000 80000.00000
 1737.90000    8.57853    3.23215    3.27080    3.23306    2.52321   81.54482    0.31386    3.20573   94.48909    0.20456    8.50000 80000.00000
 1738.00000    8.57886    3.57180    3.52357    3.53670    2.52236   82.15117    0.31148    3.19663   94.46359    0.11245    8.50000 80000.00000
 1738.10000    8.57845    3.84430    3.77762    3.79951    2.52160   81.48636    0.31030    3.18670   94.27142   -0.03531    8.50000 80000.00000
 1738.20000    8.57803    3.87167    3.80452    3.83592    2.52685   81.90433    0.30782    3.17978   94.20275   -0.05234    8.50000 80000.00000
 1738.30000    8.58142    3.92847    3.91232    3.91787    2.52347   80.38627    0.30895    3.18029   94.40762   -0.35088    8.50000 80000.00000
 1738.40000    8.58064    3.99276    3.93106    3.96002    2.51975   80.30079    0.31058    3.17890   94.38943   -0.15872    8.50000 80000.00000
 1738.50000    8.58308    4.12335    4.07760    4.11433    2.51856   80.13269    0.31035    3.17487   94.27268    0.00333    8.50000 80000.00000
 1738.60000    8.58337    4.36103    4.31593    4.28895    2.52271   79.22109    0.30952    3.17506   94.34656   -0.36397    8.50000 80000.00000
 1738.70000    8.58392    4.48908    4.48419    4.45006    2.52958   78.66095    0.30675    3.19387   94.01562   -0.01260    8.50000 80000.00000
 1738.80000    8.58217    4.66603    4.64501    4.62168    2.52469   79.40766    0.30801    3.19309   94.44948    0.04661    8.50000 80000.00000
 1738.90000    8.58250    4.60350    4.56184    4.54248    2.52263   79.84433    0.30579    3.19943   93.97456    0.01306    8.50000 80000.00000
 1739.00000    8.58381    4.61261    4.60406    4.60173    2.52664   79.70420    0.30609    3.19423   94.20397    0.02753    8.50000 80000.00000
