~Version ---------------------------------------------------
VERS.   2.0 : CWLS log ASCII Standard -VERSION 2.0
WRAP.    NO : One line per depth step
DLM . SPACE : Column Data Section Delimiter
~Well ------------------------------------------------------
STRT.m          1000.00000 : START DEPTH
STOP.m          2000.00000 : STOP DEPTH
STEP.m             0.10000 : STEP
NULL.             -9999.25 : NULL VALUE
COMP. FORCE 2020 Recreator : 
WELL.   WELL_FORCE_2020_04 : 
FLD .                      : FIELD
LOC .                      : LOCATION
PROV.                      : PROVINCE
CNTY.                      : COUNTY
STAT.                      : STATE
CTRY.                      : COUNTRY
SRVC.                      : SERVICE COMPANY
DATE.                      : DATE
UWI .                      : UNIQUE WELL ID
API .                      : API NUMBER
~Curve Information -----------------------------------------
DEPT                            .m      : 
CALI                            .in     : 
RSHA                            .ohm.m  : 
RMED                            .ohm.m  : 
RDEP                            .ohm.m  : 
RHOB                            .g/cm3  : 
GR                              .gAPI   : 
NPHI                            .v/v    : 
PEF                             .b/e    : 
DTC                             .us/ft  : 
SP                              .mV     : 
BS                              .in     : 
FORCE_2020_LITHOFACIES_LITHOLOGY.code   : 
~Params ----------------------------------------------------
~Other -----------------------------------------------------
~ASCII -----------------------------------------------------
# ...
 1929.20000    8.58500 16808.10285 16917.24800 17571.42983    2.72952  122.28885    0.01588    3.75527   41.70280   12.06614    8.50000 93000.00000
 1929.30000    8.58232 17195.16828 17236.27821 17888.85773    2.71879  124.28136    0.01441    3.73480   41.52760   11.88473    8.50000 93000.00000
 1929.40000    8.58019 17301.34537 17337.22442 17996.46504    2.72323  126.94070    0.01453    3.73579   41.81461   11.20510    8.50000 93000.00000
 1929.50000    8.57718 14084.27693 13930.53927 14599.79695    2.73349  129.59385    0.01434    3.73824   42.48264   11.49873    8.50000 93000.00000
 1929.60000    8.57636 13792.45324 13667.78197 14344.81823    2.75589  131.93594    0.01470    3.74971   43.08264   11.64149    8.50000 93000.00000
 1929.70000    8.57669 13821.68376 13708.76578 14393.34988    2.73783  130.63817    0.01475    3.72081   43.38942   11.13902    8.50000 93000.00000
 1929.80000    8.57824 13785.67182 13640.08255 14330.57438    2.72705  131.74544    0.01499    3.76910   43.40768   10.44754    8.50000 93000.00000
 1929.90000    8.57799 13660.90383 13526.54521 14207.61524    2.72072  129.71419    0.01463    3.74100   42.91393   10.32779    8.50000 93000.00000
 1930.00000    8.57640 12547.81891 12300.43770 13012.73804    2.73732  131.23423    0.01421    3.72207   42.90216   10.76609    8.50000 93000.00000
 1930.10000    8.57678 12394.34723 12108.69577 12820.62021    2.72085  132.55408    0.01385    3.75137   43.14335   10.94457    8.50000 93000.00000
 1930.20000    8.57669 9370.37320 9741.53179 10093.21367    2.74101  131.05342    0.01298    3.75732   43.99133   11.32795    8.50000 93000.00000
 1930.30000    8.57719 9363.97409 9734.99400 10086.93701    2.74531  133.97933    0.01300    3.72091   44.57159   12.25674    8.50000 93000.00000
 1930.40000    8.57401 12444.21174 12713.85339 12967.06206    2.74538  139.07580    0.01279    3.75932   44.35013   12.27881    8.50000 93000.00000
 1930.50000    8.57505 12458.32190 12734.96755 12999.17996    2.74847  138.12827    0.01212    3.71955   43.68512   13.05368    8.50000 93000.00000
 1930.60000    8.57496 12437.39127 12724.69709 12987.76397    2.74944  138.82518    0.01234    3.70248   43.42202   13.09757    8.50000 93000.00000
 1930.70000    8.57456 12554.06025 12820.96344 13081.79047    2.74348  143.06958    0.01238    3.72077   43.55807   13.06924    8.50000 93000.00000
 1930.80000    8.57203 12560.82296 12831.39675 13090.24356    2.74257  144.61750    0.01238    3.64268   43.96613   13.33029    8.50000 93000.00000
 1930.90000    8.57531 12355.61153 12622.74678 12877.26836    2.73318  145.98798    0.01182    3.62299   43.43497   13.87161    8.50000 93000.00000
 1931.00000    8.57646 17525.52821 18242.11136 18406.39352    2.72720  146.69150    0.01269    3.62343   43.41972   14.63630    8.50000 93000.00000
 1931.10000    8.57658 11220.87670 11550.11155 11326.60036    2.75306  147.28922    0.01274    3.59888   42.72626   14.40228    8.50000 93000.00000
 1931.20000    8.57168 11005.45472 11314.25286 11103.27355    2.76393  150.97744    0.01284    3.62591   42.66107   14.50031    8.50000 93000.00000
 1931.30000    8.56867 11131.79880 11442.95983 11227.72077    2.75707  147.54876    0.01239    3.68046   43.67302   13.63988    8.50000 93000.00000
 1931.40000    8.56864 10677.06325 11056.23035 10857.99523    2.75624  148.98496    0.01333    3.65512   44.35530   13.55143    8.50000 93000.00000
 1931.50000    8.56999 10785.36403 11133.07394 10942.84099    2.74985  149.00688    0.01290    3.67017   44.42629   13.75755    8.50000 93000.00000
 1931.60000    8.57050 11087.18404 11400.09681 11194.82549    2.73598  148.22631    0.01287    3.61510   43.80796   13.56209    8.50000 93000.00000
 1931.70000    8.56791 10760.08908 11061.62800 10852.05893    2.72763  145.35220    0.01297    3.63635   43.58659   13.85765    8.50000 93000.00000
 1931.80000    8.57037 10781.90518 11069.26504 10858.16675    2.75102  147.83406    0.01268    3.61003   42.96266   14.50427    8.50000 93000.00000
 1931.90000    8.56611 10897.87754 11253.20641 11009.27127    2.73911  147.06910    0.01211    3.60154   43.21359   15.16018    8.50000 93000.00000
 1932.00000    8.56736 10997.23951 11338.49998 11099.18083    2.73697  147.99555    0.01295    3.60047   43.93565   15.13902    8.50000 93000.00000
 1932.10000    8.57043 11091.35060 11432.84564 11197.99236    2.74097  147.27737    0.01317    3.59611   44.23578   15.23703    8.50000 93000.00000
 1932.20000    8.57353 10761.23474 11084.25454 10874.03431    2.74185  148.35959    0.01309    3.62875   44.69789   15.43873    8.50000 93000.00000
 1932.30000    8.57319 10763.18631 11083.20868 10874.99810    2.73336  149.37938    0.01301    3.64376   43.65335   14.99095    8.50000 93000.00000
 1932.40000    8.57407 10828.64534 11158.59570 10948.68081    2.72103  147.20314    0.01231    3.71702   43.12689   14.40571    8.50000 93000.00000
 1932.50000    8.57685 7631.22482 8088.06037 7956.80556    2.73273  147.25912    0.01285    3.71107   43.69808   14.18752    8.50000 93000.00000
 1932.60000    8.57442 7674.09725 8118.46336 7981.23222    2.73690  149.71909    0.01287    3.76956   43.76127   13.27266    8.50000 93000.00000
 1932.70000    8.57596 7748.83220 8212.25070 8063.74202    2.74004  149.37598    0.01341    3.75016   44.31346   13.35573    8.50000 93000.00000
 1932.80000    8.57603 7683.26888 8156.55531 8010.47894    2.72959  149.10655    0.01352    3.72875   44.53804   13.29027    8.50000 93000.00000
 1932.90000    8.57815 8319.20125 8779.55480 8696.98695    2.74928  147.48486    0.01428    3.80150   43.87286   12.74613    8.50000 93000.00000
 1933.00000    8.57941 11254.31548 11602.14987 11592.75755    2.75903  146.66284    0.01415    3.84703   44.39830   12.20873    8.50000 93000.00000
 1933.10000    8.58045 6113.68557 6006.94724 6094.03950    2.75299  148.71468    0.01346    3.85783   44.33290   12.08083    8.50000 93000.00000
 1933.20000    8.58240 6531.50132 6471.35955 6519.18512    2.75178  149.92103    0.01377    3.86967   44.34682   11.95039    8.50000 93000.00000
 1933.30000    8.58662 7395.89294 7262.51938 7322.76719    2.73531  149.00347    0.01381    3.85968   44.20864   12.56510    8.50000 93000.00000
 1933.40000    8.58925 7611.04709 7471.53652 7523.28166    2.71348  151.27357    0.01405    3.90197   43.36166   13.06717    8.50000 93000.00000
 1933.50000    8.59097 7526.15105 7391.38634 7436.73279    2.69682  148.39757    0.01403    3.93083   43.13877   12.34563    8.50000 93000.00000
 1933.60000    8.59197 7321.67139 7222.53303 7250.82550    2.69899  147.20664    0.01410    3.94676   43.20023   12.92611    8.50000 93000.00000
 1933.70000    8.59211 6865.68165 6749.64015 6803.60062    2.71659  147.16929    0.01376    3.91845   43.00852   13.00731    8.50000 93000.00000
 1933.80000    8.59019 7621.92512 7590.50846 7585.72354    2.72932  149.60232    0.01324    3.94585   42.44617   12.93047    8.50000 93000.00000
 1933.90000    8.58765 7599.59342 7572.35197 7568.67055    2.71452  148.15890    0.01355    3.96560   43.29892   12.50765    8.50000 93000.00000
 1934.00000    8.58882 7486.69191 7377.85373 7409.99778    2.73538  150.10035    0.01372    3.90808   42.81374   12.56924    8.50000 93000.00000
 1934.10000    8.59021 7498.07728 7385.44380 7409.52670    2.73044  146.32852    0.01321    3.89866   42.21582   12.98376    8.50000 93000.00000
 1934.20000    8.58850 7498.82767 7399.56248 7415.89801    2.72227  144.87383    0.01325    3.86437   41.77174   13.29447    8.50000 93000.00000
 1934.30000    8.58698 7354.44821 7255.36895 7271.26646    2.73815  141.62689    0.01379    3.82875   41.20434   13.01809    8.50000 93000.00000
 1934.40000    8.58756 11725.09300 11401.72522 11820.07881    2.73140  140.13328    0.01355    3.84022   41.24443   13.21794    8.50000 93000.00000
 1934.50000    8.58720 19620.00174 18053.83255 18506.77170    2.72613  142.35777    0.01409    3.81936   41.40797   13.91990    8.50000 93000.00000
 1934.60000    8.58626 19563.44793 17996.06785 18453.71693    2.72636  143.59408    0.01366    3.82138   41.28805   13.62748    8.50000 93000.00000
