~Version ---------------------------------------------------
VERS.   2.0 : CWLS log ASCII Standard -VERSION 2.0
WRAP.    NO : One line per depth step
DLM . SPACE : Column Data Section Delimiter
~Well ------------------------------------------------------
STRT.m          1000.00000 : START DEPTH
STOP.m          2000.00000 : STOP DEPTH
STEP.m             0.10000 : STEP
NULL.             -9999.25 : NULL VALUE
COMP. FORCE 2020 Recreator : 
WELL.   WELL_FORCE_2020_08 : 
FLD .                      : FIELD
LOC .                      : LOCATION
PROV.                      : PROVINCE
CNTY.                      : COUNTY
STAT.                      : STATE
CTRY.                      : COUNTRY
SRVC.                      : SERVICE COMPANY
DATE.                      : DATE
UWI .                      : UNIQUE WELL ID
API .                      : API NUMBER
~Curve Information -----------------------------------------
DEPT                            .m      : 
CALI                            .in     : 
RSHA                            .ohm.m  : 
RMED                            .ohm.m  : 
RDEP                            .ohm.m  : 
RHOB                            .g/cm3  : 
GR                              .gAPI   : 
NPHI                            .v/v    : 
PEF                             .b/e    : 
DTC                             .us/ft  : 
SP                              .mV     : 
BS                              .in     : 
FORCE_2020_LITHOFACIES_LITHOLOGY.code   : 
~Params ----------------------------------------------------
~Other -----------------------------------------------------
~ASCII -----------------------------------------------------
# ...
 1067.20000    8.58336  219.38923  201.88684  202.19791    1.44829   29.97382    0.50092    1.57296  123.97688  -10.78626    8.50000 90000.00000
 1067.30000    8.58352  218.18173  200.36096  200.88998    1.43720   28.73316    0.50061    1.57345  123.58986  -10.26132    8.50000 90000.00000
 1067.40000    8.58188  219.55225  202.37327  202.77499    1.43744   28.78177    0.50394    1.57738  125.05993   -9.71169    8.50000 90000.00000
 1067.50000    8.58347  221.62625  204.54993  204.72691    1.43483   28.55374    0.50659    1.57475  124.54329   -9.83086    8.50000 90000.00000
 1067.60000    8.58523  213.70478  196.07742  195.82216    1.43379   28.46606    0.50770    1.58050  124.35299  -10.25195    8.50000 90000.00000
 1067.70000    8.58374  209.15137  192.41502  192.01932    1.42796   28.72432    0.51052    1.57752  125.13846  -10.83936    8.50000 90000.00000
 1067.80000    8.58456  196.34002  181.57466  180.71995    1.41586   27.81534    0.51089    1.58579  124.72985  -10.16264    8.50000 90000.00000
 1067.90000    8.58488  197.86512  182.09383  181.02168    1.42804   27.04670    0.50991    1.59785  123.54227   -9.49135    8.50000 90000.00000
 1068.00000    8.58301  196.58035  180.92597  179.70909    1.43154   27.36376    0.51266    1.60049  122.66847   -9.17932    8.50000 90000.00000
 1068.10000    8.57891  178.90675  168.31433  166.39851    1.43776   26.54449    0.51223    1.61064  123.28256   -9.09162    8.50000 90000.00000
 1068.20000    8.58323  164.81846  157.83721  155.55413    1.43568   27.05073    0.51197    1.61418  122.92595   -9.38767    8.50000 90000.00000
 1068.30000    8.58515  159.06170  153.29847  150.21888    1.44450   27.88225    0.50905    1.62160  122.06893   -8.86982    8.50000 90000.00000
 1068.40000    8.58362  163.48406  158.77492  154.59009    1.43433   28.26157    0.51213    1.62828  122.24929   -8.89471    8.50000 90000.00000
 1068.50000    8.58244  164.26674  159.69999  155.34923    1.43764   28.18224    0.51805    1.63327  123.60520   -9.20376    8.50000 90000.00000
 1068.60000    8.58107  166.25573  162.26900  157.55843    1.42457   29.46048    0.51276    1.63285  123.20380   -9.39143    8.50000 90000.00000
 1068.70000    8.57808  160.42084  156.00664  151.85085    1.41967   29.75650    0.51566    1.64022  123.21371   -9.08649    8.50000 90000.00000
 1068.80000    8.57640  172.55029  165.46057  161.40329    1.42189   28.72484    0.51787    1.64620  122.95099   -9.00703    8.50000 90000.00000
 1068.90000    8.57676  159.59300  154.21003  150.01469    1.42503   29.64533    0.52033    1.65483  124.02203   -9.29452    8.50000 90000.00000
 1069.00000    8.57627  164.93708  160.74378  156.40417    1.41705   29.51892    0.51981    1.64839  123.53297   -9.54822    8.50000 90000.00000
 1069.10000    8.57699  123.07834  126.55536  123.10517    1.40903   28.96664    0.52939    1.65752  124.30370   -9.14752    8.50000 90000.00000
 1069.20000    8.57673  123.63786  126.20955  122.73473    1.40979   29.31364    0.52953    1.67051  125.27945   -9.41488    8.50000 90000.00000
 1069.30000    8.57742  133.51558  135.44393  132.09437    1.40791   29.11961    0.52167    1.67069  125.96759   -8.87064    8.50000 90000.00000
 1069.40000    8.57712  141.31782  143.42547  140.51310    1.41138   29.59949    0.52204    1.68402  126.73929   -8.91753    8.50000 90000.00000
 1069.50000    8.58092  141.43454  143.25516  140.30040    1.41320   29.40973    0.52072    1.67062  125.59469   -8.46844    8.50000 90000.00000
 1069.60000    8.58183  196.87825  196.77216  192.04773    1.41073   28.97937    0.52058    1.65955  126.89481   -8.13053    8.50000 90000.00000
 1069.70000    8.58048  193.08688  193.25963  188.86595    1.41227   28.14253    0.51914    1.65653  126.51338   -7.33304    8.50000 90000.00000
 1069.80000    8.58175  195.62674  195.52657  191.12046    1.41058   28.62244    0.52019    1.65578  126.41774   -7.06535    8.50000 90000.00000
 1069.90000    8.58035  253.26682  256.71836  248.78903    1.41754   29.19015    0.52100    1.66568  126.24155   -7.16794    8.50000 90000.00000
 1070.00000    8.58096  267.69612  272.03013  263.86133    1.40713   30.04225    0.52373    1.66060  127.28396   -7.47033    8.50000 90000.00000
 1070.10000    8.58132  271.09311  274.80302  266.73875    1.39836   30.06857    0.52544    1.63689  127.95286   -7.51389    8.50000 90000.00000
 1070.20000    8.58297  269.49003  273.12477  264.51725    1.38992   30.68336    0.51673    1.64402  127.06945   -7.23994    8.50000 90000.00000
 1070.30000    8.58212  274.77518  278.49505  270.11000    1.38470   31.08461    0.51624    1.62155  126.42906   -6.78485    8.50000 90000.00000
 1070.40000    8.58107  276.60905  279.89819  271.74630    1.38022   30.67670    0.51962    1.60424  127.30371   -7.21341    8.50000 90000.00000
 1070.50000    8.58306  278.18908  279.59233  271.74042    1.38416   30.92833    0.52147    1.59918  127.51364   -6.52649    8.50000 90000.00000
 1070.60000    8.58492  328.49339  329.95532  318.99150    1.38520   31.48474    0.51971    1.59476  127.04471   -5.83369    8.50000 90000.00000
 1070.70000    8.58339  334.58828  334.04554  324.11292    1.38948   30.67100    0.52059    1.59852  127.55372   -5.93139    8.50000 90000.00000
 1070.80000    8.58544  340.65956  340.97427  330.98893    1.39185   31.32790    0.52733    1.58636  126.75992   -5.66858    8.50000 90000.00000
 1070.90000    8.59022  326.97860  329.87589  319.73505    1.39704   31.73133    0.52818    1.57334   -9999.25   -5.62305    8.50000 90000.00000
 1071.00000    8.59175  320.71378  324.23738  315.47253    1.38751   30.53699    0.53212    1.57906  126.70426   -5.42503    8.50000 90000.00000
 1071.10000    8.59037  320.46912  323.92273  315.50805    1.39648   30.47449    0.53286    1.58571  127.08851   -5.18477    8.50000 90000.00000
 1071.20000    8.58831  318.76440  321.82209  313.30513    1.40176   30.89648    0.53052    1.57933  127.44290   -5.53536    8.50000 90000.00000
 1071.30000    8.58759  343.05459  346.20982  338.27769    1.39858   31.34900    0.52819    1.55850  127.31871   -5.36359    8.50000 90000.00000
 1071.40000    8.58787  363.00175  361.57464  356.81643    1.40077   31.71503    0.53141    1.57129  127.04414   -5.56722    8.50000 90000.00000
 1071.50000    8.58986  363.45158  362.26764  357.59321    1.40346   31.40993    0.52999    1.56099  126.59061   -6.15465    8.50000 90000.00000
 1071.60000    8.59018  361.99642  360.91468  356.20404    1.40828   31.24503    0.53218    1.56880  125.61772   -6.86295    8.50000 90000.00000
 1071.70000    8.58929  307.57876  309.19735  306.68837    1.40937   31.72859    0.53040    1.58416  125.19736   -7.26271    8.50000 90000.00000
 1071.80000    8.59011  307.13405  308.72118  306.12166    1.40701   32.73547    0.53052    1.58607  125.64886   -7.84793    8.50000 90000.00000
 1071.90000    8.58987  309.08169  310.04126  307.60077    1.40649   31.76287    0.53140    1.59677  125.99108   -7.32488    8.50000 90000.00000
 1072.00000    8.59031  277.37885  272.70130  274.59395    1.40620   31.40398    0.53422    1.59015  125.38134   -7.27300    8.50000 90000.00000
 1072.10000    8.58760  260.06407  253.95654  256.45834    1.41377   31.42532    0.52857    1.58251  126.20966   -7.61025    8.50000 90000.00000
 1072.20000    8.58401  261.61363  256.24121  258.41750    1.41835   31.11589    0.52872    1.60674  125.66283   -8.00351    8.50000 90000.00000
 1072.30000    8.58195  260.70196  254.02164  256.29229    1.42367   30.67866    0.53775    1.60389  126.47398   -8.08752    8.50000 90000.00000
 1072.40000    8.58110  259.22290  252.26628  254.16498    1.42904   30.14465    0.53866    1.62879  127.14760   -8.50890    8.50000 90000.00000
 1072.50000    8.57754  253.06256  244.52250  247.27385    1.43249   30.56869    0.53478    1.62623  126.54830   -8.32489    8.50000 90000.00000
 1072.60000    8.57831  248.43875  240.52325  243.50615    1.43686   30.62978    0.53025    1.63553  126.07889   -8.67653    8.50000 90000.00000
 1072.70000    8.57879  195.29948  187.06964  193.25982    1.47877   29.39095    0.51635    1.79499  123.72537   -8.49841    8.50000 90000.00000
