~Version ---------------------------------------------------
VERS.   2.0 : CWLS log ASCII Standard -VERSION 2.0
WRAP.    NO : One line per depth step
DLM . SPACE : Column Data Section Delimiter
~Well ------------------------------------------------------
STRT.m          1000.00000 : START DEPTH
STOP.m          2000.00000 : STOP DEPTH
STEP.m             0.10000 : STEP
NULL.             -9999.25 : NULL VALUE
COMP. FORCE 2020 Recreator : 
WELL.   WELL_FORCE_2020_10 : 
FLD .                      : FIELD
LOC .                      : LOCATION
PROV.                      : PROVINCE
CNTY.                      : COUNTY
STAT.                      : STATE
CTRY.                      : COUNTRY
SRVC.                      : SERVICE COMPANY
DATE.                      : DATE
UWI .                      : UNIQUE WELL ID
API .                      : API NUMBER
~Curve Information -----------------------------------------
DEPT                            .m      : 
CALI                            .in     : 
RSHA                            .ohm.m  : 
RMED                            .ohm.m  : 
RDEP                            .ohm.m  : 
RHOB                            .g/cm3  : 
GR                              .gAPI   : 
NPHI                            .v/v    : 
PEF                             .b/e    : 
DTC                             .us/ft  : 
SP                              .mV     : 
BS                              .in     : 
FORCE_2020_LITHOFACIES_LITHOLOGY.code   : 
~Params ----------------------------------------------------
~Other -----------------------------------------------------
~ASCII -----------------------------------------------------
# ...
 1330.40000    8.57302    7.98685    8.11463    8.01066    2.38372   74.11215    0.25100    2.57105   89.79286  -15.44636    8.50000 65030.00000
 1330.50000    8.57129    7.96533    8.15669    8.05273    2.38214   74.94401    0.25470    2.56216   89.12412  -14.93295    8.50000 65030.00000
 1330.60000    8.56903    8.42189    8.76553    8.71349    2.38001   77.29576    0.25484    2.57053   88.58446  -15.09650    8.50000 65030.00000
 1330.70000    8.56685    7.93749    8.10503    8.10810    2.37543   76.79223    0.25504    2.54306   89.49067  -15.36411    8.50000 65030.00000
 1330.80000    8.56771    7.59888    7.71483    7.65876    2.37045   79.13399    0.25919    2.52986   89.27092  -15.69594    8.50000 65030.00000
 1330.90000    8.57195    7.53656    7.61072    7.57947    2.37312   80.29324    0.25733    2.52615   89.75689  -16.00161    8.50000 65030.00000
 1331.00000    8.57281    7.59048    7.58396    7.56078    2.37595   79.11211    0.25929    2.53571   89.76193  -15.45953    8.50000 65030.00000
 1331.10000    8.57240    7.38695    7.40170    7.37961    2.37678   80.46835    0.25939    2.54243   89.81551  -16.22266    8.50000 65030.00000
 1331.20000    8.56778    7.50167    7.57197    7.55988    2.37132   80.47305    0.26407    2.53214   90.21221  -16.81482    8.50000 65030.00000
 1331.30000    8.57026    7.39920    7.47759    7.43065    2.36962   80.20660    0.26370    2.53685   90.32665  -16.59532    8.50000 65030.00000
 1331.40000    8.57157    7.88397    8.07687    7.99482    2.37301   80.26162    0.26399    2.53890   91.00787  -16.31290    8.50000 65030.00000
 1331.50000    8.56883    8.08398    8.24760    8.17943    2.37991   80.36288    0.26684    2.52837   90.81767  -16.09209    8.50000 65030.00000
 1331.60000    8.56883    7.72923    7.89526    7.87332    2.37846   79.61649    0.26213    2.53558   90.57289  -15.94293    8.50000 65030.00000
 1331.70000    8.57330    7.47399    7.66082    7.64896    2.37948   78.38601    0.26335    2.54695   90.08442  -15.86627    8.50000 65030.00000
 1331.80000    8.57560    7.48420    7.67557    7.66053    2.38194   78.21140    0.25981    2.56457   90.72049  -15.67515    8.50000 65030.00000
 1331.90000    8.57886    7.47335    7.69704    7.67616    2.38643   79.49491    0.25974    2.57382   89.91393  -16.04809    8.50000 65030.00000
 1332.00000    8.57887    7.64844    7.83146    7.81945    2.38762   80.43672    0.26094    2.56817   90.72231  -16.81872    8.50000 65030.00000
 1332.10000    8.58086    7.78442    7.93987    7.94367    2.38570   80.70694    0.26880    2.55537   90.96013  -16.76914    8.50000 65030.00000
 1332.20000    8.58094    7.59148    7.80859    7.83582    2.38550   80.81709    0.27287    2.54442   90.35714  -17.08728    8.50000 65030.00000
 1332.30000    8.57943    7.56598    7.75281    7.80073    2.38794   81.60755    0.27223    2.54788   90.58594  -17.09751    8.50000 65030.00000
 1332.40000    8.58361    7.80100    7.94765    8.04134    2.38983   81.60416    0.27602    2.56182   90.31149  -16.81616    8.50000 65030.00000
 1332.50000    8.58547    7.17978    7.38867    7.47097    2.38667   81.42917    0.27530    2.55787   89.64554  -16.47419    8.50000 65030.00000
 1332.60000    8.58652    7.07719    7.29608    7.36407    2.38816   80.75087    0.27614    2.57102   90.12258  -17.31714    8.50000 65030.00000
 1332.70000    8.59245    6.53900    6.57096    6.64394    2.39125   80.12885    0.27840    2.56003   90.29508  -16.90580    8.50000 65030.00000
 1332.80000    8.59304    6.39906    6.47785    6.53318   -9999.25   79.68447    0.28195    2.58114   89.72346  -16.63610    8.50000 65030.00000
 1332.90000    8.59015    6.40055    6.52784    6.55013    2.40544   77.47192    0.27148    2.59339   90.14433  -15.94342    8.50000 65030.00000
 1333.00000    8.58709    6.41665    6.54476    6.56681    2.41094   76.26757    0.27417    2.60053   90.40231  -15.96208    8.50000 65030.00000
 1333.10000    8.58406    6.57623    6.71782    6.70750    2.41241   77.57685    0.26998    2.60755   90.63604  -16.28654    8.50000 65030.00000
 1333.20000    8.58100    6.73837    6.92904    6.90679    2.41245   76.75815    0.27270    2.61842   90.47282  -15.91067    8.50000 65030.00000
 1333.30000    8.58241    6.89433    7.02064    6.99293    2.41223   76.20859    0.26751    2.61627   90.62292  -15.55264    8.50000 65030.00000
 1333.40000    8.58436    6.94360    7.05872    7.02502    2.41336   75.99786    0.26865    2.60396   90.24451  -15.19091    8.50000 65030.00000
 1333.50000    8.58067    6.35421    6.41616    6.41060    2.40597   77.71885    0.26926    2.59961   89.92107  -15.12380    8.50000 65030.00000
 1333.60000    8.58127    6.32716    6.38388    6.36731    2.39622   76.98967    0.26583    2.61207   89.45811  -15.84002    8.50000 65030.00000
 1333.70000    8.58205    6.33741    6.35133    6.35874    2.39836   77.90400    0.26608    2.60331   89.35207  -15.61403    8.50000 65030.00000
 1333.80000    8.57789    6.84442    6.97555    6.93390    2.39726   79.29857    0.26504    2.60148   89.35434  -15.75943    8.50000 65030.00000
 1333.90000    8.58162    6.90502    7.05381    6.98542    2.39858   78.93900    0.26815    2.59943   89.65005  -16.17558    8.50000 65030.00000
 1334.00000    8.58088    6.90997    7.02637    6.96545    2.39668   79.09052    0.27105    2.59572   90.10939  -15.68188    8.50000 65030.00000
 1334.10000    8.58050    6.86482    7.04370    6.98294    2.39115   78.03147    0.26902    2.60185   89.97682  -15.07168    8.50000 65030.00000
 1334.20000    8.58131    7.17504    7.27832    7.22096    2.39163   77.56072    0.26704    2.61310   89.46410  -14.38994    8.50000 65030.00000
 1334.30000    8.58088    7.48045    7.53014    7.48107    2.39174   76.54199    0.26922    2.61812   90.00849  -14.37337    8.50000 65030.00000
 1334.40000    8.58091    7.45990    7.44869    7.38379    2.38793   75.79721    0.26791    2.63568   89.37390  -13.76477    8.50000 65030.00000
 1334.50000    8.58027    7.33729    7.39556    7.29392    2.38408   75.10593    0.26882    2.62479   89.73005  -13.44614    8.50000 65030.00000
 1334.60000    8.57865    7.53953    7.54683    7.48652    2.38777   75.88675    0.27005    2.62858   90.59088  -14.03538    8.50000 65030.00000
 1334.70000    8.57572    7.53422    7.54015    7.48850    2.38284   75.50329    0.26744    2.61146   90.39396  -13.81261    8.50000 65030.00000
 1334.80000    8.56987    7.54495    7.65242    7.58273    2.37587   75.04434    0.26684    2.61751   90.87357  -13.78657    8.50000 65030.00000
 1334.90000    8.57132    7.58783    7.65824    7.60043    2.37548   75.82308    0.26334    2.61953   91.36054  -13.81416    8.50000 65030.00000
 1335.00000    8.57278    7.81732    7.96535    7.88601    2.37169   76.14296    0.26680    2.62302   91.95651  -14.14320    8.50000 65030.00000
 1335.10000    8.57098    8.06190    8.14592    8.05295    2.36627   75.78677    0.26487    2.61702   91.78215  -13.87015    8.50000 65030.00000
 1335.20000    8.57260    8.28775    8.38383    8.32487    2.36702   74.34231    0.26526    2.63244   92.11761  -13.72688    8.50000 65030.00000
 1335.30000    8.57365    8.28177    8.29109    8.22555    2.36787   75.29528    0.25884    2.61199   91.97487  -14.31671    8.50000 65030.00000
 1335.40000    8.57482    8.27486    8.37544    8.27613    2.36901   75.45819    0.26129    2.62742   92.56362  -14.07703    8.50000 65030.00000
 1335.50000    8.57356    8.08750    8.23269    8.15667    2.37099   75.29831    0.26107    2.63126   92.45822  -13.94769    8.50000 65030.00000
 1335.60000    8.57487    8.53167    8.59105    8.52353    2.37281   74.07714    0.25936    2.62611   93.09760  -13.99009    8.50000 65030.00000
 1335.70000    8.57358    8.64309    8.77661    8.67380    2.37490   73.11818    0.26349    2.64309   93.34926  -13.26390    8.50000 65030.00000
 1335.80000    8.57580    8.83608    9.03023    8.90464    2.37587   72.33580    0.26505    2.63769   93.54026  -13.03646    8.50000 65030.00000
 1335.90000    8.57720    8.51476    8.53940    8.48617    2.37518   70.53531    0.26611    2.63772   93.56779  -12.64243    8.50000 65030.00000
