~Version ---------------------------------------------------
VERS.   2.0 : CWLS log ASCII Standard -VERSION 2.0
WRAP.    NO : One line per depth step
DLM . SPACE : Column Data Section Delimiter
~Well ------------------------------------------------------
STRT.m          1000.00000 : START DEPTH
STOP.m          2000.00000 : STOP DEPTH
STEP.m             0.10000 : STEP
NULL.             -9999.25 : NULL VALUE
COMP. FORCE 2020 Recreator : 
WELL.   WELL_FORCE_2020_10 : 
FLD .                      : FIELD
LOC .                      : LOCATION
PROV.                      : PROVINCE
CNTY.                      : COUNTY
STAT.                      : STATE
CTRY.                      : COUNTRY
SRVC.                      : SERVICE COMPANY
DATE.                      : DATE
UWI .                      : UNIQUE WELL ID
API .                      : API NUMBER
~Curve Information -----------------------------------------
DEPT                            .m      : 
CALI                            .in     : 
RSHA                            .ohm.m  : 
RMED                            .ohm.m  : 
RDEP                            .ohm.m  : 
RHOB                            .g/cm3  : 
GR                              .gAPI   : 
NPHI                            .v/v    : 
PEF                             .b/e    : 
DTC                             .us/ft  : 
SP                              .mV     : 
BS                              .in     : 
FORCE_2020_LITHOFACIES_LITHOLOGY.code   : 
~Params ----------------------------------------------------
~Other -----------------------------------------------------
~ASCII -----------------------------------------------------
# ...
 1996.40000    8.57863 6793.51775 6805.65502 6657.31847    2.82021  135.88936    0.01505    3.74823   43.36408   10.79866    8.50000 93000.00000
 1996.50000    8.57821 6621.73721 6647.80290 6495.23255    2.79384  135.66455    0.01472    3.65742   42.81149   11.01330    8.50000 93000.00000
 1996.60000    8.58171 6466.99941 6442.40540 6308.27703    2.79160  132.36308    0.01480    3.65949   41.96741   11.07747    8.50000 93000.00000
 1996.70000    8.58061 6030.17488 6072.20427 5914.26840    2.76681  129.88683    0.01437    3.69405   41.49203    9.88481    8.50000 93000.00000
 1996.80000    8.58515 6035.21208 6076.32751 5919.18053    2.75228  130.55433    0.01395    3.63846   41.52778    9.99394    8.50000 93000.00000
 1996.90000    8.58596 5619.35453 5626.47221 5506.16321    2.77438  133.24094    0.01386    3.68539   41.75046    9.57644    8.50000 93000.00000
 1997.00000    8.58548 4580.00566 4581.60938 4462.27762    2.77949  135.00163    0.01390    3.69158   41.41333   10.35624    8.50000 93000.00000
 1997.10000    8.58477 3903.20021 3922.76121 3855.67079    2.78668  137.62854    0.01409    3.67398   41.59255    9.90763    8.50000 93000.00000
 1997.20000    8.58588 3937.63200 3952.82174 3889.48948    2.77906  137.70726    0.01304    3.70799   41.81248   10.33932    8.50000 93000.00000
 1997.30000    8.58288 3874.03086 3915.09505 3849.09407    2.78976  137.16090    0.01376    3.68416   42.68333   10.18096    8.50000 93000.00000
 1997.40000    8.58593 3607.67028 3662.36265 3593.80503    2.79037  137.49374    0.01420    3.69913   41.99869    9.58948    8.50000 93000.00000
 1997.50000    8.58896 3586.82975 3637.68103 3566.09179    2.75282  138.26285    0.01436    3.73170   41.49303    9.86428    8.50000 93000.00000
 1997.60000    8.59094 4376.81967 4439.52715 4325.27784    2.73433  141.15965    0.01510    3.75474   41.23868    9.78740    8.50000 93000.00000
 1997.70000    8.59108 4349.17390 4408.48255 4295.82422    2.76680  140.72356    0.01490    3.74929   41.17944    9.11561    8.50000 93000.00000
 1997.80000    8.59037 4345.56442 4405.83327 4293.24638    2.75680  144.71476    0.01545    3.78524   41.36611    9.48062    8.50000 93000.00000
 1997.90000    8.59073 8241.02988 8107.49478 8164.97519    2.73948  144.83165    0.01569    3.78091   41.92392    9.11687    8.50000 93000.00000
 1998.00000    8.58698 8514.52627 8404.84732 8453.03851    2.75876  144.73537    0.01580    3.82058   41.81149    9.70201    8.50000 93000.00000
 1998.10000    8.58696 7233.75142 7058.31910 7098.40917    2.77374  143.62530    0.01634    3.83389   42.44555    9.94109    8.50000 93000.00000
 1998.20000    8.58545 7571.01837 7392.59092 7411.71491    2.78947  146.79983    0.01679    3.85975   42.09276   10.25091    8.50000 93000.00000
 1998.30000    8.58818 7967.45053 7734.51088 7776.62252    2.77070  148.29365    0.01695    3.87812   42.22811    9.57790    8.50000 93000.00000
 1998.40000    8.59049 7982.08959 7746.19222 7790.49929    2.74928  149.35684    0.01712    3.83931   41.46886   10.14907    8.50000 93000.00000
 1998.50000    8.58759 6624.97529 6376.86174 6484.12335    2.74147  151.67324    0.01717    3.77382   41.54829   10.32375    8.50000 93000.00000
 1998.60000    8.58680 6639.69861 6391.83647 6499.42378    2.75793  149.61142    0.01690    3.86486   41.99458   10.70161    8.50000 93000.00000
 1998.70000    8.58367 6756.28306 6502.73723 6604.78222    2.74978  149.56592    0.01705    3.84104   41.86710   11.04707    8.50000 93000.00000
 1998.80000    8.58536 7222.50761 6941.15593 7077.09955    2.76495  152.21353    0.01692    3.85494   41.67887   11.19108    8.50000 93000.00000
 1998.90000    8.58351 7203.81801 6924.03552 7059.88588    2.75958  149.76847    0.01724    3.92957   42.11739   10.60175    8.50000 93000.00000
 1999.00000    8.56611 7054.01336 6801.95660 6936.30102    2.73425  142.30248    0.02837    3.79897   43.68282    8.70151    8.50000 93000.00000
 1999.10000    8.56516 7390.15688 7125.57023 7266.21008    2.74393  140.53383    0.02898    3.79722   44.13177    8.38612    8.50000 93000.00000
 1999.20000    8.56340 7626.33826 7332.27693 7494.71144    2.72903  137.00892    0.02972    3.81764   44.54907    8.70365    8.50000 93000.00000
 1999.30000    8.56247 7994.54187 7687.80719 7855.77022    2.72076  137.94054    0.03116    3.82464   44.81345    8.73420    8.50000 93000.00000
 1999.40000    8.56035 8404.76565 8074.03254 8250.03110    2.71368  140.01563    0.03186    3.82353   44.51481    8.65640    8.50000 93000.00000
 1999.50000    8.55648 8890.34734 8541.21833 8728.08725    2.70593  139.49359    0.03211    3.75927   45.18840    8.76417    8.50000 93000.00000
 1999.60000    8.55152 9432.76845 9058.27330 9259.44426    2.72441  140.39883    0.03303    3.72645   46.17160    8.87146    8.50000 93000.00000
 1999.70000    8.54826 8899.26611 8480.94516 8761.22749    2.73614  140.34448    0.03339    3.70232   46.25293    8.88863    8.50000 93000.00000
 1999.80000    8.54493 9559.36460 9109.31774 9410.03628    2.69101  140.92874    0.03476    3.71411   46.14409    9.09989    8.50000 93000.00000
 1999.90000    8.54284 10327.46507 9841.19575 10168.10074    2.69197  136.14808    0.03605    3.64159   46.44419    9.06039    8.50000 93000.00000
 2000.00000    8.54092 3776.53449 3621.70121 3650.37274    2.71042  135.87785    0.03716    3.64267   45.91856    9.72343    8.50000 30000.00000
