~Version ---------------------------------------------------
VERS.   2.0 : CWLS log ASCII Standard -VERSION 2.0
WRAP.    NO : One line per depth step
DLM . SPACE : Column Data Section Delimiter
~Well ------------------------------------------------------
STRT.m          1000.00000 : START DEPTH
STOP.m          2000.00000 : STOP DEPTH
STEP.m             0.10000 : STEP
NULL.             -9999.25 : NULL VALUE
COMP. FORCE 2020 Recreator : 
WELL.   WELL_FORCE_2020_02 : 
FLD .                      : FIELD
LOC .                      : LOCATION
PROV.                      : PROVINCE
CNTY.                      : COUNTY
STAT.                      : STATE
CTRY.                      : COUNTRY
SRVC.                      : SERVICE COMPANY
DATE.                      : DATE
UWI .                      : UNIQUE WELL ID
API .                      : API NUMBER
~Curve Information -----------------------------------------
DEPT                            .m      : 
CALI                            .in     : 
RSHA                            .ohm.m  : 
RMED                            .ohm.m  : 
RDEP                            .ohm.m  : 
RHOB                            .g/cm3  : 
GR                              .gAPI   : 
NPHI                            .v/v    : 
PEF                             .b/e    : 
DTC                             .us/ft  : 
SP                              .mV     : 
BS                              .in     : 
FORCE_2020_LITHOFACIES_LITHOLOGY.code   : 
~Params ----------------------------------------------------
~Other -----------------------------------------------------
~ASCII -----------------------------------------------------
 1000.00000    8.58801 2421.82848 2409.03063 2402.97205    2.96439   13.27698    0.02293    5.05128   49.58636    6.10989    8.50000 86000.00000
 1000.10000    8.58742 2368.34677 2366.60803 2359.58742    2.96616   13.23072    0.02201    5.04285   49.69282    6.15308    8.50000 86000.00000
 1000.20000    8.58946 2340.13252 2343.77663 2325.80760    2.96373   13.21702    0.02328    5.05819   49.88930    6.03683    8.50000 86000.00000
 1000.30000    8.58627 2623.47726 2545.12880 2552.66728    2.96503   13.08976    0.02352    5.05638   50.20573    6.27285    8.50000 86000.00000
 1000.40000    8.58332 2530.34808 2456.36418 2465.35349    2.96442   12.71504    0.02320    5.05357   50.17648    6.16500    8.50000 86000.00000
 1000.50000    8.58086 3459.44433 3620.86167   -9999.25    2.96502   12.67001    0.02398    5.04553   50.17451    6.12610    8.50000 86000.00000
 1000.60000    8.57948 3287.75308 3439.21862 3498.97496    2.96356   12.67218    0.02402    5.03726   50.17790    6.19845    8.50000 86000.00000
 1000.70000    8.57644 3176.96014 3337.29520 3384.82231    2.96698   12.54572    0.02304    5.03074   50.37673    6.17901    8.50000 86000.00000
 1000.80000    8.57421 3191.12028 3304.78791 3359.30536    2.96476   12.40777    0.02346    5.01797   50.42964    6.25521    8.50000 86000.00000
 1000.90000    8.57611 3117.80657 3216.86161 3271.05766    2.96132   12.51982    0.02352    5.02535   50.28785    6.39547    8.50000 86000.00000
 1001.00000    8.57572 3371.53819 3468.83261 3493.58690    2.96192   12.58184    0.02297    5.02604   50.10014    6.25511    8.50000 86000.00000
 1001.10000    8.57379 3463.52352 3543.25217 3567.34590    2.96189   12.88951    0.02230    5.02961   49.87804    6.15687    8.50000 86000.00000
 1001.20000    8.56881 3570.57098 3656.97782 3696.38457    2.95980   12.86310    0.02309    5.03547   50.06219    6.10075    8.50000 86000.00000
 1001.30000    8.56953 3477.21833 3590.56958 3631.80474    2.95940   12.63764    0.02185    5.02061   50.05516    6.24315    8.50000 86000.00000
 1001.40000    8.56886 3798.90877 3965.27949 4002.10423    2.95939   12.77793    0.02252    5.01387   50.04959    5.98598    8.50000 86000.00000
 1001.50000    8.56730 3637.61501 3808.79892 3839.73226    2.95662   12.58250    0.02187    5.00672   50.03285    6.03734    8.50000 86000.00000
 1001.60000    8.56673 3625.74063 3816.09602 3845.69444    2.95492   12.42155    0.02198    5.00867   49.73675    5.99683    8.50000 86000.00000
 1001.70000    8.56618 3618.26594 3822.27454 3852.27246    2.95448   12.78849    0.02285    4.99826   49.60523    5.96289    8.50000 86000.00000
 1001.80000    8.56495 3397.33704 3560.54841 3587.71218    2.95551   12.59814    0.02244    4.99802   49.72007    6.08113    8.50000 86000.00000
 1001.90000    8.56093 3205.45712 3362.93027 3394.86386    2.95858   12.65985    0.02344    4.97128   49.63250    6.01873    8.50000 86000.00000
 1002.00000    8.56460 3281.07149 3447.19562 3473.85347    2.95768   12.63330    0.02291    4.98365   49.69093    5.91490    8.50000 86000.00000
 1002.10000    8.56721 3332.62110 3497.12171 3518.73384    2.96074   12.45251    0.02282    4.98710   49.72692    5.87942    8.50000 86000.00000
 1002.20000    8.56654 3338.61131 3497.45789 3521.27960    2.95810   12.49370    0.02343    4.98061   49.63974    5.92978    8.50000 86000.00000
 1002.30000    8.56249 3260.67457 3417.71014 3449.43536    2.95749   12.60268    0.02194    4.97053   49.65034    5.95620    8.50000 86000.00000
 1002.40000    8.56282 3017.58953 3234.22461 3255.31490    2.95776   12.45010    0.02165    4.96965   49.40547    5.79306    8.50000 86000.00000
 1002.50000    8.56321 3152.27437 3390.51891 3386.85960    2.95841   12.78070    0.02245    4.96430   49.42507    5.87211    8.50000 86000.00000
 1002.60000    8.56529 2445.66812 2518.13361 2467.87289    2.95559   12.74451    0.02146    4.96640   49.51513    5.73198    8.50000 86000.00000
 1002.70000    8.56427 2478.43729 2552.71190 2498.78820    2.95790   12.88225    0.02120    4.98138   49.39658    5.55718    8.50000 86000.00000
 1002.80000    8.56824 2450.15642 2512.41013 2467.80342    2.95287   13.03357    0.02225    4.98442   49.17892    5.67531    8.50000 86000.00000
 1002.90000    8.57137 2523.27112 2613.35526 2562.84847    2.95534   13.19755    0.02179    4.99387   48.93717    5.58214    8.50000 86000.00000
 1003.00000    8.57206 2678.25846 2780.26469 2721.72295    2.95924   13.18833    0.02124    4.98517   49.20481    5.47848    8.50000 86000.00000
 1003.10000    8.57289 2413.34619 2512.53330 2477.24262    2.95933   13.13306    0.02117    4.98428   49.41495    5.34936    8.50000 86000.00000
 1003.20000    8.57686 2353.03402 2459.49403 2424.68233    2.95785   12.78642    0.02089    4.97893   49.73123    5.55896    8.50000 86000.00000
 1003.30000    8.57993 2345.75965 2448.03007 2405.00177    2.95779   12.79111    0.02090    4.95601   49.74526    5.67005    8.50000 86000.00000
 1003.40000    8.57656 2346.81521 2456.52002 2413.25543    2.95551   13.00828    0.02172    4.95634   49.68158    5.78210    8.50000 86000.00000
 1003.50000    8.57497 2382.88409 2437.14215 2406.47857    2.95832   12.78058    0.02088    4.95863   49.69269    5.88007    8.50000 86000.00000
 1003.60000    8.57825 2448.57272 2513.07521 2483.98641    2.96186   12.99043    0.02106    4.97240   49.82041    5.75750    8.50000 86000.00000
 1003.70000    8.58104 2471.97830 2527.89169 2497.08752    2.96271   12.82770    0.02108    4.97010   49.95303    5.88369    8.50000 86000.00000
 1003.80000    8.58052 2547.32431 2619.00214 2574.91831    2.96327   12.38152    0.01974    4.97266   50.13103    6.06053    8.50000 86000.00000
 1003.90000    8.58088 2479.04182 2548.47482 2504.63609    2.96267   12.50934    0.01918    4.97544   49.99387    6.12164    8.50000 86000.00000
 1004.00000    8.58121 2671.44310 2732.52911 2704.56268    2.96265   12.29271    0.01824    4.97924   50.17621    5.88520    8.50000 86000.00000
 1004.10000    8.57998 2692.26886 2721.70605 2696.75254    2.96249   12.31639    0.01803    4.98388   50.30455    5.97077    8.50000 86000.00000
 1004.20000    8.58082 2653.94721 2685.95155 2662.56331    2.95985   12.34588    0.01753    4.98324   50.07516    5.73004    8.50000 86000.00000
 1004.30000    8.57867 2596.15790 2626.43210 2600.66933    2.96081   12.34328    0.01771    4.99030   50.11136    5.77960    8.50000 86000.00000
 1004.40000    8.58143 2603.13949 2631.73297 2604.85663    2.96168   11.96550    0.01869    4.98231   50.00653    5.86383    8.50000 86000.00000
 1004.50000    8.58239 2688.61592 2723.80319 2693.82438    2.96016   12.10928    0.01878    4.97665   50.20267    5.98713    8.50000 86000.00000
 1004.60000    8.58268 2610.07918 2644.29882 2640.46335    2.96135   11.68205    0.01778    4.96655   50.27798    6.09114    8.50000 86000.00000
 1004.70000    8.58486 2702.41810 2708.35799 2712.46163    2.96433   11.78916    0.01820    4.96542   50.08303    6.30712    8.50000 86000.00000
 1004.80000    8.58356 2699.45602 2706.69205 2710.61000    2.96267   11.61680    0.01813    4.96368   50.22814    6.33800    8.50000 86000.00000
 1004.90000    8.58226 2713.95470 2711.76091 2714.61403    2.96663   11.71669    0.01754    4.96259   50.41230    6.18719    8.50000 86000.00000
 1005.00000    8.58150 2514.40699 2514.66269 2516.13885    2.96438   11.71671    0.01764    4.94724   50.58585    6.44894    8.50000 86000.00000
 1005.10000    8.58102 2291.26359 2290.88771 2298.88331    2.96090   11.57500    0.01800    4.93318   50.44818    6.39641    8.50000 86000.00000
 1005.20000    8.58202 2211.08986 2225.47078 2233.59355    2.96247   11.54892    0.01921    4.94230   50.38121    6.92701    8.50000 86000.00000
 1005.30000    8.57987 2243.38275 2264.05083 2270.44811    2.96440   11.31492    0.01992    4.94538   50.30217    6.77294    8.50000 86000.00000
 1005.40000    8.58026 2158.28986 2197.35921 2210.03203    2.96472   11.42446    0.01908    4.96011   50.26535    6.73325    8.50000 86000.00000
 1005.50000    8.58079 2229.73689 2255.05804 2267.20923    2.96709   11.25308    0.01900    4.97479   50.36517    6.75092    8.50000 86000.00000
