~Version ---------------------------------------------------
VERS.   2.0 : CWLS log ASCII Standard -VERSION 2.0
WRAP.    NO : One line per depth step
DLM . SPACE : Column Data Section Delimiter
~Well ------------------------------------------------------
STRT.m          1000.00000 : START DEPTH
STOP.m          2000.00000 : STOP DEPTH
STEP.m             0.10000 : STEP
NULL.             -9999.25 : NULL VALUE
COMP. FORCE 2020 Recreator : 
WELL.   WELL_FORCE_2020_05 : 
FLD .                      : FIELD
LOC .                      : LOCATION
PROV.                      : PROVINCE
CNTY.                      : COUNTY
STAT.                      : STATE
CTRY.                      : COUNTRY
SRVC.                      : SERVICE COMPANY
DATE.                      : DATE
UWI .                      : UNIQUE WELL ID
API .                      : API NUMBER
~Curve Information -----------------------------------------
DEPT                            .m      : 
CALI                            .in     : 
RSHA                            .ohm.m  : 
RMED                            .ohm.m  : 
RDEP                            .ohm.m  : 
RHOB                            .g/cm3  : 
GR                              .gAPI   : 
NPHI                            .v/v    : 
PEF                             .b/e    : 
DTC                             .us/ft  : 
SP                              .mV     : 
BS                              .in     : 
FORCE_2020_LITHOFACIES_LITHOLOGY.code   : 
~Params ----------------------------------------------------
~Other -----------------------------------------------------
~ASCII -----------------------------------------------------
# ...
 1134.40000    8.32423   25.85685   26.13010   25.93373    2.34405   44.45111    0.19594   -9999.25   83.93657  -36.16055    8.50000 30000.00000
 1134.50000    8.32052   25.69274   25.74551   25.64154    2.34304   44.16007    0.19476   -9999.25   83.85167  -35.80202    8.50000 30000.00000
 1134.60000    8.32279   24.77930   24.82614   24.68053    2.34903   45.88240    0.19774   -9999.25   83.67450  -35.66726    8.50000 30000.00000
 1134.70000    8.32494   22.05217   21.50701   21.63364    2.34976   45.87961    0.19670   -9999.25   83.44706  -35.29841    8.50000 30000.00000
 1134.80000    8.32015   20.55516   19.96295   20.15701    2.34925   46.04839    0.19999   -9999.25   83.23708  -35.64155    8.50000 30000.00000
 1134.90000    8.32035   21.50602   20.87155   21.13764    2.35608   46.70107    0.19933   -9999.25   83.15849  -36.41060    8.50000 30000.00000
 1135.00000    8.32102   22.26398   21.31547   21.45115    2.36324   46.52396    0.20002   -9999.25   83.82958  -36.21923    8.50000 30000.00000
 1135.10000    8.32104   20.64571   19.76931   19.85329    2.35971   47.02404    0.20336   -9999.25   84.40193  -36.39371    8.50000 30000.00000
 1135.20000    8.31996   20.47146   19.70176   19.80102    2.36252   46.70743    0.20279   -9999.25   84.35649  -36.53663    8.50000 30000.00000
 1135.30000    8.31889   19.38805   18.56195   18.76435    2.36860   45.82775    0.20405   -9999.25   83.98658  -36.27115    8.50000 30000.00000
 1135.40000    8.32042   19.45014   18.30888   18.61426    2.37159   45.61204    0.20432   -9999.25   83.70963  -36.69758    8.50000 30000.00000
 1135.50000    8.32057   19.70439   18.52244   18.90925    2.37234   45.93032    0.20206   -9999.25   83.27346  -36.55280    8.50000 30000.00000
 1135.60000    8.31912   18.19820   17.50304   17.73533    2.37446   46.07448    0.19961   -9999.25   83.56871  -36.61280    8.50000 30000.00000
 1135.70000    8.31981   22.17305   21.36812   21.66785    2.37105   45.07515    0.20236   -9999.25   83.93553  -36.22141    8.50000 30000.00000
 1135.80000    8.31570   21.72235   20.78915   21.12916    2.36735   44.75808    0.20115   -9999.25   83.49314  -36.29032    8.50000 30000.00000
 1135.90000    8.31558   20.99176   20.20712   20.52935    2.36634   45.25016    0.19961   -9999.25   83.38563  -36.39014    8.50000 30000.00000
 1136.00000    8.31591   20.10999   19.19070   19.50013    2.36222   45.59101    0.20213   -9999.25   83.01477  -36.56799    8.50000 30000.00000
 1136.10000    8.31736   20.94399   20.41942   20.53410    2.36474   44.62004    0.20401   -9999.25   83.04470  -36.69494    8.50000 30000.00000
 1136.20000    8.31851   21.16603   20.64296   20.71557    2.36659   45.10128    0.20243   -9999.25   82.75345  -36.73768    8.50000 30000.00000
 1136.30000    8.31444   24.67508   23.20825   23.61101    2.36393   44.68488    0.20241   -9999.25   82.99779  -36.49809    8.50000 30000.00000
 1136.40000    8.31088   25.71813   24.06622   24.46526    2.36551   44.53697    0.20279   -9999.25   82.15566  -36.58749    8.50000 30000.00000
 1136.50000    8.31587   26.71215   25.26473   25.53163    2.36665   44.83175    0.20368   -9999.25   82.14720  -36.67318    8.50000 30000.00000
 1136.60000    8.31834   26.93959   25.65560   25.91411    2.37095   44.74374    0.20537   -9999.25   82.08454  -36.42951    8.50000 30000.00000
 1136.70000    8.31721   26.78183   25.41869   25.69913    2.36982   43.71736    0.20352   -9999.25   82.11490  -36.21904    8.50000 30000.00000
 1136.80000    8.31972   26.89785   25.44080   25.78223    2.36952   43.21459    0.20573   -9999.25   82.06013  -36.08647    8.50000 30000.00000
 1136.90000    8.32723   27.56422   25.98268   26.30182    2.37386   43.93918    0.20324   -9999.25   81.88786  -36.32150    8.50000 30000.00000
 1137.00000    8.32522   26.48883   24.97404   25.22297    2.36976   43.33888    0.20647   -9999.25   81.81090  -35.76803    8.50000 30000.00000
 1137.10000    8.32670   25.05176   24.08055   24.37811    2.36334   42.33965    0.20874   -9999.25   81.32202  -36.17635    8.50000 30000.00000
 1137.20000    8.32903   24.69513   23.79539   24.06615    2.36249   41.47195    0.20997   -9999.25   80.96739  -36.35513    8.50000 30000.00000
 1137.30000    8.32869   24.73322   23.76636   24.02424    2.36063   41.88984    0.20775   -9999.25   81.27080  -36.44172    8.50000 30000.00000
 1137.40000    8.33121   25.44405   24.57082   24.80091    2.35409   41.91496    0.20987   -9999.25   80.98874  -36.41444    8.50000 30000.00000
 1137.50000    8.33110   25.01565   24.24975   24.48277    2.34997   42.57036    0.21040   -9999.25   80.89205  -36.29567    8.50000 30000.00000
 1137.60000    8.32616   24.28745   23.66233   23.83964    2.34800   42.08006    0.21241   -9999.25   80.89206  -35.67392    8.50000 30000.00000
 1137.70000    8.32809   24.89263   24.04371   24.29812    2.34650   41.72503    0.21222   -9999.25   80.29545  -35.72168    8.50000 30000.00000
 1137.80000    8.32631   22.04708   21.21141   21.36075    2.35009   42.48460    0.21010   -9999.25   80.16484  -35.85690    8.50000 30000.00000
 1137.90000    8.32541   22.37818   21.62207   21.70668    2.35458   42.31709    0.20903   -9999.25   80.26657  -35.94252    8.50000 30000.00000
 1138.00000    8.32705   22.87578   21.73733   21.83512    2.35636   42.29403    0.20630   -9999.25   79.88176  -35.55102    8.50000 30000.00000
 1138.10000    8.32922   22.74073   21.88209   21.92883    2.35275   42.44957    0.20577   -9999.25   80.27738  -35.16340    8.50000 30000.00000
 1138.20000    8.32740   21.98099   21.29259   21.39607    2.34637   42.06414    0.20372   -9999.25   79.97164  -34.32743    8.50000 30000.00000
 1138.30000    8.32901   23.47433   22.68149   22.89490    2.34212   41.47121    0.20453   -9999.25   80.18755  -33.83511    8.50000 30000.00000
 1138.40000    8.33141   20.23586   20.47767   20.39354    2.34597   41.64397    0.20786   -9999.25   79.84603  -33.96045    8.50000 30000.00000
 1138.50000    8.32992   19.56198   19.95116   19.85717    2.34249   41.06490    0.20913   -9999.25   80.11008  -34.25307    8.50000 30000.00000
 1138.60000    8.33004   19.44780   19.49390   19.58622    2.34362   41.88860    0.21002   -9999.25   80.03348  -34.44486    8.50000 30000.00000
 1138.70000    8.33045   19.71121   19.93179   19.93924    2.33539   42.13263    0.21296   -9999.25   80.19088  -34.39250    8.50000 30000.00000
 1138.80000    8.32955   20.14893   20.38442   20.38062    2.34184   43.03395    0.21230   -9999.25   80.48812  -34.59547    8.50000 30000.00000
 1138.90000    8.32433   21.36709   21.87347   21.61198    2.34091   43.74518    0.21046   -9999.25   80.75567  -34.86244    8.50000 30000.00000
 1139.00000    8.32061   21.10644   21.66930   21.40136    2.33895   44.32334    0.21205   -9999.25   81.52313  -34.75883    8.50000 30000.00000
 1139.10000    8.31976   22.67850   23.60007   23.50449    2.33862   44.34436    0.20809   -9999.25   81.88155  -34.84981    8.50000 30000.00000
 1139.20000    8.31542   22.19219   23.09742   22.98062    2.34754   44.85009    0.20991   -9999.25   82.18456  -34.62076    8.50000 30000.00000
 1139.30000    8.31453   24.12694   24.27335   24.32634    2.34664   45.11706    0.20833   -9999.25   82.64909  -34.10230    8.50000 30000.00000
 1139.40000    8.31400   26.40941   26.78085   26.76719    2.34600   44.92983    0.20952   -9999.25   82.29885  -33.69983    8.50000 30000.00000
 1139.50000    8.30931   25.90977   26.21859   26.18901    2.34718   45.73004    0.20876   -9999.25   82.13100  -33.84990    8.50000 30000.00000
 1139.60000    8.31390   26.34017   26.56499   26.56998    2.35435   45.64443    0.21083   -9999.25   81.76114  -33.65270    8.50000 30000.00000
 1139.70000    8.31632   27.01219   27.45627   27.39368    2.36041   46.57345    0.20771   -9999.25   82.21347  -34.18830    8.50000 30000.00000
 1139.80000    8.31638   27.72678   28.41425   28.30661    2.35792   47.07282    0.20718   -9999.25   82.38726  -33.93125    8.50000 30000.00000
 1139.90000    8.31695   28.36334   29.18450   29.11238    2.35682   47.02785    0.20528   -9999.25   82.61029  -34.18453    8.50000 30000.00000
