~Version ---------------------------------------------------
VERS.   2.0 : CWLS log ASCII Standard -VERSION 2.0
WRAP.    NO : One line per depth step
DLM . SPACE : Column Data Section Delimiter
~Well ------------------------------------------------------
STRT.m          1000.00000 : START DEPTH
STOP.m          2000.00000 : STOP DEPTH
STEP.m             0.10000 : STEP
NULL.             -9999.25 : NULL VALUE
COMP. FORCE 2020 Recreator : 
WELL.   WELL_FORCE_2020_03 : 
FLD .                      : FIELD
LOC .                      : LOCATION
PROV.                      : PROVINCE
CNTY.                      : COUNTY
STAT.                      : STATE
CTRY.                      : COUNTRY
SRVC.                      : SERVICE COMPANY
DATE.                      : DATE
UWI .                      : UNIQUE WELL ID
API .                      : API NUMBER
~Curve Information -----------------------------------------
DEPT                            .m      : 
CALI                            .in     : 
RSHA                            .ohm.m  : 
RMED                            .ohm.m  : 
RDEP                            .ohm.m  : 
RHOB                            .g/cm3  : 
GR                              .gAPI   : 
NPHI                            .v/v    : 
PEF                             .b/e    : 
DTC                             .us/ft  : 
SP                              .mV     : 
BS                              .in     : 
FORCE_2020_LITHOFACIES_LITHOLOGY.code   : 
~Params ----------------------------------------------------
~Other -----------------------------------------------------
~ASCII -----------------------------------------------------
# ...
 1996.40000    8.57682 7688.47163 7596.79339 7717.42848    2.76248  140.75289    0.01439    3.81365   43.78804   12.78721    8.50000 93000.00000
 1996.50000    8.57416 8501.50556 8419.33386 8576.19255    2.75929  143.72477    0.01475    3.77118   44.50269   12.44436    8.50000 93000.00000
 1996.60000    8.57171 7630.22094 7562.69205 7726.85722    2.76279  141.52730    0.01490    3.69867   45.17133   12.09958    8.50000 93000.00000
 1996.70000    8.57191 7718.63372 7675.77902 7834.70396    2.75163  141.28211    0.01451    3.69470   45.34633   12.45077    8.50000 93000.00000
 1996.80000    8.57351 6631.72016 6594.70641 6696.86848    2.73855  142.07604    0.01415    3.73319   45.36156   12.19075    8.50000 93000.00000
 1996.90000    8.57449 5696.98461 5868.64158 5928.65446    2.72879  140.45731    0.01421    3.68557   44.59460   11.74637    8.50000 93000.00000
 1997.00000    8.57514 4839.78412 4983.36406 5022.95104    2.72424  142.46112    0.01523    3.71930   45.35901   12.06857    8.50000 93000.00000
 1997.10000    8.57553 4930.60534 5079.48594 5100.89107    2.73904  143.56590    0.01545    3.74128   44.83824   12.90011    8.50000 93000.00000
 1997.20000    8.57570 7764.35204 8244.07937 8267.84487    2.73522  141.85637    0.01540    3.72149   44.56208   12.62724    8.50000 93000.00000
 1997.30000    8.57443   -9999.25 8166.35552 8188.28528    2.73343  142.02557    0.01540    3.75029   44.56917   12.11222    8.50000 93000.00000
 1997.40000    8.57367 6487.60933 6757.79986 6798.97409    2.73097  143.07517    0.01483    3.71175   44.53561   11.73345    8.50000 93000.00000
 1997.50000    8.57245 6204.58633 6448.12870 6502.19043    2.71925  141.19711    0.01473    3.64615   44.71576   10.86687    8.50000 93000.00000
 1997.60000    8.57401 5724.43404 5932.71301 5973.93291    2.73171  140.84288    0.01435    3.64554   45.37568   11.04156    8.50000 93000.00000
 1997.70000    8.57436 6442.72721 6601.45138 6610.65688    2.73151  142.60606    0.01494    3.64812   45.52046   11.10921    8.50000 93000.00000
 1997.80000    8.57147 6402.23243 6560.63869 6568.60815    2.75040  143.97730    0.01485    3.64816   45.67037   10.47368    8.50000 93000.00000
 1997.90000    8.57032 6171.10236 6360.18977 6360.08132    2.73275  143.15342    0.01487    3.69491   46.20336   10.96760    8.50000 93000.00000
 1998.00000    8.57067 6116.40348 6302.14888 6304.83986    2.73435  141.51073    0.01428    3.66030   46.37733   11.01474    8.50000 93000.00000
 1998.10000    8.56914 5960.24298 6146.77306 6154.73303    2.74434  139.96715    0.01451    3.66367   47.50055   10.78331    8.50000 93000.00000
 1998.20000    8.57236 6028.22007 6206.87163 6215.74461    2.74536  138.52122    0.01538    3.65194   47.39315   10.60408    8.50000 93000.00000
 1998.30000    8.57375 5938.58404 6123.97708 6127.16051    2.76016  135.58748    0.01483    3.69067   47.71466   10.45234    8.50000 93000.00000
 1998.40000    8.57684 5918.45323 6101.80432 6106.25404    2.76086  132.55693    0.01550    3.66835   47.87867   10.34350    8.50000 93000.00000
 1998.50000    8.57334 5810.11637 6021.31694 6015.86880    2.77742  133.65739    0.01565    3.69083   48.64332   10.39374    8.50000 93000.00000
 1998.60000    8.57314 5196.59093 5411.54570 5361.02173    2.77203  134.26755    0.01580    3.67874   47.26854   10.33957    8.50000 93000.00000
 1998.70000    8.57494 5163.66635 5374.64796 5327.60388    2.76889  133.86701    0.01565    3.72260   46.78747    9.64961    8.50000 93000.00000
 1998.80000    8.57668 5017.42988 5244.39529 5193.27322    2.78126  135.38269    0.01580    3.75629   47.24261    9.28074    8.50000 93000.00000
 1998.90000    8.57657 5185.68317 5378.65010 5336.13223    2.77194  132.74511    0.01602    3.76800   46.83576    9.11891    8.50000 93000.00000
 1999.00000    8.56418 5129.74691 5314.13924 5268.09132    2.76438  128.95976    0.02234    3.69657   48.71841    7.02481    8.50000 93000.00000
 1999.10000    8.56427 5274.73542 5486.94112 5438.52957    2.76460  126.62409    0.02249    3.67783   48.47031    6.73698    8.50000 93000.00000
 1999.20000    8.56350 5389.17702 5609.93478 5578.75319    2.75931  126.55660    0.02271    3.65255   49.33373    6.08227    8.50000 93000.00000
 1999.30000    8.56189 2023.76966 1895.46100 1866.11354    2.74678  128.20412    0.02300    3.66728   49.95253    6.11550    8.50000 93000.00000
 1999.40000    8.56240 2135.18365 2000.36032 1969.48061    2.73858  126.86085    0.02288    3.67594   50.53258    6.24927    8.50000 93000.00000
 1999.50000    8.56303 2190.38064 2058.74563 2022.60818    2.72849  126.01654    0.02359    3.71149   50.58176    5.77986    8.50000 93000.00000
 1999.60000    8.56278 2304.95901 2164.04658 2126.15080    2.75227  124.98730    0.02426    3.71245   50.61224    6.03276    8.50000 93000.00000
 1999.70000    8.56090 2427.42463 2274.44447 2235.96862    2.74399  121.84096    0.02537    3.66985   50.11011    5.59710    8.50000 93000.00000
 1999.80000    8.55831 1321.12593 1254.32438 1255.55732    2.73391  119.58839    0.02561    3.65131   50.65979    5.39840    8.50000 93000.00000
 1999.90000    8.55964 1427.40857 1354.57109 1355.69188    2.70440  115.47685    0.02656    3.61508   51.18496    5.31428    8.50000 93000.00000
 2000.00000    8.56321 1370.72780 1304.35411 1322.62858    2.70170  115.95453    0.02785    3.59018   51.10186    4.60419    8.50000 30000.00000
