~Version ---------------------------------------------------
VERS.   2.0 : CWLS log ASCII Standard -VERSION 2.0
WRAP.    NO : One line per depth step
DLM . SPACE : Column Data Section Delimiter
~Well ------------------------------------------------------
STRT.m          1000.00000 : START DEPTH
STOP.m          2000.00000 : STOP DEPTH
STEP.m             0.10000 : STEP
NULL.             -9999.25 : NULL VALUE
COMP. FORCE 2020 Recreator : 
WELL.   WELL_FORCE_2020_06 : 
FLD .                      : FIELD
LOC .                      : LOCATION
PROV.                      : PROVINCE
CNTY.                      : COUNTY
STAT.                      : STATE
CTRY.                      : COUNTRY
SRVC.                      : SERVICE COMPANY
DATE.                      : DATE
UWI .                      : UNIQUE WELL ID
API .                      : API NUMBER
~Curve Information -----------------------------------------
DEPT                            .m      : 
CALI                            .in     : 
RSHA                            .ohm.m  : 
RMED                            .ohm.m  : 
RDEP                            .ohm.m  : 
RHOB                            .g/cm3  : 
GR                              .gAPI   : 
NPHI                            .v/v    : 
PEF                             .b/e    : 
DTC                             .us/ft  : 
SP                              .mV     : 
BS                              .in     : 
FORCE_2020_LITHOFACIES_LITHOLOGY.code   : 
~Params ----------------------------------------------------
~Other -----------------------------------------------------
~ASCII -----------------------------------------------------
# ...
 1532.00000    8.58381    9.42710    9.18402    9.16859    2.15311   92.50173    0.32307    2.95199   96.75735    1.73309    8.50000 99000.00000
 1532.10000    8.58480    9.05203    8.84511    8.81308    2.15510   92.45797    0.32671    2.97686   97.09930    1.30171    8.50000 99000.00000
 1532.20000    8.58228    9.11652    8.83410    8.86050    2.14822   92.88595    0.33007    2.99153   97.21598    1.01706    8.50000 99000.00000
 1532.30000    8.58403    9.67231    9.43810    9.39000    2.15210   93.40706    0.33248    2.98105   97.07122    0.93634    8.50000 99000.00000
 1532.40000    8.58623    9.43587    9.15465    9.15050    2.15789   92.13858    0.33232    2.98317   96.51970    0.79376    8.50000 99000.00000
 1532.50000    8.58469    9.54117    9.27313    9.25503    2.15709   91.98299    0.33352    2.98845   96.63972    0.68138    8.50000 99000.00000
 1532.60000    8.58646    9.70050    9.37137    9.36187    2.15647   94.04088    0.33298    2.98126   96.49670    1.07941    8.50000 99000.00000
 1532.70000    8.58773    9.69116    9.34334    9.33419    2.15502   94.74576    0.33379    2.98436   96.77831    1.52584    8.50000 99000.00000
 1532.80000    8.58848    9.16106    8.84364    8.82933    2.15725   93.61476    0.32655    3.02071   96.48005    1.46124    8.50000 99000.00000
 1532.90000    8.58889    7.20525    7.14444    7.15968    2.15750   94.50583    0.32822    3.03143   96.52938    1.31660    8.50000 99000.00000
 1533.00000    8.58417    7.23937    7.17795    7.20604    2.16220   95.46036    0.33093    3.01402   97.47392    1.46204    8.50000 99000.00000
 1533.10000    8.58145    7.53933    7.48633    7.47863    2.16586   95.97332    0.33751    3.00820   96.54752    1.62130    8.50000 99000.00000
 1533.20000    8.58029    7.66570    7.69947    7.66011    2.16691   95.99401    0.33563    3.02546   97.06091    1.76900    8.50000 99000.00000
 1533.30000    8.57786    7.49644    7.50158    7.41530    2.17598   95.94401    0.33400    3.01278   96.53341    1.93010    8.50000 99000.00000
 1533.40000    8.57516    7.11725    7.21549    7.13013    2.18461   96.02183    0.33195    3.02529   96.18620    2.11302    8.50000 99000.00000
 1533.50000    8.57315    7.15745    7.24775    7.15843    2.18986   94.27496    0.33017    3.02438   96.21331    1.86658    8.50000 99000.00000
 1533.60000    8.57330    7.26366    7.27184    7.22163    2.18961   94.91473    0.33043    3.04126   96.78258    2.26975    8.50000 99000.00000
 1533.70000    8.57245    7.27460    7.31602    7.24616    2.18450   95.28381    0.33095    3.02452   97.52013    2.18169    8.50000 99000.00000
 1533.80000    8.57242    7.16980    7.22359    7.15046    2.18753   95.29466    0.32650    3.01927   98.03537    2.66663    8.50000 99000.00000
 1533.90000    8.57720    7.90005    7.98701    7.87568    2.18432   94.68948    0.32202    3.01573   99.19941    2.81402    8.50000 99000.00000
 1534.00000    8.58253    7.99705    8.02600    7.95343    2.19150   93.87637    0.32035    3.04343   98.81428    3.34851    8.50000 99000.00000
 1534.10000    8.58420    7.53217    7.61072    7.52266    2.19421   94.81441    0.32743    3.05504   98.92583    2.91635    8.50000 99000.00000
 1534.20000    8.58175    7.69059    7.78799    7.68624    2.19329   94.42488    0.32471    3.03518   98.74463    3.29992    8.50000 99000.00000
 1534.30000    8.58377    7.45947    7.63097    7.49273    2.19423   93.36286    0.32338    3.02725   98.28585    3.56813    8.50000 99000.00000
 1534.40000    8.58304    7.60746    7.71697    7.66662    2.19455   92.54848    0.31849    3.04000   98.05666    3.58459    8.50000 99000.00000
 1534.50000    8.58368    7.60972    7.75225    7.67568    2.19681   92.80005    0.31819    3.01652   98.69120    3.64226    8.50000 99000.00000
 1534.60000    8.58799    7.62963    7.76917    7.69478    2.19906   93.63216    0.31812    3.02029   98.18684    3.26732    8.50000 99000.00000
 1534.70000    8.58690    7.29838    7.46408    7.39150    2.20292   91.68216    0.31746    2.99490   98.75923    2.89438    8.50000 99000.00000
 1534.80000    8.58252    7.48753    7.69837    7.64249    2.19978   91.63783    0.31091    2.96748   98.33284    2.69767    8.50000 99000.00000
 1534.90000    8.57966    7.39817    7.62105    7.58401    2.19275   92.02053    0.31589    2.95062   98.47151    2.78143    8.50000 99000.00000
 1535.00000    8.57788    8.15590    8.62250    8.54199    2.19631   90.04133    0.31976    2.94884   98.10732    3.31057    8.50000 99000.00000
 1535.10000    8.57862    8.18006    8.67118    8.56877    2.19060   90.32812    0.32110    2.95078   98.14998    2.79874    8.50000 99000.00000
 1535.20000    8.58025    8.24994    8.67992    8.60450    2.18591   91.11191    0.31715    2.97632   98.89805    2.90514    8.50000 99000.00000
 1535.30000    8.58246    8.35958    8.77044    8.69381    2.18660   92.00824    0.31002    2.95407   99.20660    3.28186    8.50000 99000.00000
 1535.40000    8.58205    8.32337    8.70776    8.66051    2.18831   91.64358    0.31581    2.94415   99.99106    3.38360    8.50000 99000.00000
 1535.50000    8.58249    8.25742    8.59844    8.56194    2.18307   92.05099    0.31555    2.93179  100.35307    3.60647    8.50000 99000.00000
 1535.60000    8.58444    8.24715    8.59931    8.57112    2.18389   93.08987    0.31283    2.92793   99.54660    4.15916    8.50000 99000.00000
 1535.70000    8.58334    8.06179    8.44934    8.37836    2.18201   92.20778    0.31056    2.91286   99.47235    3.50245    8.50000 99000.00000
 1535.80000    8.58417    8.19954    8.54982    8.44628    2.18632   92.15114    0.31045    2.91371   99.26980    3.45779    8.50000 99000.00000
 1535.90000    8.58576    8.60842    8.94999    8.86258    2.18517   91.89673    0.31574    2.91535   98.74934    3.36148    8.50000 99000.00000
 1536.00000    8.58296    8.03387    8.36474    8.29462    2.18901   92.42516    0.32139    2.93767   98.43850    3.28571    8.50000 99000.00000
 1536.10000    8.57922    7.95130    8.36188    8.27095    2.19742   92.33800    0.32094    2.91528   99.52963    3.23931    8.50000 99000.00000
 1536.20000    8.57619    8.25154    8.81584    8.66733    2.19873   91.94151    0.32311    2.89729   99.29749    3.41722    8.50000 99000.00000
 1536.30000    8.57839    8.26998    8.80361    8.67364    2.20649   92.08181    0.32305    2.90583   99.77803    3.39750    8.50000 99000.00000
 1536.40000    8.58028    8.75686    9.24333    9.12522    2.20682   93.40955    0.32145    2.91896  100.51418    3.24137    8.50000 99000.00000
 1536.50000    8.57812    8.45228    8.91777    8.81695    2.20247   94.83401    0.32223    2.89876  101.63559    3.03703    8.50000 99000.00000
 1536.60000    8.57789    8.46408    8.89137    8.81977    2.20636   94.62263    0.32455    2.89189  101.31587    3.18397    8.50000 99000.00000
 1536.70000    8.57508    8.56750    8.96980    8.90695    2.21341   93.76395    0.32240    2.85648  102.30467    3.20230    8.50000 99000.00000
 1536.80000    8.57604    9.39662    9.68494    9.60382    2.21031   94.15050    0.32822    2.87210  102.27742    3.21438    8.50000 99000.00000
 1536.90000    8.57874    9.41545    9.71432    9.56516    2.21221   94.64739    0.33331    2.87833  102.38173    3.50001    8.50000 99000.00000
 1537.00000    8.57874   10.62374   10.63836   10.60244    2.22138   93.98591    0.33408    2.89215  101.94029    3.68695    8.50000 99000.00000
 1537.10000    8.57833    9.82980    9.55783    9.58505    2.22711   95.81729    0.33475    2.89807  101.79400    3.34835    8.50000 99000.00000
 1537.20000    8.57791   10.03043    9.76750    9.79185    2.22266   94.75146    0.33355    2.92028  101.06893    3.41179    8.50000 99000.00000
 1537.30000    8.57590    9.54434    9.32738    9.38222    2.22496   94.23856    0.33335    2.89813  100.95878    3.26452    8.50000 99000.00000
 1537.40000    8.57503    9.58453    9.30308    9.37736    2.22517   93.81548    0.33391    2.91760  100.37499    2.80644    8.50000 99000.00000
 1537.50000    8.57548    9.87678    9.49523    9.60534    2.22057   92.42152    0.32846    2.93733  100.26811    2.39222    8.50000 99000.00000
