~Version ---------------------------------------------------
VERS.   2.0 : CWLS log ASCII Standard -VERSION 2.0
WRAP.    NO : One line per depth step
DLM . SPACE : Column Data Section Delimiter
~Well ------------------------------------------------------
STRT.m          1000.00000 : START DEPTH
STOP.m          2000.00000 : STOP DEPTH
STEP.m             0.10000 : STEP
NULL.             -9999.25 : NULL VALUE
COMP. FORCE 2020 Recreator : 
WELL.   WELL_FORCE_2020_07 : 
FLD .                      : FIELD
LOC .                      : LOCATION
PROV.                      : PROVINCE
CNTY.                      : COUNTY
STAT.                      : STATE
CTRY.                      : COUNTRY
SRVC.                      : SERVICE COMPANY
DATE.                      : DATE
UWI .                      : UNIQUE WELL ID
API .                      : API NUMBER
~Curve Information -----------------------------------------
DEPT                            .m      : 
CALI                            .in     : 
RSHA                            .ohm.m  : 
RMED                            .ohm.m  : 
RDEP                            .ohm.m  : 
RHOB                            .g/cm3  : 
GR                              .gAPI   : 
NPHI                            .v/v    : 
PEF                             .b/e    : 
DTC                             .us/ft  : 
SP                              .mV     : 
BS                              .in     : 
FORCE_2020_LITHOFACIES_LITHOLOGY.code   : 
~Params ----------------------------------------------------
~Other -----------------------------------------------------
~ASCII -----------------------------------------------------
# ...
 1733.60000    8.56152   41.15779   41.77749   42.14597    2.68673   20.02360    0.10343    5.03633   60.21644   -6.37670    8.50000 70000.00000
 1733.70000    8.56109   40.64972   41.06170   41.43859    2.68651   20.33740    0.10336    5.04863   60.34377   -6.04164    8.50000 70000.00000
 1733.80000    8.56230   42.87632   43.35172   43.61333    2.68433   20.51165    0.10498    5.04082   60.30469   -6.02923    8.50000 70000.00000
 1733.90000    8.56750   45.49065   46.01242   46.40375    2.68493   20.37187    0.10525    5.03550   60.65039   -5.45881    8.50000 70000.00000
 1734.00000    8.56973   46.12552   46.30371   46.71361    2.68563   20.27883    0.10413    5.02943   60.50794   -5.52395    8.50000 70000.00000
 1734.10000    8.57382   46.17815   46.52073   46.87247    2.68612   20.53370    0.10382    5.02586   60.12499   -5.52731    8.50000 70000.00000
 1734.20000    8.57408   44.11074   44.15732   44.46493    2.68927   19.80064    0.10444    5.02699   59.71825   -5.35252    8.50000 70000.00000
 1734.30000    8.57138   48.20209   46.66632   47.28719    2.68719   19.64879    0.10493    5.02929   59.95215   -5.19176    8.50000 70000.00000
 1734.40000    8.57508   48.31035   46.73863   47.40509    2.68418   19.26406    0.10482    5.03064   59.84441   -5.02742    8.50000 70000.00000
 1734.50000    8.57649   53.79431   52.36100   53.77475    2.68041   18.79300    0.10416    5.03938   59.34636   -4.65642    8.50000 70000.00000
 1734.60000    8.57769   53.54480   51.97254   53.28233    2.68070   18.68198    0.10337    5.04267   58.95696   -4.83894    8.50000 70000.00000
 1734.70000    8.57757   53.30368   51.77505   53.10260    2.68141   18.52286    0.10474    5.06251   58.75409   -4.46567    8.50000 70000.00000
 1734.80000    8.58324   52.59064   51.11049   52.43516    2.68215   18.27134    0.10170    5.06730   58.63402   -4.39732    8.50000 70000.00000
 1734.90000    8.58384   52.85960   51.26508   52.60462    2.68548   18.93070    0.10118    5.06213   58.33930   -4.51125    8.50000 70000.00000
 1735.00000    8.58431   50.86308   49.34704   50.68584    2.68389   19.08533    0.10163    5.06713   58.46428   -4.26452    8.50000 70000.00000
 1735.10000    8.58558   50.96006   50.43473   51.59843    2.68089   19.41277    0.10166    5.07609   58.54659   -4.26582    8.50000 70000.00000
 1735.20000    8.58125   52.58839   51.96873   52.97413    2.68221   19.86435    0.09955    5.08331   58.32203   -4.23500    8.50000 70000.00000
 1735.30000    8.57881   52.42353   51.95669   53.00782    2.68461   19.42592    0.10103    5.08784   58.05628   -4.07882    8.50000 70000.00000
 1735.40000    8.57994   53.37702   52.95870   53.85678    2.68475   19.00976    0.10149    5.08108   58.06141   -3.93840    8.50000 70000.00000
 1735.50000    8.57734   53.83353   53.71432   54.42797    2.68389   19.30509    0.10190    5.08288   57.76806   -3.73539    8.50000 70000.00000
 1735.60000    8.57463   52.49640   52.07580   53.03268    2.68525   19.42311    0.10339    5.07446   58.12472   -3.77039    8.50000 70000.00000
 1735.70000    8.57787   50.77393   50.73266   51.66884    2.68484   19.39354    0.10156    5.08363   57.88553   -4.20460    8.50000 70000.00000
 1735.80000    8.57773   51.92370   51.70614   52.64739    2.68541   19.17562    0.10120    5.09248   57.76750   -4.46746    8.50000 70000.00000
 1735.90000    8.57977   49.47443   49.15860   50.18979    2.68581   18.98170    0.09976    5.09124   57.81539   -4.76252    8.50000 70000.00000
 1736.00000    8.57643   49.91432   49.23266   50.21642    2.68455   19.11148    0.10154    5.10082   57.70878   -5.09665    8.50000 70000.00000
 1736.10000    8.57841   52.21394   51.72518   52.80105    2.68380   18.78669    0.10272    5.10219   57.72676   -5.15055    8.50000 70000.00000
 1736.20000    8.57694   57.87554   56.40637   57.74068    2.68746   18.92841    0.10146    5.10049   57.49036   -4.90013    8.50000 70000.00000
 1736.30000    8.57711   62.45086   60.05499   61.66445    2.68500   19.20830    0.09916    5.09202   57.31948   -4.73577    8.50000 70000.00000
 1736.40000    8.57945   57.75384   55.85768   57.28706    2.68771   19.59704    0.09603    5.08758   57.45131   -4.99381    8.50000 70000.00000
 1736.50000    8.57578   57.97868   55.60100   57.03076    2.69146   19.51398    0.09631    5.06593   57.64727   -5.13066    8.50000 70000.00000
 1736.60000    8.57743   53.03339   50.98917   51.55921    2.69552   19.99984    0.09418    5.06010   57.49949   -5.48104    8.50000 70000.00000
 1736.70000    8.57623   52.24250   50.09266   50.78258    2.69672   20.45701    0.09478    5.05225   57.75843   -5.70082    8.50000 70000.00000
 1736.80000    8.57897   54.24181   52.08687   52.75891    2.69669   20.57408    0.09569    5.06339   57.84503   -5.97980    8.50000 70000.00000
 1736.90000    8.57586   52.84420   50.35356   51.03992    2.69900   21.12268    0.09896    5.05378   57.51833   -5.81913    8.50000 70000.00000
 1737.00000    8.57635   54.87815   52.71736   53.16359    2.69130   20.35215    0.09858    5.05449   57.41038   -6.01580    8.50000 70000.00000
 1737.10000    8.57795   55.03353   53.38971   53.65105    2.69423   20.00092    0.09882    5.05875   57.12102   -6.20052    8.50000 70000.00000
 1737.20000    8.57837   52.94608   50.46658   50.84422    2.69554   20.00386    0.09995    5.04733   57.17716   -5.83682    8.50000 70000.00000
 1737.30000    8.57848   50.26068   48.11043   48.49346    2.69393   19.46099    0.10321    5.04445   57.00042   -5.53340    8.50000 70000.00000
 1737.40000    8.57931   52.27969   50.54525   50.77661    2.69134   19.93663    0.10281    5.03745   57.00220   -5.52762    8.50000 70000.00000
 1737.50000    8.57961   50.87389   48.71767   49.28665    2.69285   20.31415    0.10240    5.04794   57.11853   -5.63253    8.50000 70000.00000
 1737.60000    8.57663   51.25663   49.05839   49.59183    2.69134   20.19407    0.10145    5.05367   57.24582   -5.31957    8.50000 70000.00000
 1737.70000    8.57809   55.22000   52.46092   53.17670    2.68994   20.39579    0.10134    5.07018   56.91600   -5.80159    8.50000 70000.00000
 1737.80000    8.57886   59.36794   56.37775   56.96653    2.68957   20.64906    0.10224    5.07272   57.04458   -5.38376    8.50000 70000.00000
 1737.90000    8.57772   59.40506   56.79824   57.26213    2.68995   20.58787    0.09906    5.06840   57.35702   -5.10784    8.50000 70000.00000
 1738.00000    8.57876   61.96875   59.29398   59.99162    2.68809   20.67075    0.10162    5.07415   57.91244   -4.88925    8.50000 70000.00000
 1738.10000    8.58126   60.69720   58.79127   59.14235    2.68836   20.44386    0.09988    5.06980   57.54165   -4.87531    8.50000 70000.00000
 1738.20000    8.57904   58.72199   56.80896   56.97708    2.69098   20.33917    0.10041    5.05269   57.32932   -4.38707    8.50000 70000.00000
 1738.30000    8.58000   54.33502   53.26338   53.38735    2.68710   19.96020    0.10230    5.05151   57.66580   -4.12885    8.50000 70000.00000
 1738.40000    8.58108   51.27472   50.77225   50.73730    2.68782   19.51764    0.10401    5.05874   58.37770   -4.53075    8.50000 70000.00000
 1738.50000    8.58140   49.10361   48.74376   48.77507    2.68677   19.09034    0.10610    5.04538   58.54273   -4.69550    8.50000 70000.00000
 1738.60000    8.58069   48.78808   48.88799   48.75181    2.68144   19.61517    0.10499    5.08164   58.27798   -4.45859    8.50000 70000.00000
 1738.70000    8.57862   49.57405   49.01973   49.06476    2.68145   19.39829    0.10751    5.07995   58.78706   -4.35705    8.50000 70000.00000
 1738.80000    8.57878   50.27904   49.92437   49.88102    2.68036   19.18086    0.10784    5.09124   58.63219   -4.31903    8.50000 70000.00000
 1738.90000    8.58003   50.22568   50.06162   49.94578    2.67844   18.91401    0.10675    5.08722   58.69278   -3.97376    8.50000 70000.00000
 1739.00000    8.57881   51.06316   50.86837   50.77851    2.67759   18.92216    0.10673    5.10504   59.34999   -4.49870    8.50000 70000.00000
 1739.10000    8.57777   48.68168   48.14341   48.39238    2.68434   19.18636    0.10737    5.10779   59.05957   -4.18040    8.50000 70000.00000
