~Version ---------------------------------------------------
VERS.   2.0 : CWLS log ASCII Standard -VERSION 2.0
WRAP.    NO : One line per depth step
DLM . SPACE : Column Data Section Delimiter
~Well ------------------------------------------------------
STRT.m          1000.00000 : START DEPTH
STOP.m          2000.00000 : STOP DEPTH
STEP.m             0.10000 : STEP
NULL.             -9999.25 : NULL VALUE
COMP. FORCE 2020 Recreator : 
WELL.   WELL_FORCE_2020_05 : 
FLD .                      : FIELD
LOC .                      : LOCATION
PROV.                      : PROVINCE
CNTY.                      : COUNTY
STAT.                      : STATE
CTRY.                      : COUNTRY
SRVC.                      : SERVICE COMPANY
DATE.                      : DATE
UWI .                      : UNIQUE WELL ID
API .                      : API NUMBER
~Curve Information -----------------------------------------
DEPT                            .m      : 
CALI                            .in     : 
RSHA                            .ohm.m  : 
RMED                            .ohm.m  : 
RDEP                            .ohm.m  : 
RHOB                            .g/cm3  : 
GR                              .gAPI   : 
NPHI                            .v/v    : 
PEF                             .b/e    : 
DTC                             .us/ft  : 
SP                              .mV     : 
BS                              .in     : 
FORCE_2020_LITHOFACIES_LITHOLOGY.code   : 
~Params ----------------------------------------------------
~Other -----------------------------------------------------
~ASCII -----------------------------------------------------
# ...
 1666.30000    8.58304   46.91590   46.80939   47.62496    2.68744   19.77137    0.10285   -9999.25   58.72351   -4.19500    8.50000 70000.00000
 1666.40000    8.58252   45.37300   45.07825   45.87151    2.68608   20.11080    0.10182   -9999.25   59.14548   -4.08303    8.50000 70000.00000
 1666.50000    8.58100   43.41892   43.71303   44.50869    2.68551   20.25703    0.09979   -9999.25   59.34026   -4.18079    8.50000 70000.00000
 1666.60000    8.58413   45.35151   45.26440   45.96765    2.68470   20.61216    0.10025   -9999.25   59.01054   -4.29118    8.50000 70000.00000
 1666.70000    8.58645   47.82651   47.73308   48.56655    2.68572   20.19226    0.09908   -9999.25   59.14378   -4.28453    8.50000 70000.00000
 1666.80000    8.58843   45.62841   45.36506   46.10804    2.68780   20.62175    0.09971   -9999.25   59.30469   -3.92219    8.50000 70000.00000
 1666.90000    8.58609   47.68935   47.46573   47.91697    2.68299   20.69324    0.10067   -9999.25   59.30248   -4.25979    8.50000 70000.00000
 1667.00000    8.58317   55.42860   55.16847   55.02404    2.67971   20.56138    0.10309   -9999.25   58.89577   -4.76518    8.50000 70000.00000
 1667.10000    8.58181   53.35302   53.54973   52.89348    2.67880   20.86912    0.10220   -9999.25   58.04779   -4.83352    8.50000 70000.00000
 1667.20000    8.58004   58.31583   60.05028   59.37099    2.67556   21.39059    0.10190   -9999.25   57.96851   -5.00335    8.50000 70000.00000
 1667.30000    8.58000   61.65201   62.91762   62.11250    2.67670   21.51424    0.10196   -9999.25   58.10038   -4.99778    8.50000 70000.00000
 1667.40000    8.58148   62.29833   63.76972   63.07063    2.67665   20.83629    0.10057   -9999.25   58.01603   -5.28245    8.50000 70000.00000
 1667.50000    8.57757   64.21756   65.72942   64.99045    2.67569   21.57123    0.09939   -9999.25   58.10175   -5.73467    8.50000 70000.00000
 1667.60000    8.57969   65.46341   67.20615   66.41600    2.67833   21.67355    0.09982   -9999.25   58.18954   -5.23077    8.50000 70000.00000
 1667.70000    8.58297   66.98907   68.49415   67.65954    2.67579   21.62388    0.10044   -9999.25   58.38735   -5.55966    8.50000 70000.00000
 1667.80000    8.58323   76.86471   78.64321   77.46751    2.67661   21.31520    0.10009   -9999.25   58.15141   -5.44898    8.50000 70000.00000
 1667.90000    8.58654   76.40621   78.03052   76.81316    2.67462   21.67913    0.09829   -9999.25   58.18193   -5.62951    8.50000 70000.00000
 1668.00000    8.58469   74.49967   76.01792   74.62010    2.67633   21.37927    0.09803   -9999.25   58.09583   -6.02112    8.50000 70000.00000
 1668.10000    8.58751   67.61465   69.11076   67.75051    2.67656   21.26706    0.09775   -9999.25   58.01726   -6.24088    8.50000 70000.00000
 1668.20000    8.58863   67.69451   69.24553   67.99186    2.67130   21.14460    0.09661   -9999.25   58.00822   -6.19157    8.50000 70000.00000
 1668.30000    8.58733   65.89718   67.57614   66.37507    2.67469   21.18022    0.09735   -9999.25   57.55827   -6.04985    8.50000 70000.00000
 1668.40000    8.58644   64.75770   66.24377   65.10384    2.67216   21.06783    0.10011   -9999.25   57.57898   -5.72768    8.50000 70000.00000
 1668.50000    8.58337   70.22414   70.91758   70.28285    2.67266   20.69558    0.10125   -9999.25   57.41223   -5.98183    8.50000 70000.00000
 1668.60000    8.58180   76.78253   77.17598   76.51957    2.67405   20.89472    0.10224   -9999.25   57.47435   -5.75420    8.50000 70000.00000
 1668.70000    8.58116   77.52737   78.23404   77.78835    2.67200   20.61250    0.10188   -9999.25   57.61690   -5.57981    8.50000 70000.00000
 1668.80000    8.58004   76.84265   77.38263   76.93865    2.67047   20.61953    0.10275   -9999.25   57.50997   -5.64807    8.50000 70000.00000
 1668.90000    8.58074   78.11529   78.52163   78.14477    2.66994   20.60982    0.10083   -9999.25   57.31469   -5.92815    8.50000 70000.00000
 1669.00000    8.58283   78.07183   79.10273   78.85145    2.67458   20.84793    0.09872   -9999.25   57.36022   -5.77945    8.50000 70000.00000
 1669.10000    8.58639   69.55169   70.64339   70.92041    2.68384   20.91306    0.09689   -9999.25   57.44975   -5.21486    8.50000 70000.00000
 1669.20000    8.58771   68.58208   69.97717   70.22922    2.68797   20.85476    0.09732   -9999.25   57.77768   -4.67765    8.50000 70000.00000
 1669.30000    8.58508   67.26375   67.06562   67.24975    2.69531   20.78260    0.09626   -9999.25   57.60284   -4.64286    8.50000 70000.00000
 1669.40000    8.58255   63.25893   63.23726   63.59863    2.69830   20.84533    0.09303   -9999.25   57.30639   -4.40698    8.50000 70000.00000
 1669.50000    8.58023   62.08090   61.58347   61.82877    2.70691   21.61014    0.09065   -9999.25   57.12517   -4.01858    8.50000 70000.00000
 1669.60000    8.58204   60.51053   61.31823   61.20151    2.71324   21.57525    0.08783   -9999.25   57.16343   -3.32989    8.50000 70000.00000
 1669.70000    8.58305   69.55120   70.30296   69.63632    2.71725   21.80761    0.08531   -9999.25   56.88724   -3.13680    8.50000 70000.00000
 1669.80000    8.58114   72.05133   72.10165   71.96024    2.73037   22.39872    0.08352   -9999.25   56.18078   -2.70716    8.50000 70000.00000
 1669.90000    8.58390   62.78110   62.87699   63.05181    2.73791   23.04078    0.08125   -9999.25   56.11423   -2.05698    8.50000 70000.00000
 1670.00000    8.58502   62.99754   63.09300   63.29539    2.74556   22.73359    0.07887   -9999.25   55.71363   -1.61475    8.50000 70000.00000
 1670.10000    8.58456   63.50095   63.36881   63.56444    2.75135   23.56392    0.07670   -9999.25   55.21241   -1.28345    8.50000 74000.00000
 1670.20000    8.58185   62.83648   62.54949   62.73214    2.75711   23.94080    0.07367   -9999.25   54.99229   -0.71178    8.50000 74000.00000
 1670.30000    8.58264   63.86236   63.42447   63.53398    2.76629   24.42337    0.07220   -9999.25   54.51895   -0.42225    8.50000 74000.00000
 1670.40000    8.58300   67.80894   67.17029   67.09712    2.76918   24.49436    0.07050   -9999.25   54.32232    0.06577    8.50000 74000.00000
 1670.50000    8.58211   68.79978   68.05804   68.13953    2.77628   25.07583    0.06856   -9999.25   54.19230    0.06667    8.50000 74000.00000
 1670.60000    8.58413   70.12012   69.89461   69.46095    2.78323   25.61450    0.06732   -9999.25   53.64274    0.49711    8.50000 74000.00000
 1670.70000    8.58830   75.08414   75.73060   75.53509    2.78895   26.12282    0.06659   -9999.25   52.94236    0.77793    8.50000 74000.00000
 1670.80000    8.58798   76.15964   77.40167   76.69661    2.79828   26.39225    0.06630   -9999.25   52.59100    1.16649    8.50000 74000.00000
 1670.90000    8.58766   77.46358   78.08777   77.63356    2.80529   26.78253    0.06470   -9999.25   52.13827    1.49883    8.50000 74000.00000
 1671.00000    8.58799   78.80389   79.92298   79.52657    2.80995   26.71689    0.06263   -9999.25   52.00083    1.74239    8.50000 74000.00000
 1671.10000    8.58913   92.50265   92.07056   91.16703    2.81329   27.09998    0.06004   -9999.25   51.55695    2.14222    8.50000 74000.00000
 1671.20000    8.58591   93.05588   92.56992   91.78796    2.81323   27.26546    0.05862   -9999.25   51.38574    2.54176    8.50000 74000.00000
 1671.30000    8.58818   95.60487   96.41274   95.40771    2.82073   27.05443    0.05656   -9999.25   51.67751    2.30907    8.50000 74000.00000
 1671.40000    8.59150   91.56986   92.86674   91.84803    2.82152   26.79545    0.05411   -9999.25   51.59017    2.70709    8.50000 74000.00000
 1671.50000    8.59536   93.88798   95.39885   94.36803    2.82781   27.05152    0.05501   -9999.25   51.63990    2.87667    8.50000 74000.00000
 1671.60000    8.59624   97.06368   98.47314   97.37767    2.82364   26.63076    0.05537   -9999.25   51.60038    2.60947    8.50000 74000.00000
 1671.70000    8.59396  101.32141  101.73213  100.18339    2.82421   26.05933    0.05735   -9999.25   51.20682    2.65429    8.50000 74000.00000
 1671.80000    8.59195   95.31856   94.59229   93.62629    2.82406   26.47582    0.05696   -9999.25   51.19073    2.67602    8.50000 74000.00000
