~Version ---------------------------------------------------
VERS.   2.0 : CWLS log ASCII Standard -VERSION 2.0
WRAP.    NO : One line per depth step
DLM . SPACE : Column Data Section Delimiter
~Well ------------------------------------------------------
STRT.m          1000.00000 : START DEPTH
STOP.m          2000.00000 : STOP DEPTH
STEP.m             0.10000 : STEP
NULL.             -9999.25 : NULL VALUE
COMP. FORCE 2020 Recreator : 
WELL.   WELL_FORCE_2020_06 : 
FLD .                      : FIELD
LOC .                      : LOCATION
PROV.                      : PROVINCE
CNTY.                      : COUNTY
STAT.                      : STATE
CTRY.                      : COUNTRY
SRVC.                      : SERVICE COMPANY
DATE.                      : DATE
UWI .                      : UNIQUE WELL ID
API .                      : API NUMBER
~Curve Information -----------------------------------------
DEPT                            .m      : 
CALI                            .in     : 
RSHA                            .ohm.m  : 
RMED                            .ohm.m  : 
RDEP                            .ohm.m  : 
RHOB                            .g/cm3  : 
GR                              .gAPI   : 
NPHI                            .v/v    : 
PEF                             .b/e    : 
DTC                             .us/ft  : 
SP                              .mV     : 
BS                              .in     : 
FORCE_2020_LITHOFACIES_LITHOLOGY.code   : 
~Params ----------------------------------------------------
~Other -----------------------------------------------------
~ASCII -----------------------------------------------------
# ...
 1929.50000    9.94653    2.67696    2.71204    2.62737    2.46111  115.57703    0.36137    3.38037  109.56214    4.76238    8.50000 65000.00000
 1929.60000    9.94474    2.71129    2.73209    2.64191    2.46682  115.63269    0.36220    3.38127  109.19436    4.72313    8.50000 65000.00000
 1929.70000    9.95061    2.78085    2.83120    2.74728    2.47764  116.18083    0.35917    3.39081  109.36735    4.66225    8.50000 65000.00000
 1929.80000    9.94128    2.81415    2.89764    2.80568    2.47662  115.81354    0.35980    3.40156  108.62740    4.94835    8.50000 65000.00000
 1929.90000    9.93665    2.76950    2.84817    2.75690    2.47922  114.96057    0.35862    3.39982  108.97473    4.99293    8.50000 65000.00000
 1930.00000    9.95095    2.71008    2.81477    2.72180    2.47601  114.96673    0.35823    3.41080  108.84205    5.10984    8.50000 65000.00000
 1930.10000    9.94638    2.74732    2.85697    2.76005    2.47567  114.10981    0.35528    3.39772  108.65087    5.27992    8.50000 65000.00000
 1930.20000    9.97803    2.73717    2.85773    2.75437    2.48225  113.84050    0.35793    3.42950  107.87853    5.33727    8.50000 65000.00000
 1930.30000    9.95793    2.81598    2.94355    2.84341    2.48543  113.76555    0.35655    3.43792  107.22612    5.60346    8.50000 65000.00000
 1930.40000    9.94068    2.91811    3.00684    2.91974    2.48585  113.64978    0.35585    3.42232  107.42786    5.30395    8.50000 65000.00000
 1930.50000    9.91869    2.95428    3.00983    2.92632    2.48314  113.67857    0.35600    3.39801  108.04047    5.33649    8.50000 65000.00000
 1930.60000    9.90163    2.95802    3.01429    2.93472    2.48399  113.08338    0.35519    3.36824  108.07007    5.51294    8.50000 65000.00000
 1930.70000    9.89255    2.83746    2.87860    2.82538    2.48715  114.36637    0.35459    3.35754  107.76072    5.68399    8.50000 65000.00000
 1930.80000    9.92175    2.81385    2.84428    2.80259    2.48617  115.19931    0.35488    3.36871  107.14925    5.68706    8.50000 65000.00000
 1930.90000    9.89456    2.85254    2.89598    2.85164    2.48717  115.69554    0.35431    3.38420  107.26584    5.65939    8.50000 65000.00000
 1931.00000    9.87500    2.82429    2.87639    2.84879    2.48820  114.89998    0.35646    3.38728  106.78638    5.57326    8.50000 65000.00000
 1931.10000    9.87739    2.83210    2.86246    2.83784    2.49244  115.31336    0.35320    3.38849  107.40207    5.34844    8.50000 65000.00000
 1931.20000    9.88311    2.76066    2.80107    2.78246    2.49510  115.60651    0.35234    3.38978  107.85870    5.09037    8.50000 65000.00000
 1931.30000    9.80880    2.98656    3.00448    3.01146    2.49371  113.07937    0.35369    3.34994  108.30414    4.15576    8.50000 65000.00000
 1931.40000    9.76267    3.03882    3.09000    3.09023    2.49097  111.81181    0.34722    3.30287  108.93122    3.09488    8.50000 65000.00000
 1931.50000    9.69197    3.34061    3.37460    3.34363    2.48375  109.03136    0.34075    3.27502  108.79108    1.85586    8.50000 65000.00000
 1931.60000    9.63421    3.35634    3.40187    3.36518    2.48438  106.07294    0.33598    3.22837  107.25878    0.76733    8.50000 65000.00000
 1931.70000    9.57892    3.66900    3.71437    3.67293    2.47998  104.15515    0.33250    3.20644  107.17581   -0.08549    8.50000 65000.00000
 1931.80000    9.52937    3.74230    3.76420    3.71307    2.46680  102.82175    0.33090    3.16026  106.46241   -1.26455    8.50000 65000.00000
 1931.90000    9.47465    3.96533    3.92727    3.88939    2.46470  101.07603    0.32354    3.11045  105.97193   -2.58174    8.50000 65000.00000
 1932.00000    9.40708    4.11406    4.06783    4.02938    2.45405  100.33923    0.31593    3.07838  104.90120   -3.62774    8.50000 65000.00000
 1932.10000    9.32907    4.21316    4.15823    4.12154    2.44953   99.03475    0.31309    3.03416  104.34871   -4.81499    8.50000 65000.00000
 1932.20000    9.27135    4.27915    4.22783    4.18293    2.44889   97.97411    0.31066    3.00630  104.02690   -5.50162    8.50000 65000.00000
 1932.30000    9.18998    4.34152    4.27436    4.24342    2.43477   96.69811    0.30597    2.95800  104.20215   -6.90064    8.50000 65030.00000
 1932.40000    9.14884    4.62350    4.44465    4.42950    2.43284   94.57454    0.30054    2.91308  103.68354   -7.98820    8.50000 65030.00000
 1932.50000    9.07810   -9999.25    4.76382    4.75564    2.42680   93.02205    0.29821    2.89846  103.50696   -8.40502    8.50000 65030.00000
 1932.60000    9.02060    5.51240    5.34923    5.34494    2.42530   90.69730    0.29191    2.88258  101.90210   -9.44489    8.50000 65030.00000
 1932.70000    8.97586    5.73175    5.58206    5.58089    2.42158   88.28736    0.28738    2.84951  100.86633  -10.29030    8.50000 65030.00000
 1932.80000    8.91090    6.09130    5.91279    5.93179    2.41294   85.31341    0.28048    2.80167  100.44239  -11.16361    8.50000 65030.00000
 1932.90000    8.84027    6.56156    6.41514    6.42245    2.41232   84.19738    0.27454    2.75419   99.59839  -12.08578    8.50000 65030.00000
 1933.00000    8.78209    7.13375    6.94744    6.96250    2.40839   81.90972    0.26419    2.72646   98.86998  -12.76020    8.50000 65030.00000
 1933.10000    8.72995    7.12729    6.93106    6.96522    2.40745   81.21293    0.25714    2.71183   98.71831  -13.79131    8.50000 65030.00000
 1933.20000    8.66169    7.21690    7.05182    7.09040    2.40143   78.81537    0.25330    2.67915   98.00582  -13.92711    8.50000 65030.00000
 1933.30000    8.57995    7.42039    7.24372    7.26458    2.39289   77.32941    0.24819    2.64680   95.79749  -14.35788    8.50000 65030.00000
 1933.40000    8.57944    7.40592    7.25196    7.25846    2.39345   75.52284    0.24175    2.65874   95.25539  -14.03283    8.50000 65030.00000
 1933.50000    8.57827    7.59878    7.36282    7.37222    2.39060   74.83443    0.24092    2.67078   93.96063  -14.05333    8.50000 65030.00000
 1933.60000    8.57684    7.52281    7.26832    7.30134    2.39588   74.88357    0.23901    2.67539   93.85450  -14.21349    8.50000 65030.00000
 1933.70000    8.57527    7.47991    7.21811    7.25535    2.39213   75.87782    0.24152    2.68646   94.69426  -14.02645    8.50000 65030.00000
 1933.80000    8.57449    7.30767    7.05605    7.08932    2.39217   75.51016    0.24219    2.68425   94.59045  -14.17037    8.50000 65030.00000
 1933.90000    8.57012    7.85838    7.53641    7.60441    2.39871   74.92696    0.23852    2.69589   94.47553  -14.22820    8.50000 65030.00000
 1934.00000    8.56916    7.66858    7.36541    7.43103    2.39905   74.77575    0.23948    2.69108   94.00364  -13.67021    8.50000 65030.00000
 1934.10000    8.56960    8.22790    7.83415    7.88309    2.40239   74.21571    0.23906    2.70373   93.76167  -13.27042    8.50000 65030.00000
 1934.20000    8.57174    8.36247    7.93474    7.99669    2.40223   74.80778    0.23912    2.70910   93.57457  -13.32074    8.50000 65030.00000
 1934.30000    8.57132    8.61479    8.14976    8.24676    2.39113   74.58437    0.23886    2.70554   93.45335  -13.62807    8.50000 65030.00000
 1934.40000    8.57071    9.02339    8.54737    8.66567    2.39587   74.43479    0.23501    2.68054   93.19939  -13.32698    8.50000 65030.00000
 1934.50000    8.57073    8.66422    8.29961    8.41887    2.39462   75.27032    0.23647    2.68630   92.80694  -13.51572    8.50000 65030.00000
 1934.60000    8.56856    8.82906    8.49006    8.57010    2.39947   75.70188    0.23937    2.69491   92.08098  -13.61763    8.50000 65030.00000
 1934.70000    8.56836    8.29941    7.99693    8.05191    2.39792   76.90137    0.24059    2.69143   92.26181  -13.88205    8.50000 65030.00000
 1934.80000    8.56977    8.17277    7.86467    7.92069    2.40072   76.97438    0.24144    2.71460   92.42513  -13.93844    8.50000 65030.00000
 1934.90000    8.56948    7.94964    7.65571    7.70815    2.40804   76.40028    0.24354    2.70490   92.11738  -13.82650    8.50000 65030.00000
 1935.00000    8.56545    7.86619    7.56693    7.58205    2.40260   74.86157    0.24456    2.68890   92.50674  -13.95082    8.50000 65030.00000
