~Version ---------------------------------------------------
VERS.   2.0 : CWLS log ASCII Standard -VERSION 2.0
WRAP.    NO : One line per depth step
DLM . SPACE : Column Data Section Delimiter
~Well ------------------------------------------------------
STRT.m          1000.00000 : START DEPTH
STOP.m          2000.00000 : STOP DEPTH
STEP.m             0.10000 : STEP
NULL.             -9999.25 : NULL VALUE
COMP. FORCE 2020 Recreator : 
WELL.   WELL_FORCE_2020_03 : 
FLD .                      : FIELD
LOC .                      : LOCATION
PROV.                      : PROVINCE
CNTY.                      : COUNTY
STAT.                      : STATE
CTRY.                      : COUNTRY
SRVC.                      : SERVICE COMPANY
DATE.                      : DATE
UWI .                      : UNIQUE WELL ID
API .                      : API NUMBER
~Curve Information -----------------------------------------
DEPT                            .m      : 
CALI                            .in     : 
RSHA                            .ohm.m  : 
RMED                            .ohm.m  : 
RDEP                            .ohm.m  : 
RHOB                            .g/cm3  : 
GR                              .gAPI   : 
NPHI                            .v/v    : 
PEF                             .b/e    : 
DTC                             .us/ft  : 
SP                              .mV     : 
BS                              .in     : 
FORCE_2020_LITHOFACIES_LITHOLOGY.code   : 
~Params ----------------------------------------------------
~Other -----------------------------------------------------
~ASCII -----------------------------------------------------
# ...
 1862.10000    8.58571  108.42160  109.58952  112.63252    2.82706   23.69614    0.06175    3.11381   51.90846    1.46759    8.50000 74000.00000
 1862.20000    8.58725  106.79045  108.72180  111.75652    2.82432   23.83229    0.06206    3.10953   52.22897    1.48276    8.50000 74000.00000
 1862.30000    8.58663  109.48014  110.91471  114.09693    2.82232   23.94647    0.06109    3.10941   52.05822    1.31678    8.50000 74000.00000
 1862.40000    8.58385  105.12744  110.28150  112.71299    2.82134   24.00691    0.05897    3.10511   52.02780    1.40663    8.50000 74000.00000
 1862.50000    8.58159  102.21384  106.98311  109.86218    2.82305   23.81240    0.05990    3.10105   51.95531    1.34262    8.50000 74000.00000
 1862.60000    8.58177  113.39114  118.12073  120.34298    2.82057   24.07938    0.06074    3.11500   52.16185    1.69452    8.50000 74000.00000
 1862.70000    8.58362   96.22074  101.24595  103.26640    2.82543   24.68027    0.05906    3.12525   51.97646    1.98742    8.50000 74000.00000
 1862.80000    8.58284   95.61401  100.74271  102.71443    2.82719   25.33436    0.05903    3.13012   51.96108    1.81883    8.50000 74000.00000
 1862.90000    8.58571   88.89771   94.17174   95.43488    2.82828   25.56506    0.05759    3.12378   52.39887    1.59394    8.50000 74000.00000
 1863.00000    8.58195   88.70035   93.76484   95.05538    2.82644   25.52352    0.05689    3.12398   52.40531    1.76933    8.50000 74000.00000
 1863.10000    8.58189   88.47875   93.57336   94.63540    2.82353   25.76491    0.05762    3.12929   52.31767    1.07391    8.50000 74000.00000
 1863.20000    8.58033   88.93961   94.19135   95.42626    2.82741   26.16171    0.05778    3.13169   52.66403    1.27816    8.50000 74000.00000
 1863.30000    8.57986   81.47055   84.81145   85.89291    2.82850   26.34175    0.05742    3.13145   52.51602    1.53498    8.50000 74000.00000
 1863.40000    8.57828   88.94598   92.61990   93.43251    2.82776   26.59399    0.05755    3.13639   52.51537    1.64275    8.50000 74000.00000
 1863.50000    8.57754   74.10558   76.82557   77.09877    2.83252   27.09422    0.05782    3.13777   52.42170    1.74782    8.50000 74000.00000
 1863.60000    8.57711   75.95076   78.76596   79.03665    2.82764   27.13676    0.05831    3.14568   52.56806    1.58446    8.50000 74000.00000
 1863.70000    8.57776   69.81233   71.87514   72.26368    2.83143   27.29186    0.06013    3.14116   52.82535    1.22957    8.50000 74000.00000
 1863.80000    8.58319   58.97637   60.20684   59.95426    2.83094   27.12183    0.05945    3.13697   52.73695    1.41205    8.50000 74000.00000
 1863.90000    8.58258   58.90523   60.19376   59.98118    2.82937   27.01251    0.06221    3.14411   52.90736    1.28026    8.50000 74000.00000
 1864.00000    8.58495   58.19195   59.05327   58.52249    2.82747   26.32847    0.06219    3.15157   53.20327    1.31810    8.50000 74000.00000
 1864.10000    8.58426   60.15272   61.82769   61.15031    2.82735   25.89828    0.06124    3.16088   53.20947    1.51357    8.50000 74000.00000
 1864.20000    8.58298   62.89987   63.86526   63.49893    2.82714   26.00688    0.06009    3.15477   53.47242    0.96350    8.50000 74000.00000
 1864.30000    8.58165   63.62191   64.49151   64.02413    2.82991   25.35501    0.05999    3.15107   53.18245    0.79266    8.50000 74000.00000
 1864.40000    8.58349   60.98084   62.50416   61.79895    2.82892   25.48840    0.06096    3.14659   53.04121    0.66567    8.50000 74000.00000
 1864.50000    8.58312   56.39623   57.44066   56.61310    2.83097   24.88579    0.06166    3.15241   53.20112    0.57495    8.50000 74000.00000
 1864.60000    8.58138   63.11016   64.11806   62.93599    2.83099   25.64382    0.06034    3.15537   53.22114    0.51431    8.50000 74000.00000
 1864.70000    8.58247   55.63281   56.27663   55.86958    2.82736   25.11094    0.06028    3.15634   53.01355    0.36649    8.50000 74000.00000
 1864.80000    8.58326   63.08546   64.00262   64.29621    2.82403   24.76702    0.06065    3.14231   53.15101   -0.29659    8.50000 74000.00000
 1864.90000    8.57998   65.34575   66.17947   66.45326    2.82549   24.35314    0.06172    3.14311   53.08953    0.05512    8.50000 74000.00000
 1865.00000    8.58115   71.50073   72.49272   73.06093    2.82977   24.46038    0.06163    3.14522   52.79747    0.28673    8.50000 74000.00000
 1865.10000    8.58167   76.00705   77.98902   78.01911    2.82777   24.32577    0.06120    3.14224   52.88576    0.35379    8.50000 74000.00000
 1865.20000    8.58138   77.64739   79.28527   79.38833    2.82825   24.57327    0.06281    3.15059   52.45313    0.94527    8.50000 74000.00000
 1865.30000    8.58319   76.79525   78.66203   78.43749    2.82362   24.34108    0.06165    3.15451   51.97034    1.28692    8.50000 74000.00000
 1865.40000    8.58319   86.60616   89.23873   88.56055    2.82412   25.27182    0.06246    3.15503   51.93602    0.98721    8.50000 74000.00000
 1865.50000    8.58179   81.89163   84.27367   83.73726    2.82296   25.22291    0.06164    3.15130   51.84464    1.37657    8.50000 74000.00000
 1865.60000    8.58183   94.21557   96.93372   95.68518    2.82145   25.23936    0.06099    3.14455   51.61258    1.33194    8.50000 74000.00000
 1865.70000    8.58025  108.21736  108.49316  107.10085    2.81945   24.68094    0.06031    3.14519   51.66099    1.46479    8.50000 74000.00000
 1865.80000    8.58101  108.42830  108.70278  107.24074    2.81868   24.58930    0.06150    3.14842   51.64233    1.63131    8.50000 74000.00000
 1865.90000    8.58135  112.01300  112.59850  111.37141    2.82157   24.28373    0.06220    3.15116   51.64698    1.86954    8.50000 74000.00000
 1866.00000    8.58115  113.18394  114.02403  112.99645    2.81834   24.24170    0.06176    3.14458   51.14662    2.03285    8.50000 74000.00000
 1866.10000    8.58206  127.87754  131.88573  132.34223    2.81620   24.65725    0.06169    3.14107   50.55578    1.77119    8.50000 74000.00000
 1866.20000    8.58225  126.67035  130.59383  130.94062    2.81233   24.76754    0.06172    3.14030   50.45760    1.87403    8.50000 74000.00000
 1866.30000    8.58265  128.62427  134.60967  134.47211    2.80908   24.53026    0.06258    3.14884   50.21686    2.32785    8.50000 74000.00000
 1866.40000    8.58077  129.82746  135.76835  135.92041    2.80957   24.53794    0.06389    3.14930   50.32221    2.37839    8.50000 74000.00000
 1866.50000    8.58172  129.93287  135.87971  136.05670    2.81442   24.30214    0.06362    3.14833   50.40861    2.47220    8.50000 74000.00000
 1866.60000    8.58333  128.58822  133.03953  133.82913    2.80905   24.92229    0.06405    3.14174   50.48493    2.86979    8.50000 74000.00000
 1866.70000    8.58438  123.68126  128.38876  129.59001    2.80854   24.51453    0.06350    3.13574   50.44811    3.01212    8.50000 74000.00000
 1866.80000    8.58158  120.93341  125.89045  127.06561    2.81394   25.52231    0.06303    3.13315   50.85057    2.82006    8.50000 74000.00000
 1866.90000    8.57890  115.56995  120.19392  120.55790    2.81536   25.52132    0.06190    3.13605   51.03366    2.62197    8.50000 74000.00000
 1867.00000    8.58317  113.47028  118.07377  118.38418    2.81135   25.32180    0.05888    3.13066   51.16904    2.44554    8.50000 74000.00000
 1867.10000    8.58086  138.10604  147.78010  146.22382    2.81115   24.79839    0.05860    3.13364   51.09202    2.16739    8.50000 74000.00000
 1867.20000    8.58141  133.53413  142.32478  141.39189    2.81226   24.94333    0.05869    3.13701   50.86885    2.49205    8.50000 74000.00000
 1867.30000    8.57984  136.44701  145.35770  144.71249    2.81234   24.53249    0.05554    3.12934   50.89409    2.51961    8.50000 74000.00000
 1867.40000    8.57953  135.72903  144.49369  144.01130    2.81224   24.74411    0.05575    3.12544   51.28981    1.91792    8.50000 74000.00000
 1867.50000    8.58031  125.35805  133.60174  133.48305    2.81059   23.74653    0.05555    3.13380   51.40813    2.00094    8.50000 74000.00000
 1867.60000    8.58199  123.50713  131.63905  131.48957    2.81256   24.16315    0.05543    3.14653   51.39386    1.51202    8.50000 74000.00000
