~Version ---------------------------------------------------
VERS.   2.0 : CWLS log ASCII Standard -VERSION 2.0
WRAP.    NO : One line per depth step
DLM . SPACE : Column Data Section Delimiter
~Well ------------------------------------------------------
STRT.m          1000.00000 : START DEPTH
STOP.m          2000.00000 : STOP DEPTH
STEP.m             0.10000 : STEP
NULL.             -9999.25 : NULL VALUE
COMP. FORCE 2020 Recreator : 
WELL.   WELL_FORCE_2020_05 : 
FLD .                      : FIELD
LOC .                      : LOCATION
PROV.                      : PROVINCE
CNTY.                      : COUNTY
STAT.                      : STATE
CTRY.                      : COUNTRY
SRVC.                      : SERVICE COMPANY
DATE.                      : DATE
UWI .                      : UNIQUE WELL ID
API .                      : API NUMBER
~Curve Information -----------------------------------------
DEPT                            .m      : 
CALI                            .in     : 
RSHA                            .ohm.m  : 
RMED                            .ohm.m  : 
RDEP                            .ohm.m  : 
RHOB                            .g/cm3  : 
GR                              .gAPI   : 
NPHI                            .v/v    : 
PEF                             .b/e    : 
DTC                             .us/ft  : 
SP                              .mV     : 
BS                              .in     : 
FORCE_2020_LITHOFACIES_LITHOLOGY.code   : 
~Params ----------------------------------------------------
~Other -----------------------------------------------------
~ASCII -----------------------------------------------------
# ...
 1795.10000    8.57999    8.04313    8.48543    8.31574    2.40006   72.33559    0.25869   -9999.25   92.55622  -15.95113    8.50000 65030.00000
 1795.20000    8.57806    7.65844    8.11880    7.98931    2.39516   72.31869    0.26129   -9999.25   92.46786  -16.24965    8.50000 65030.00000
 1795.30000    8.57854    7.87939    8.38962    8.25770    2.39859   71.47584    0.26262   -9999.25   92.20889  -16.29062    8.50000 65030.00000
 1795.40000    8.57504    8.41277    9.01582    8.87029    2.39847   72.83049    0.26253   -9999.25   92.43152  -15.94476    8.50000 65030.00000
 1795.50000    8.57253    8.31314    8.92311    8.73295    2.40039   72.98065    0.26652   -9999.25   92.02061  -15.97280    8.50000 65030.00000
 1795.60000    8.57159    8.02738    8.69124    8.51709    2.39743   73.05215    0.26213   -9999.25   92.10125  -16.10126    8.50000 65030.00000
 1795.70000    8.57484    7.85343    8.51201    8.30361    2.40163   72.71104    0.26530   -9999.25   92.02582  -15.51571    8.50000 65030.00000
 1795.80000    8.57675    7.55125    8.11067    7.93303    2.40403   72.00884    0.26594   -9999.25   92.60774  -15.30298    8.50000 65030.00000
 1795.90000    8.57607    7.47187    8.05658    7.87999    2.41553   73.18197    0.26591   -9999.25   92.67940  -15.23498    8.50000 65030.00000
 1796.00000    8.57735    7.46810    8.04268    7.86529    2.41028   73.59159    0.26170   -9999.25   92.96744  -15.61339    8.50000 65030.00000
 1796.10000    8.57991    7.35745    7.63697    7.55814    2.40567   74.25364    0.26147   -9999.25   93.90394  -15.35002    8.50000 65030.00000
 1796.20000    8.57571    7.10079    7.41460    7.33073    2.40496   75.31514    0.26250   -9999.25   93.82165  -14.95549    8.50000 65030.00000
 1796.30000    8.57362    6.90183    7.15238    7.06705    2.40112   74.79142    0.26451   -9999.25   94.40062  -14.86762    8.50000 65030.00000
 1796.40000    8.57308    7.61450    7.87214    7.73038    2.39584   74.57959    0.26611   -9999.25   94.99514  -15.35725    8.50000 65030.00000
 1796.50000    8.57211    8.25019    8.53336    8.41769    2.39374   75.68135    0.26298   -9999.25   94.55323  -15.90315    8.50000 65030.00000
 1796.60000    8.57380    7.78905    8.05213    7.96966    2.38868   75.18590    0.25656   -9999.25   94.25810  -15.70024    8.50000 65030.00000
 1796.70000    8.57667    7.77886    8.02084    7.95389    2.38628   76.00113    0.25855   -9999.25   93.45440  -16.03368    8.50000 65030.00000
 1796.80000    8.58161    7.88228    8.15244    8.08382    2.38857   75.64090    0.26558   -9999.25   94.29292  -16.39932    8.50000 65030.00000
 1796.90000    8.58263    7.96884    8.22809    8.15293    2.38649   75.29672    0.26134   -9999.25   94.57704  -15.96379    8.50000 65030.00000
 1797.00000    8.58299    8.01613    8.37738    8.29018    2.38212   75.53412    0.25548   -9999.25   95.13018  -15.94698    8.50000 65030.00000
 1797.10000    8.58281    8.11526    8.46392    8.36069    2.37941   76.11558    0.25712   -9999.25   95.08987  -15.95120    8.50000 65030.00000
 1797.20000    8.58191    8.61947    8.80938    8.79619    2.37975   75.81697    0.25951   -9999.25   94.73270  -15.73243    8.50000 65030.00000
 1797.30000    8.58240    8.62863    8.87596    8.85612    2.38034   76.49421    0.25934   -9999.25   94.75170  -15.36113    8.50000 65030.00000
 1797.40000    8.58137    8.61434    8.76757    8.73396    2.37834   77.15154    0.25783   -9999.25   94.88533  -15.43462    8.50000 65030.00000
 1797.50000    8.58321    8.84680    9.10760    9.04202    2.37613   76.54354    0.26091   -9999.25   95.19098  -15.63326    8.50000 65030.00000
 1797.60000    8.58300    9.07031    9.31857    9.30106    2.37697   77.28023    0.25745   -9999.25   95.93376  -14.91480    8.50000 65030.00000
 1797.70000    8.58712    8.67936    8.93320    8.89314    2.37798   77.03699    0.26341   -9999.25   95.76232  -15.49996    8.50000 65030.00000
 1797.80000    8.58154    9.14914    9.33987    9.36147    2.37929   77.63522    0.25822   -9999.25   96.16359  -15.62331    8.50000 65030.00000
 1797.90000    8.58118    9.24571    9.38689    9.41286    2.38001   79.04430    0.26199   -9999.25   95.36211  -16.06823    8.50000 65030.00000
 1798.00000    8.58417    9.29818    9.42415    9.45137    2.37721   77.79082    0.26216   -9999.25   94.96982  -15.98568    8.50000 65030.00000
 1798.10000    8.58566    9.29861    9.40443    9.45488    2.37898   76.81240    0.26306   -9999.25   94.14629  -16.05716    8.50000 65030.00000
 1798.20000    8.58780    8.96039    9.16777    9.18402    2.38356   76.54814    0.26195   -9999.25   93.74148  -16.04079    8.50000 65030.00000
 1798.30000    8.59206    9.20958    9.38869    9.40565    2.38275   76.61408    0.26324   -9999.25   93.56020  -15.44370    8.50000 65030.00000
 1798.40000    8.59014    9.31075    9.49085    9.52913    2.38974   78.72710    0.26448   -9999.25   92.75792  -15.56590    8.50000 65030.00000
 1798.50000    8.59021    8.20032    8.30798    8.44085    2.39300   78.87603    0.26244   -9999.25   92.94859  -15.59130    8.50000 65030.00000
 1798.60000    8.59071    8.57190    8.77102    8.83713    2.39825   77.37067    0.26529   -9999.25   93.26310  -15.30476    8.50000 65030.00000
 1798.70000    8.58801    8.65676    9.08800    9.10243    2.40156   77.32878    0.27313   -9999.25   93.37859  -15.43398    8.50000 65030.00000
 1798.80000    8.58735    8.81741    9.24581    9.25660    2.40030   76.43811    0.27149   -9999.25   93.71996  -14.81657    8.50000 65030.00000
 1798.90000    8.58385    9.03720    9.36382    9.35446    2.39601   76.18564    0.26601   -9999.25   93.10443  -14.46197    8.50000 65030.00000
 1799.00000    8.58048    9.24759    9.59436    9.56289    2.39572   75.44285    0.27204   -9999.25   92.82097  -14.23413    8.50000 65030.00000
 1799.10000    8.58093    9.06696    9.24299    9.25568    2.40013   75.02993    0.27642   -9999.25   92.47066  -13.86452    8.50000 65030.00000
 1799.20000    8.58197    9.13888    9.30917    9.36207    2.40528   75.37032    0.27797   -9999.25   92.88052  -13.71755    8.50000 65030.00000
 1799.30000    8.58556    8.39842    8.74877    8.72341    2.41384   76.23875    0.27777   -9999.25   92.43561  -13.95972    8.50000 65030.00000
 1799.40000    8.58490    8.68893    9.00132    8.97522    2.42167   76.12144    0.27062   -9999.25   92.38531  -14.16363    8.50000 65030.00000
 1799.50000    8.58630    8.70719    9.03704    9.02694    2.42220   75.64784    0.26879   -9999.25   91.88470  -13.82968    8.50000 65030.00000
 1799.60000    8.58599    8.95140    9.13085    9.19438    2.42747   76.30961    0.26761   -9999.25   90.98731  -13.66928    8.50000 65030.00000
 1799.70000    8.59030    8.75891    8.92669    8.97193    2.42548   76.34028    0.26850   -9999.25   90.58795  -14.17180    8.50000 65030.00000
 1799.80000    8.58944    8.74206    8.91371    8.97971    2.42803   76.61069    0.26735   -9999.25   90.75194  -13.35646    8.50000 65030.00000
 1799.90000    8.59290    8.61424    8.86189    8.88853    2.42842   76.22226    0.26698   -9999.25   90.67588  -13.90949    8.50000 65030.00000
 1800.00000    8.59245    8.32271    8.56519    8.60316    2.42622   75.80727    0.26632   -9999.25   91.24155  -13.95493    8.50000 65030.00000
 1800.10000    8.58989    8.42841    8.70223    8.76251    2.42680   76.79751    0.26567   -9999.25   90.90161  -14.09760    8.50000 65030.00000
 1800.20000    8.59039    8.47355    8.79455    8.82978    2.42177   78.22960    0.26685   -9999.25   90.93245  -14.12685    8.50000 65030.00000
 1800.30000    8.58641    8.52837    8.87909    8.90178    2.42277   77.73084    0.26580   -9999.25   91.14772  -14.01917    8.50000 65030.00000
 1800.40000    8.58221    8.44276    8.82666    8.84893    2.42519   77.28563    0.26352   -9999.25   91.01026  -14.37854    8.50000 65030.00000
 1800.50000    8.58313    8.29019    8.67876    8.68780    2.42263   77.07099    0.26411   -9999.25   91.15564  -14.03106    8.50000 65030.00000
 1800.60000    8.58364    8.26873    8.63123    8.63942    2.42417   76.01223    0.27054   -9999.25   90.23879  -14.04012    8.50000 65030.00000
