~Version ---------------------------------------------------
VERS.   2.0 : CWLS log ASCII Standard -VERSION 2.0
WRAP.    NO : One line per depth step
DLM . SPACE : Column Data Section Delimiter
~Well ------------------------------------------------------
STRT.m          1000.00000 : START DEPTH
STOP.m          2000.00000 : STOP DEPTH
STEP.m             0.10000 : STEP
NULL.             -9999.25 : NULL VALUE
COMP. FORCE 2020 Recreator : 
WELL.   WELL_FORCE_2020_05 : 
FLD .                      : FIELD
LOC .                      : LOCATION
PROV.                      : PROVINCE
CNTY.                      : COUNTY
STAT.                      : STATE
CTRY.                      : COUNTRY
SRVC.                      : SERVICE COMPANY
DATE.                      : DATE
UWI .                      : UNIQUE WELL ID
API .                      : API NUMBER
~Curve Information -----------------------------------------
DEPT                            .m      : 
CALI                            .in     : 
RSHA                            .ohm.m  : 
RMED                            .ohm.m  : 
RDEP                            .ohm.m  : 
RHOB                            .g/cm3  : 
GR                              .gAPI   : 
NPHI                            .v/v    : 
PEF                             .b/e    : 
DTC                             .us/ft  : 
SP                              .mV     : 
BS                              .in     : 
FORCE_2020_LITHOFACIES_LITHOLOGY.code   : 
~Params ----------------------------------------------------
~Other -----------------------------------------------------
~ASCII -----------------------------------------------------
# ...
 1330.40000    8.57765 7613.13627 7458.63049 7448.48123    2.07726    7.81601    0.02893   -9999.25   67.76665    7.86300    8.50000 88000.00000
 1330.50000    8.57706 7332.64907 7118.09427 7105.49631    2.07480    7.71521    0.02938   -9999.25   67.86325    7.76117    8.50000 88000.00000
 1330.60000    8.57930 7127.54580 6877.77207 6897.41246    2.07423    7.71927    0.02897   -9999.25   67.60287    7.77313    8.50000 88000.00000
 1330.70000    8.58357 7121.60304 6882.52879 6901.10216    2.07795    7.67026    0.02802   -9999.25   67.67496    7.68346    8.50000 88000.00000
 1330.80000    8.58271 7105.73398 6851.96902 6871.81347    2.08023    7.43163    0.02884   -9999.25   67.63481    7.71049    8.50000 88000.00000
 1330.90000    8.58085 6574.54742 6325.43858 6337.61400    2.07637    7.38359    0.02928   -9999.25   67.44042    7.78170    8.50000 88000.00000
 1331.00000    8.58250 5830.08644 5630.37231 5729.82511    2.07781    7.49082    0.02894   -9999.25   67.71078    7.92934    8.50000 88000.00000
 1331.10000    8.58407 5578.18434 5378.03610 5484.07796    2.07854    7.46800    0.02825   -9999.25   67.75070    7.71579    8.50000 88000.00000
 1331.20000    8.58193 5474.47904 5333.96449 5434.62192    2.07731    7.42508    0.02803   -9999.25   68.21799    7.70475    8.50000 88000.00000
 1331.30000    8.58331 5716.77921 5542.71697 5659.38596    2.08000    7.34254    0.02759   -9999.25   68.12966    7.66824    8.50000 88000.00000
 1331.40000    8.58539 5587.71936 5378.32731 5501.70860    2.07786    7.22327    0.02749   -9999.25   67.79045    7.91602    8.50000 88000.00000
 1331.50000    8.58510 5165.90247 5021.52414 5156.05547    2.07672    7.28950    0.02659   -9999.25   67.43119    7.77679    8.50000 88000.00000
 1331.60000    8.58525 7001.65673 7367.81272 7306.12336    2.07422    7.11895    0.02745   -9999.25   67.44800    7.60467    8.50000 88000.00000
 1331.70000    8.58837 6822.47157 7082.60771 7050.22242    2.07188    7.52208    0.02922   -9999.25   67.26808    7.71701    8.50000 88000.00000
 1331.80000    8.58536 7185.93835 7437.79113 7408.99425    2.07245    7.44731    0.02855   -9999.25   67.20527    7.48802    8.50000 88000.00000
 1331.90000    8.58550 7259.58348 7565.73473 7529.53674    2.07245    7.41659    0.02791   -9999.25   67.24091    7.64317    8.50000 88000.00000
 1332.00000    8.58501 6510.33485 6904.75473 6849.95244    2.06930    7.60074    0.02862   -9999.25   67.28321    7.78290    8.50000 88000.00000
 1332.10000    8.58609 6932.68676 7495.62464 7401.01483    2.06917    7.69331    0.03015   -9999.25   67.17699    7.70591    8.50000 88000.00000
 1332.20000    8.59006 8921.71934 9767.23032 9519.99635    2.06532    7.76784    0.03107   -9999.25   67.27202    7.76954    8.50000 88000.00000
 1332.30000    8.59151 7915.89493 8810.62860 8495.96092    2.06818    7.81574    0.03161   -9999.25   67.41129    7.68329    8.50000 88000.00000
 1332.40000    8.59080 9302.94008 10481.88523 10251.22635    2.07188    7.66620    0.03197   -9999.25   67.54973    7.77680    8.50000 88000.00000
 1332.50000    8.58948 9830.16544 10978.94647 10734.53560    2.07284    7.77878    0.03185   -9999.25   67.11239    7.78371    8.50000 88000.00000
 1332.60000    8.59036 9745.88713 10885.66076 10635.42883    2.07480    7.78554    0.03180   -9999.25   66.82204    7.87435    8.50000 88000.00000
 1332.70000    8.59073 9758.62808 10896.56357 10647.18010    2.07357    7.84199    0.03208   -9999.25   66.78980    7.67730    8.50000 88000.00000
 1332.80000    8.58876 10290.85742 11466.62392 11187.73280    2.07459    7.81006    0.03301   -9999.25   66.73792    7.67589    8.50000 88000.00000
 1332.90000    8.58898 10368.99694 11531.78032 11254.31906    2.07442    8.12994    0.03268   -9999.25   66.79891    7.72647    8.50000 88000.00000
 1333.00000    8.58905 10452.49159 11612.73607 11328.22932    2.07956    8.16314    0.03188   -9999.25   66.39694    7.82392    8.50000 88000.00000
 1333.10000    8.58778 10200.82248 11361.44401 11059.92202    2.07732    8.22462    0.03219   -9999.25   66.42373    7.83954    8.50000 88000.00000
 1333.20000    8.58833 10303.47953 11452.49233 11156.10432    2.07831    8.26625    0.03271   -9999.25   66.22059    7.91449    8.50000 88000.00000
 1333.30000    8.58755 10510.60077 11657.40698 11364.71008    2.08094    8.32524    0.03338   -9999.25   65.89305    7.92569    8.50000 88000.00000
 1333.40000    8.58442 10405.62240 11579.31953 11268.56459    2.07669    8.30054    0.03252   -9999.25   65.81718    7.76723    8.50000 88000.00000
 1333.50000    8.58395 11058.51118 12204.24761 11909.12515    2.07971    8.36213    0.03185   -9999.25   66.28923    7.75012    8.50000 88000.00000
 1333.60000    8.58442 11056.98596 12204.50562 11908.05616    2.08239    8.26910    0.03315   -9999.25   66.39448    7.97874    8.50000 88000.00000
 1333.70000    8.58788 9249.15706 9875.08282 9781.35524    2.08540    8.47730    0.03304   -9999.25   66.14787    8.17065    8.50000 88000.00000
 1333.80000    8.58591 9213.67591 9841.19398 9733.39422    2.08651    8.21595    0.03195   -9999.25   66.40347    8.08630    8.50000 88000.00000
 1333.90000    8.58706 9392.51218 9998.32560 9835.19557    2.08624    8.41179    0.03229   -9999.25   66.44009    8.34265    8.50000 88000.00000
 1334.00000    8.59014 9306.80588 9865.71353 9703.01699    2.08647    8.32733    0.03200   -9999.25   66.30649    8.28835    8.50000 88000.00000
 1334.10000    8.58957 9370.95746 9941.92541 9765.66731    2.09019    8.14704    0.03244   -9999.25   66.11129    8.30581    8.50000 88000.00000
 1334.20000    8.58895 8986.05426 9387.67184 9217.72106    2.09322    8.18967    0.03114   -9999.25   66.28847    8.18458    8.50000 88000.00000
 1334.30000    8.58664 6769.52885 6902.05640 6880.68139    2.09278    8.12950    0.03045   -9999.25   66.43240    8.11970    8.50000 88000.00000
 1334.40000    8.58925 6902.33956 7062.29145 7041.14418    2.08975    8.08576    0.03056   -9999.25   66.28574    8.14402    8.50000 88000.00000
 1334.50000    8.59041 5401.70534 5271.30128 5173.24127    2.08612    7.83197    0.03099   -9999.25   66.27474    8.08304    8.50000 88000.00000
 1334.60000    8.59065 5118.39556 4972.80794 4910.59662    2.08459    7.79429    0.03125   -9999.25   66.67536    8.08302    8.50000 88000.00000
 1334.70000    8.58929 6591.17313 6496.52924   -9999.25    2.08373    7.65108    0.03085   -9999.25   66.75463    8.06526    8.50000 88000.00000
 1334.80000    8.58807 6707.10775 6619.54384 6489.94960    2.08642    7.69154    0.03013   -9999.25   66.68266    8.17758    8.50000 88000.00000
 1334.90000    8.58771 6584.64539 6506.98811 6398.63421    2.08063    7.60406    0.02988   -9999.25   66.86253    8.07833    8.50000 88000.00000
 1335.00000    8.58941 6461.70332 6409.26344 6297.07528    2.07830    7.14149    0.02858   -9999.25   67.13859    8.18688    8.50000 88000.00000
 1335.10000    8.58911 6287.56134 6250.68493 6132.40550    2.07499    7.00706    0.02926   -9999.25   67.48741    8.05288    8.50000 88000.00000
 1335.20000    8.58897 6268.94778 6238.64071 6124.12315    2.07511    6.76980    0.02932   -9999.25   67.44316    8.10466    8.50000 88000.00000
 1335.30000    8.58920 6207.71993 6187.98663 6065.56575    2.07297    6.75292    0.02861   -9999.25   68.03026    8.01901    8.50000 88000.00000
 1335.40000    8.58961 5890.91876 5858.37001 5729.17410    2.07260    6.75312    0.02919   -9999.25   67.78695    7.96966    8.50000 88000.00000
 1335.50000    8.59344 5806.63651 5769.10960 5640.64641    2.07507    6.74512    0.02936   -9999.25   67.79368    7.95223    8.50000 88000.00000
 1335.60000    8.59076 5452.71908 5480.06639 5328.34872    2.07268    6.70792    0.02930   -9999.25   67.75363    7.72334    8.50000 88000.00000
 1335.70000    8.58930 5527.11151 5566.90346 5421.96221    2.07134    6.67453    0.02924   -9999.25   67.70104    7.77930    8.50000 88000.00000
 1335.80000    8.58896 5425.57782 5485.46544 5345.03866    2.06915    6.50787    0.02891   -9999.25   68.08667    7.96032    8.50000 88000.00000
