~Version ---------------------------------------------------
VERS.   2.0 : CWLS log ASCII Standard -VERSION 2.0
WRAP.    NO : One line per depth step
DLM . SPACE : Column Data Section Delimiter
~Well ------------------------------------------------------
STRT.m          1000.00000 : START DEPTH
STOP.m          2000.00000 : STOP DEPTH
STEP.m             0.10000 : STEP
NULL.             -9999.25 : NULL VALUE
COMP. FORCE 2020 Recreator : 
WELL.   WELL_FORCE_2020_01 : 
FLD .                      : FIELD
LOC .                      : LOCATION
PROV.                      : PROVINCE
CNTY.                      : COUNTY
STAT.                      : STATE
CTRY.                      : COUNTRY
SRVC.                      : SERVICE COMPANY
DATE.                      : DATE
UWI .                      : UNIQUE WELL ID
API .                      : API NUMBER
~Curve Information -----------------------------------------
DEPT                            .m      : 
CALI                            .in     : 
RSHA                            .ohm.m  : 
RMED                            .ohm.m  : 
RDEP                            .ohm.m  : 
RHOB                            .g/cm3  : 
GR                              .gAPI   : 
NPHI                            .v/v    : 
PEF                             .b/e    : 
DTC                             .us/ft  : 
SP                              .mV     : 
BS                              .in     : 
FORCE_2020_LITHOFACIES_LITHOLOGY.code   : 
~Params ----------------------------------------------------
~Other -----------------------------------------------------
~ASCII -----------------------------------------------------
# ...
 1330.40000    8.59436   58.06959   58.06827   57.98806    2.68706   18.79247    0.10627    5.11211   56.96658   -4.34186    8.50000 70000.00000
 1330.50000    8.59412   53.89508   53.48394   53.90490    2.68702   18.34776    0.10433    5.10213   57.14027   -4.15620    8.50000 70000.00000
 1330.60000    8.59351   58.09662   57.27378   57.54323    2.68578   18.44476    0.10328    5.09855   57.37387   -4.24937    8.50000 70000.00000
 1330.70000    8.59412   56.77002   56.02476   56.29469    2.68774   18.38878    0.10363    5.09372   57.41798   -4.19190    8.50000 70000.00000
 1330.80000    8.59151   57.48505   56.80392   56.99697    2.68909   18.00061    0.10389    5.10232   57.60638   -4.30902    8.50000 70000.00000
 1330.90000    8.59194   54.03092   53.19463   53.96003    2.68535   18.50588    0.10272    5.09688   57.65487   -4.26271    8.50000 70000.00000
 1331.00000    8.59084   53.31422   52.85611   53.59381    2.68252   18.78229    0.10042    5.09360   57.86918   -4.43511    8.50000 70000.00000
 1331.10000    8.59176   56.65314   55.66565   56.57526    2.68582   19.05051    0.09965    5.10442   58.19987   -4.50517    8.50000 70000.00000
 1331.20000    8.59220   56.41885   55.14994   55.96091    2.68872   19.08297    0.10111    5.08798   58.52018   -4.49086    8.50000 70000.00000
 1331.30000    8.59079   54.83405   53.59307   54.30307    2.68897   19.21092    0.10001    5.09645   58.77615   -4.67584    8.50000 70000.00000
 1331.40000    8.59246   57.30638   55.63329   56.16840    2.68667   19.23276    0.10202    5.10629   58.98576   -4.52349    8.50000 70000.00000
 1331.50000    8.58750   47.83806   47.07612   47.30775    2.68860   19.31988    0.10153    5.12220   58.80706   -4.07647    8.50000 70000.00000
 1331.60000    8.58578   55.08270   54.82835   55.03550    2.69120   19.45190    0.10105    5.11948   59.09298   -3.80375    8.50000 70000.00000
 1331.70000    8.58598   54.51393   54.05754   54.42214    2.68904   19.55278    0.09856    5.12151   59.47149   -3.50363    8.50000 70000.00000
 1331.80000    8.58864   55.59830   54.71483   55.05346    2.69019   19.97597    0.09939    5.12873   59.97966   -3.80341    8.50000 70000.00000
 1331.90000    8.58540   53.54140   52.07667   52.62122    2.68959   20.07660    0.09711    5.13676   59.94585   -3.71343    8.50000 70000.00000
 1332.00000    8.58556   51.73286   50.30972   50.85898    2.68883   20.08505    0.09608    5.14136   59.53965   -3.48356    8.50000 70000.00000
 1332.10000    8.58167   54.35820   53.47863   53.92077    2.68881   20.30368    0.09415    5.13026   59.06127   -3.49080    8.50000 70000.00000
 1332.20000    8.58140   55.54390   54.62382   54.99165    2.68710   20.44765    0.09435    5.14157   59.24237   -3.56740    8.50000 70000.00000
 1332.30000    8.58242   55.24018   54.25369   54.58543    2.68396   20.19088    0.09228    5.15954   59.20266   -3.38251    8.50000 70000.00000
 1332.40000    8.58378   56.51717   55.61009   55.90995    2.68400   20.37692    0.09159    5.16025   58.87593   -3.26903    8.50000 70000.00000
 1332.50000    8.58510   54.64736   53.14613   53.79165    2.68223   20.77992    0.09017    5.17265   58.39940   -3.03185    8.50000 70000.00000
 1332.60000    8.58423   54.42594   52.76964   53.34336    2.68163   21.38516    0.09074    5.16949   58.09929   -3.17505    8.50000 70000.00000
 1332.70000    8.58412   53.22768   51.52955   52.26119    2.67988   21.14379    0.09241    5.17810   57.97182   -3.39452    8.50000 70000.00000
 1332.80000    8.58462   52.99314   51.17878   51.78946    2.68063   21.17283    0.09446    5.19303   58.22374   -3.21435    8.50000 70000.00000
 1332.90000    8.58338   51.39208   49.82484   50.41232    2.67858   21.32051    0.09461    5.17898   58.03470   -2.84532    8.50000 70000.00000
 1333.00000    8.58283   51.78923   50.16291   50.75109    2.68201   21.37566    0.09590    5.18115   57.96223   -2.99261    8.50000 70000.00000
 1333.10000    8.58284   51.43269   49.75089   50.17938    2.68243   20.76770    0.09600    5.18364   57.94461   -3.16689    8.50000 70000.00000
 1333.20000    8.58337   49.77323   48.45072   48.64441    2.67719   20.32012    0.09497    5.16560   57.56838   -3.55398    8.50000 70000.00000
 1333.30000    8.58519   49.89001   48.59441   48.77065    2.67548   19.95148    0.09612    5.18287   57.28606   -3.68723    8.50000 70000.00000
 1333.40000    8.58691   50.13154   48.90028   49.07752    2.67322   19.67382    0.09727    5.17079   57.18065   -3.58040    8.50000 70000.00000
 1333.50000    8.58683   47.70890   47.15828   47.26151    2.67169   19.25871    0.09684    5.16278   56.95981   -3.84256    8.50000 70000.00000
 1333.60000    8.59011   48.10536   47.43536   47.58066    2.67035   19.58726    0.09735    5.15527   56.67769   -4.21155    8.50000 70000.00000
 1333.70000    8.59195   47.66388   46.75566   46.78443    2.67013   19.20182    0.09704    5.14969   56.47760   -4.26993    8.50000 70000.00000
 1333.80000    8.59332   52.00620   52.33759   52.66493    2.67517   19.66813    0.09858    5.14881   56.20701   -4.78149    8.50000 70000.00000
 1333.90000    8.58997   52.97731   53.49197   54.09684    2.67468   19.74608    0.09822    5.14170   56.09465   -4.48344    8.50000 70000.00000
 1334.00000    8.59374   55.45929   55.98038   56.89406    2.67301   19.71159    0.09978    5.13826   56.09122   -4.51438    8.50000 70000.00000
 1334.10000    8.59367   61.77168   61.61861   62.20840    2.67193   19.74395    0.10234    5.13653   56.51367   -4.78005    8.50000 70000.00000
 1334.20000    8.59348   57.66617   57.51851   57.77923    2.67045   19.71163    0.10224    5.14644   56.95451   -4.92798    8.50000 70000.00000
 1334.30000    8.59376   56.65655   56.71959   57.21533    2.67287   19.46451    0.10161    5.14739   56.72921   -5.19663    8.50000 70000.00000
 1334.40000    8.59087   57.23496   57.30052   57.85400    2.67164   19.61121    0.10208    5.13582   56.95395   -5.57897    8.50000 70000.00000
 1334.50000    8.58876   59.28184   59.35571   59.83548    2.67019   19.39978    0.10243    5.12273   57.12382   -5.50030    8.50000 70000.00000
 1334.60000    8.58434   59.23836   59.21735   59.61367    2.67436   19.42000    0.10287    5.12373   57.28924   -5.64418    8.50000 70000.00000
 1334.70000    8.58543   58.92098   58.93071   59.24103    2.67113   19.74145    0.10176    5.14626   57.33623   -5.54912    8.50000 70000.00000
 1334.80000    8.58720   56.34675   57.19180   57.31426    2.67079   19.73062    0.10352    5.15773   56.80949   -5.22953    8.50000 70000.00000
 1334.90000    8.58566   55.02758   55.90483   55.96860    2.66830   19.25730    0.10166    5.14513   56.49135   -5.51293    8.50000 70000.00000
 1335.00000    8.58596   58.92634   59.56703   59.33012    2.67083   19.62846    0.10179    5.14250   56.84275   -5.99386    8.50000 70000.00000
 1335.10000    8.58922   57.41194   58.33251   57.99159    2.67035   19.17553    0.10279    5.15569   56.88892   -5.41170    8.50000 70000.00000
 1335.20000    8.58985   60.46827   60.83032   60.63182    2.66904   19.62276    0.10225    5.14561   57.07517   -4.94542    8.50000 70000.00000
 1335.30000    8.58854   59.52539   59.97622   59.97942    2.67251   19.98615    0.10352    5.15940   56.86658   -5.43955    8.50000 70000.00000
 1335.40000    8.58354   62.27312   62.45606   63.01632    2.66846   19.91491    0.10222    5.14726   57.56586   -5.06709    8.50000 70000.00000
 1335.50000    8.58168   63.51879   63.78160   64.19259    2.67323   19.79457    0.10210    5.14298   57.74850   -5.46569    8.50000 70000.00000
 1335.60000    8.58176   62.61415   62.80476   63.41203    2.67522   19.58880    0.10254    5.12734   58.00255   -5.12184    8.50000 70000.00000
 1335.70000    8.58293   64.05530   64.08693   64.72410    2.67638   19.03389    0.10234    5.12920   58.16554   -4.86405    8.50000 70000.00000
 1335.80000    8.58334   58.00115   58.40216   59.21749    2.67573   19.20504    0.10299    5.13359   58.20835   -5.13511    8.50000 70000.00000
 1335.90000    8.58367   55.91195   55.35891   55.68431    2.66954   18.85643    0.10250    5.13935   57.76078   -4.85277    8.50000 70000.00000
