~Version ---------------------------------------------------
VERS.   2.0 : CWLS log ASCII Standard -VERSION 2.0
WRAP.    NO : One line per depth step
DLM . SPACE : Column Data Section Delimiter
~Well ------------------------------------------------------
STRT.m          1000.00000 : START DEPTH
STOP.m          2000.00000 : STOP DEPTH
STEP.m             0.10000 : STEP
NULL.             -9999.25 : NULL VALUE
COMP. FORCE 2020 Recreator : 
WELL.   WELL_FORCE_2020_05 : 
FLD .                      : FIELD
LOC .                      : LOCATION
PROV.                      : PROVINCE
CNTY.                      : COUNTY
STAT.                      : STATE
CTRY.                      : COUNTRY
SRVC.                      : SERVICE COMPANY
DATE.                      : DATE
UWI .                      : UNIQUE WELL ID
API .                      : API NUMBER
~Curve Information -----------------------------------------
DEPT                            .m      : 
CALI                            .in     : 
RSHA                            .ohm.m  : 
RMED                            .ohm.m  : 
RDEP                            .ohm.m  : 
RHOB                            .g/cm3  : 
GR                              .gAPI   : 
NPHI                            .v/v    : 
PEF                             .b/e    : 
DTC                             .us/ft  : 
SP                              .mV     : 
BS                              .in     : 
FORCE_2020_LITHOFACIES_LITHOLOGY.code   : 
~Params ----------------------------------------------------
~Other -----------------------------------------------------
~ASCII -----------------------------------------------------
# ...
 1733.50000    8.58772    6.86649    7.15148    7.00486    2.39758   77.24968    0.25160   -9999.25   91.37174  -15.56264    8.50000 65030.00000
 1733.60000    8.58466    7.27321    7.50776    7.38138    2.39320   78.04598    0.25382   -9999.25   91.26341  -15.39913    8.50000 65030.00000
 1733.70000    8.58656    6.61125    6.58354    6.48784    2.39691   77.31617    0.24784   -9999.25   90.96143  -15.43612    8.50000 65030.00000
 1733.80000    8.58721    6.88838    6.84227    6.73648    2.39492   76.84381    0.24766   -9999.25   90.10672  -15.54427    8.50000 65030.00000
 1733.90000    8.58364    6.74254    6.68249    6.59129    2.39442   76.25267    0.24910   -9999.25   89.91807  -15.24958    8.50000 65030.00000
 1734.00000    8.58333    6.75311    6.70823    6.61568    2.40110   78.33470    0.25310   -9999.25   89.14078  -15.24453    8.50000 65030.00000
 1734.10000    8.57987    6.76085    6.72367    6.63107    2.40370   78.14196    0.25768   -9999.25   89.36921  -15.02036    8.50000 65030.00000
 1734.20000    8.57933    6.92348    6.88234    6.78731    2.39990   78.21088    0.26006   -9999.25   88.39347  -15.01901    8.50000 65030.00000
 1734.30000    8.57970    7.17407    7.12084    7.04829    2.40158   78.87339    0.25863   -9999.25   87.75631  -14.56137    8.50000 65030.00000
 1734.40000    8.57771    7.11390    7.07380    6.99116    2.39718   78.10143    0.26157   -9999.25   87.60423  -14.19004    8.50000 65030.00000
 1734.50000    8.57870    7.77492    7.72740    7.61475    2.39574   77.60014    0.26226   -9999.25   87.81557  -13.89621    8.50000 65030.00000
 1734.60000    8.57867    7.97313    7.88319    7.76609    2.39180   77.36606    0.26303   -9999.25   87.72781  -14.31527    8.50000 65030.00000
 1734.70000    8.58245    7.49859    7.50187    7.41510    2.39436   76.86845    0.26414   -9999.25   88.06679  -14.36699    8.50000 65030.00000
 1734.80000    8.58544    7.87522    7.70430    7.66643    2.40104   76.42163    0.25945   -9999.25   87.85323  -14.55084    8.50000 65030.00000
 1734.90000    8.58600    7.49141    7.41847    7.39734    2.40463   75.27225    0.26109   -9999.25   87.84728  -14.29879    8.50000 65030.00000
 1735.00000    8.58475    7.96360    7.80824    7.78578    2.39895   76.34518    0.25830   -9999.25   87.43619  -14.38457    8.50000 65030.00000
 1735.10000    8.58594    8.17735    8.08166    8.07299    2.39547   75.86895    0.25981   -9999.25   86.95853  -14.48227    8.50000 65030.00000
 1735.20000    8.58498    8.48611    8.34283    8.32478    2.39229   74.59467    0.25652   -9999.25   87.64155  -15.44696    8.50000 65030.00000
 1735.30000    8.58352    8.19876    8.06166    8.05556    2.39445   75.32858    0.25699   -9999.25   87.73253  -15.23557    8.50000 65030.00000
 1735.40000    8.58135    8.49133    8.25195    8.30762    2.39723   74.17199    0.25547   -9999.25   88.21263  -15.31727    8.50000 65030.00000
 1735.50000    8.58011    8.62959    8.40407    8.44420    2.39353   73.59454    0.25799   -9999.25   87.74876  -16.05802    8.50000 65030.00000
 1735.60000    8.57920    8.59037    8.36825    8.40759    2.39233   74.60031    0.25939   -9999.25   88.57769  -15.88649    8.50000 65030.00000
 1735.70000    8.57942    8.26624    8.18085    8.20927    2.39750   73.92281    0.25574   -9999.25   89.73165  -15.83674    8.50000 65030.00000
 1735.80000    8.57677    8.53018    8.44076    8.46485    2.39969   75.01199    0.25900   -9999.25   89.10715  -15.98033    8.50000 65030.00000
 1735.90000    8.57506    8.46858    8.30015    8.35230    2.40287   75.41496    0.25872   -9999.25   89.51707  -15.67381    8.50000 65030.00000
 1736.00000    8.57785    8.74200    8.59548    8.62655    2.40369   76.66912    0.25487   -9999.25   89.87862  -15.94450    8.50000 65030.00000
 1736.10000    8.57797    8.91012    8.70415    8.75334    2.40406   75.64785    0.25755   -9999.25   90.30373  -15.62616    8.50000 65030.00000
 1736.20000    8.57956    8.95770    8.77358    8.81039    2.39428   74.99245    0.25344   -9999.25   91.06385  -15.74667    8.50000 65030.00000
 1736.30000    8.57995    8.79297    8.58962    8.64532    2.39707   74.69611    0.25324   -9999.25   92.26416  -15.83855    8.50000 65030.00000
 1736.40000    8.58117    8.38855    8.18047    8.20463    2.39834   73.80080    0.25083   -9999.25   92.58592  -16.72504    8.50000 65030.00000
 1736.50000    8.58047    8.38408    8.15400    8.17203    2.40279   74.12466    0.25171   -9999.25   93.08293  -16.99515    8.50000 65030.00000
 1736.60000    8.58034    7.75054    7.51810    7.56128    2.39809   73.12239    0.24982   -9999.25   93.04353  -17.24585    8.50000 65030.00000
 1736.70000    8.58326    7.48152    7.31911    7.35467    2.40622   73.70949    0.24972   -9999.25   93.48347  -17.29362    8.50000 65030.00000
 1736.80000    8.57989    7.36576    7.12113    7.15386    2.40633   74.89215    0.25293   -9999.25   93.13743  -17.17752    8.50000 65030.00000
 1736.90000    8.57910    6.50285    6.32896    6.34413    2.40225   75.15864    0.25816   -9999.25   93.20195  -16.40362    8.50000 65030.00000
 1737.00000    8.57679    6.41792    6.22844    6.24769    2.40793   75.66802    0.25573   -9999.25   93.30713  -16.08111    8.50000 65030.00000
 1737.10000    8.57887    6.17920    6.06576    6.09798    2.40848   75.31850    0.25962   -9999.25   93.40033  -15.69553    8.50000 65030.00000
 1737.20000    8.57842    6.09394    5.90086    5.95115    2.40759   77.21335    0.26051   -9999.25   93.80012  -15.32769    8.50000 65030.00000
 1737.30000    8.58035    5.80842    5.66811    5.73339    2.41161   77.04075    0.26230   -9999.25   93.32770  -15.01115    8.50000 65030.00000
 1737.40000    8.58334    6.05281    5.86812    5.89306    2.41358   76.67779    0.25880   -9999.25   93.21160  -15.39946    8.50000 65030.00000
 1737.50000    8.58554    5.70025    5.59177    5.59509    2.41007   77.04097    0.25965   -9999.25   93.64003  -15.29993    8.50000 65030.00000
 1737.60000    8.58622    5.49110    5.40313    5.43119    2.41430   77.34648    0.25791   -9999.25   93.49338  -15.25789    8.50000 65030.00000
 1737.70000    8.58523    5.70050    5.69614    5.72037    2.41330   76.97017    0.26019   -9999.25   92.85609  -15.05143    8.50000 65030.00000
 1737.80000    8.58423    5.80670    5.69768    5.69913    2.40637   77.18311    0.26293   -9999.25   92.18103  -15.21357    8.50000 65030.00000
 1737.90000    8.58696    5.46834    5.40194    5.39762    2.40916   77.55913    0.26166   -9999.25   92.90335  -15.68127    8.50000 65030.00000
 1738.00000    8.58766    5.93727    5.99363    5.97449    2.40758   75.80232    0.26135   -9999.25   93.32174  -15.71311    8.50000 65030.00000
 1738.10000    8.58822    5.67661    5.73063    5.71826    2.40812   73.99049    0.26213   -9999.25   92.70108  -15.58680    8.50000 65030.00000
 1738.20000    8.59067    5.53113    5.62262    5.60212    2.40646   73.65637    0.26145   -9999.25   93.21773  -16.01798    8.50000 65030.00000
 1738.30000    8.59231    6.11341    6.15768    6.12886    2.41679   73.85860    0.26311   -9999.25   93.09391  -15.93855    8.50000 65030.00000
 1738.40000    8.59131    6.07789    6.12789    6.10584    2.41578   73.79929    0.26283   -9999.25   92.77036  -15.87539    8.50000 65030.00000
 1738.50000    8.59173    6.29221    6.27460    6.26801    2.41586   74.52539    0.26492   -9999.25   92.96394  -15.23903    8.50000 65030.00000
 1738.60000    8.59390    6.27768    6.27702    6.27715    2.41500   74.15222    0.26343   -9999.25   93.09922  -14.94061    8.50000 65030.00000
 1738.70000    8.59479    6.31774    6.33191    6.33465    2.41936   74.90802    0.26842   -9999.25   93.13544  -15.04222    8.50000 65030.00000
 1738.80000    8.59101    6.74043    6.76468    6.73507    2.41525   73.87923    0.27125   -9999.25   93.30661  -15.10231    8.50000 65030.00000
 1738.90000    8.58988    7.26930    7.25824    7.25506    2.41181   73.22614    0.26863   -9999.25   93.05172  -15.01515    8.50000 65030.00000
 1739.00000    8.58733    7.46100    7.52234    7.48224    2.41390   72.59406    0.26619   -9999.25   93.45991  -15.39068    8.50000 65030.00000
