~Version ---------------------------------------------------
VERS.   2.0 : CWLS log ASCII Standard -VERSION 2.0
WRAP.    NO : One line per depth step
DLM . SPACE : Column Data Section Delimiter
~Well ------------------------------------------------------
STRT.m          1000.00000 : START DEPTH
STOP.m          2000.00000 : STOP DEPTH
STEP.m             0.10000 : STEP
NULL.             -9999.25 : NULL VALUE
COMP. FORCE 2020 Recreator : 
WELL.   WELL_FORCE_2020_06 : 
FLD .                      : FIELD
LOC .                      : LOCATION
PROV.                      : PROVINCE
CNTY.                      : COUNTY
STAT.                      : STATE
CTRY.                      : COUNTRY
SRVC.                      : SERVICE COMPANY
DATE.                      : DATE
UWI .                      : UNIQUE WELL ID
API .                      : API NUMBER
~Curve Information -----------------------------------------
DEPT                            .m      : 
CALI                            .in     : 
RSHA                            .ohm.m  : 
RMED                            .ohm.m  : 
RDEP                            .ohm.m  : 
RHOB                            .g/cm3  : 
GR                              .gAPI   : 
NPHI                            .v/v    : 
PEF                             .b/e    : 
DTC                             .us/ft  : 
SP                              .mV     : 
BS                              .in     : 
FORCE_2020_LITHOFACIES_LITHOLOGY.code   : 
~Params ----------------------------------------------------
~Other -----------------------------------------------------
~ASCII -----------------------------------------------------
# ...
 1201.60000    8.31550   34.25643   37.29682   37.14642    2.33863   44.45471    0.19856    1.84954   82.57645  -35.57394    8.50000 30000.00000
 1201.70000    8.31435   33.36644   36.60153   36.46130    2.33727   44.44344    0.20053    1.85695   83.38139  -35.16261    8.50000 30000.00000
 1201.80000    8.31182   33.38452   36.61048   36.52752    2.33560   44.72302    0.20136    1.86145   83.28495  -35.25218    8.50000 30000.00000
 1201.90000    8.31135   35.19130   38.66733   38.70358    2.33084   44.60837    0.19963    1.85640   83.37650  -35.21895    8.50000 30000.00000
 1202.00000    8.31016   34.98613   38.53176   38.57735    2.32859   43.96095    0.19733    1.85312   84.04737  -35.24761    8.50000 30000.00000
 1202.10000    8.30961   34.54984   38.00776   38.06201    2.33093   44.68271    0.19884    1.84053   84.05628  -35.11684    8.50000 30000.00000
 1202.20000    8.30925   34.26282   37.68098   37.68085    2.33040   43.92993    0.19856    1.84091   84.26177  -35.36784    8.50000 30000.00000
 1202.30000    8.30900   34.16292   37.53565   37.50088    2.32969   43.70649    0.19662    1.84017   84.37427  -35.44360    8.50000 30000.00000
 1202.40000    8.30923   33.97684   37.52786   37.50703    2.32772   42.22996    0.19210    1.83757   83.83821  -36.17553    8.50000 30000.00000
 1202.50000    8.30511   33.91843   37.50581   37.55705    2.32233   42.95704    0.19186    1.83592   84.45054  -36.43824    8.50000 30000.00000
 1202.60000    8.30484   34.31056   37.04895   36.99688    2.32627   42.55301    0.19104    1.83979   84.19664  -36.72228    8.50000 30000.00000
 1202.70000    8.30213   35.91784   38.99366   38.78088    2.32743   43.26640    0.18837    1.83048   83.70203  -36.42465    8.50000 30000.00000
 1202.80000    8.30643   31.13727   32.05415   32.25600    2.32503   41.92099    0.18884    1.83400   82.92903  -36.70026    8.50000 30000.00000
 1202.90000    8.30800   28.04668   28.53403   28.62921    2.32688   42.18849    0.18893    1.83672   83.21066  -36.44774    8.50000 30000.00000
 1203.00000    8.30788   29.45094   30.10634   30.10508    2.33078   42.97635    0.18856    1.83702   82.93493  -36.15230    8.50000 30000.00000
 1203.10000    8.30068   28.88205   29.60693   29.52023    2.33254   42.74302    0.19002    1.83938   83.16553  -35.44192    8.50000 30000.00000
 1203.20000    8.29997   29.24884   30.08461   29.96868    2.33770   41.94462    0.19203    1.83508   83.65727  -35.36569    8.50000 30000.00000
 1203.30000    8.30186   28.85371   29.59055   29.31832    2.33684   42.37985    0.19129    1.82805   83.26456  -35.43206    8.50000 30000.00000
 1203.40000    8.29783   27.16778   27.89335   27.67805    2.33868   42.85411    0.18729    1.82868   82.80947  -35.25292    8.50000 30000.00000
 1203.50000    8.29633   24.12459   25.35515   24.91847    2.33609   43.59828    0.18619    1.84066   82.85102  -34.59939    8.50000 30000.00000
 1203.60000    8.29358   24.12897   25.39577   24.92123    2.34008   43.25047    0.18915    1.83444   82.76752  -34.67022    8.50000 30000.00000
 1203.70000    8.29833   23.87651   25.13108   24.66347    2.34294   42.98419    0.18795    1.83885   82.83206  -34.50790    8.50000 30000.00000
 1203.80000    8.30089   24.54625   25.67432   25.25503    2.34579   42.67966    0.18763    1.83839   82.19567  -34.76018    8.50000 30000.00000
 1203.90000    8.30140   25.29517   26.46694   26.11120    2.34537   43.06993    0.18762    1.83541   82.24775  -34.38283    8.50000 30000.00000
 1204.00000    8.30009   22.44727   22.95212   22.52602    2.35422   43.93910    0.18912    1.82816   82.01520  -34.54339    8.50000 30000.00000
 1204.10000    8.30101   22.63011   23.07672   22.65452    2.35648   44.20275    0.19111    1.83152   81.80682  -34.15623    8.50000 30000.00000
 1204.20000    8.30598   22.83785   23.34360   22.98102    2.35594   43.68570    0.18775    1.82982   81.60165  -33.85035    8.50000 30000.00000
 1204.30000    8.30776   22.78328   23.22961   22.93348    2.36321   44.05484    0.18975    1.83300   81.11457  -33.89422    8.50000 30000.00000
 1204.40000    8.30673   23.31667   23.87580   23.61299    2.36509   44.18590    0.19258    1.83472   81.08131  -34.07409    8.50000 30000.00000
 1204.50000    8.30858   24.80692   25.30651   25.00360    2.36703   45.74085    0.19380    1.83978   81.87217  -33.72932    8.50000 30000.00000
 1204.60000    8.30853   25.67020   25.86679   25.60147    2.37432   46.32056    0.19581    1.83744   81.75219  -33.44633    8.50000 30000.00000
 1204.70000    8.30801   23.64179   24.01478   23.73851    2.36956   46.67047    0.19745    1.83464   81.73396  -33.14545    8.50000 30000.00000
 1204.80000    8.30840   23.26186   23.32957   23.30844    2.36731   45.93827    0.19761    1.85332   81.55854  -33.08128    8.50000 30000.00000
 1204.90000    8.31075   23.13539   23.17415   23.18960    2.37115   46.14413    0.19603    1.84701   82.52321  -32.99216    8.50000 30000.00000
 1205.00000    8.31265   24.05524   24.37528   24.35439    2.36985   46.09357    0.19537    1.85086   82.60681  -32.83618    8.50000 30000.00000
 1205.10000    8.31329   24.03793   24.11019   24.26391    2.36654   45.43654    0.19795    1.85995   82.73840  -32.81162    8.50000 30000.00000
 1205.20000    8.31765   24.14923   24.13846   24.34959    2.36739   44.75782    0.19740    1.86128   83.03725  -32.53807    8.50000 30000.00000
 1205.30000    8.31795   24.31868   24.15235   24.36160    2.36738   45.57325    0.19499    1.85834   82.69988  -32.11582    8.50000 30000.00000
 1205.40000    8.31872   24.10009   24.10395   24.43905    2.36907   45.24855    0.19471    1.85541   83.05576  -31.71023    8.50000 30000.00000
 1205.50000    8.31956   23.71153   23.80162   24.03802    2.36762   44.95867    0.19819    1.85862   83.03451  -31.75923    8.50000 30000.00000
 1205.60000    8.32132   25.71166   25.91361   26.09171    2.36758   45.05708    0.19659    1.85503   82.74319  -32.37266    8.50000 30000.00000
 1205.70000    8.32337   24.74643   24.93543   25.13098    2.36450   45.66443    0.19556    1.85622   82.32703  -32.54131    8.50000 30000.00000
 1205.80000    8.32357   25.22365   25.41656   25.68207    2.36529   44.99771    0.19725    1.85703   82.15923  -32.88599    8.50000 30000.00000
 1205.90000    8.32197   24.29195   24.50082   24.73331    2.36587   45.73132    0.19800    1.84586   82.46425  -32.67612    8.50000 30000.00000
 1206.00000    8.32138   23.38136   23.59579   23.71764    2.36229   45.46294    0.19623    1.84166   82.16971  -33.03746    8.50000 30000.00000
 1206.10000    8.32092   23.45491   23.78903   23.99644    2.35750   44.31179    0.19478    1.85443   81.79678  -32.78103    8.50000 30000.00000
 1206.20000    8.32209   24.41748   24.90608   25.10232    2.35722   44.18636    0.19333    1.85014   81.92392  -32.76632    8.50000 30000.00000
 1206.30000    8.31617   24.87333   25.38539   25.56475    2.35866   43.84269    0.19428    1.86026   81.68504  -32.83823    8.50000 30000.00000
 1206.40000    8.31993   24.52003   24.98355   25.16822    2.35535   44.09163    0.19557    1.86140   82.31236  -32.75823    8.50000 30000.00000
 1206.50000    8.32496   26.38003   26.37130   26.63859    2.35720   44.03408    0.19557    1.86691   82.29865  -32.68021    8.50000 30000.00000
 1206.60000    8.32221   25.28911   25.30022   25.57380    2.35597   43.79290    0.19572    1.85864   82.01425  -33.10321    8.50000 30000.00000
 1206.70000    8.32259   24.82862   24.92969   25.20275    2.35422   42.86417    0.19496    1.86063   81.78320  -33.49357    8.50000 30000.00000
 1206.80000    8.32123   24.79313   24.79844   25.04815    2.35728   42.99403    0.19657    1.86142   82.02265  -33.49049    8.50000 30000.00000
 1206.90000    8.32116   23.57958   23.42774   23.63071    2.35913   42.94768    0.19568    1.85447   82.25524  -34.05593    8.50000 30000.00000
 1207.00000    8.32114   23.59574   23.43785   23.62287    2.36227   43.59772    0.19788    1.85361   81.87392  -33.85040    8.50000 30000.00000
 1207.10000    8.31994   22.91137   22.50565   22.66237    2.36524   43.47810    0.19747    1.84307   81.51831  -34.49136    8.50000 30000.00000
