~Version ---------------------------------------------------
VERS.   2.0 : CWLS log ASCII Standard -VERSION 2.0
WRAP.    NO : One line per depth step
DLM . SPACE : Column Data Section Delimiter
~Well ------------------------------------------------------
STRT.m          1000.00000 : START DEPTH
STOP.m          2000.00000 : STOP DEPTH
STEP.m             0.10000 : STEP
NULL.             -9999.25 : NULL VALUE
COMP. FORCE 2020 Recreator : 
WELL.   WELL_FORCE_2020_05 : 
FLD .                      : FIELD
LOC .                      : LOCATION
PROV.                      : PROVINCE
CNTY.                      : COUNTY
STAT.                      : STATE
CTRY.                      : COUNTRY
SRVC.                      : SERVICE COMPANY
DATE.                      : DATE
UWI .                      : UNIQUE WELL ID
API .                      : API NUMBER
~Curve Information -----------------------------------------
DEPT                            .m      : 
CALI                            .in     : 
RSHA                            .ohm.m  : 
RMED                            .ohm.m  : 
RDEP                            .ohm.m  : 
RHOB                            .g/cm3  : 
GR                              .gAPI   : 
NPHI                            .v/v    : 
PEF                             .b/e    : 
DTC                             .us/ft  : 
SP                              .mV     : 
BS                              .in     : 
FORCE_2020_LITHOFACIES_LITHOLOGY.code   : 
~Params ----------------------------------------------------
~Other -----------------------------------------------------
~ASCII -----------------------------------------------------
# ...
 1929.50000    8.57283    6.74561    7.03544    6.95421    2.38571   75.01324    0.25012   -9999.25   91.50079  -15.81093    8.50000 65030.00000
 1929.60000    8.57153    6.24924    6.31836    6.25896    2.39195   76.60429    0.25093   -9999.25   92.15420  -15.19592    8.50000 65030.00000
 1929.70000    8.56807    6.25980    6.32692    6.28403    2.39364   78.16359    0.25477   -9999.25   92.65348  -15.04716    8.50000 65030.00000
 1929.80000    8.56538    6.44311    6.57185    6.53756    2.38930   77.45982    0.25554   -9999.25   93.66935  -15.00797    8.50000 65030.00000
 1929.90000    8.56360    6.31306    6.38082    6.37046    2.38633   77.65056    0.25946   -9999.25   94.47786  -15.00293    8.50000 65030.00000
 1930.00000    8.56470    6.73410    6.82642    6.84969    2.38808   77.52011    0.25900   -9999.25   94.17944  -14.99422    8.50000 65030.00000
 1930.10000    8.56567    6.46523    6.68676    6.70612    2.39484   78.32738    0.26165   -9999.25   94.61299  -14.80081    8.50000 65030.00000
 1930.20000    8.56969    6.93942    7.28574    7.29941    2.39853   77.70632    0.26577   -9999.25   94.17614  -14.68496    8.50000 65030.00000
 1930.30000    8.56945    7.78782    8.04941    8.09085    2.40234   77.06466    0.26682   -9999.25   93.66299  -14.17132    8.50000 65030.00000
 1930.40000    8.57161    7.87861    8.11688    8.16518    2.40156   75.76894    0.26490   -9999.25   94.56258  -13.91312    8.50000 65030.00000
 1930.50000    8.57275    7.64297    7.92068    7.95771    2.40243   76.31199    0.26595   -9999.25   93.68347  -14.12378    8.50000 65030.00000
 1930.60000    8.57310    7.50285    7.77556    7.83289    2.40737   76.65432    0.26830   -9999.25   93.48175  -13.88887    8.50000 65030.00000
 1930.70000    8.57397    7.03250    7.29589    7.35139    2.40203   78.37314    0.26904   -9999.25   94.01907  -14.03766    8.50000 65030.00000
 1930.80000    8.57380    6.69101    6.92867    6.99164    2.40184   79.21282    0.26958   -9999.25   94.25086  -13.88900    8.50000 65030.00000
 1930.90000    8.57579    7.01718    7.21445    7.26739    2.40297   77.63963    0.27045   -9999.25   93.86050  -13.70962    8.50000 65030.00000
 1931.00000    8.57508    7.05141    7.18910    7.24550    2.40352   76.75235    0.26766   -9999.25   94.02830  -14.00492    8.50000 65030.00000
 1931.10000    8.57671    7.14515    7.31137    7.35549    2.40464   75.85623    0.27168   -9999.25   92.97799  -13.88460    8.50000 65030.00000
 1931.20000    8.57833    7.15134    7.39297    7.40665    2.40959   76.96296    0.27256   -9999.25   92.64060  -13.70119    8.50000 65030.00000
 1931.30000    8.57828    7.23273    7.48753    7.47753    2.40351   77.29534    0.27138   -9999.25   91.79094  -13.81050    8.50000 65030.00000
 1931.40000    8.58134    7.32951    7.61608    7.59293    2.40331   75.85421    0.26924   -9999.25   92.73908  -14.63785    8.50000 65030.00000
 1931.50000    8.58194    7.40700    7.64674    7.64038    2.40284   74.14728    0.26372   -9999.25   93.15431  -14.52481    8.50000 65030.00000
 1931.60000    8.58163    7.54082    7.70370    7.74969    2.40740   74.59496    0.26276   -9999.25   93.37560  -14.19970    8.50000 65030.00000
 1931.70000    8.58229    7.63303    7.92480    7.99237    2.40756   74.90682    0.26181   -9999.25   93.11274  -14.44300    8.50000 65030.00000
 1931.80000    8.58268    7.61819    7.86472    7.92397    2.40990   73.44353    0.25979   -9999.25   92.61201  -14.62062    8.50000 65030.00000
 1931.90000    8.58506    7.76778    7.96567    7.97118    2.41030   73.78365    0.26156   -9999.25   91.83360  -14.30174    8.50000 65030.00000
 1932.00000    8.58979    8.79851    9.11412    9.16498    2.40739   72.88938    0.26072   -9999.25   91.57283  -14.27251    8.50000 65030.00000
 1932.10000    8.58951    8.47090    8.73767    8.76343    2.40460   73.28422    0.26603   -9999.25   91.56163  -14.55626    8.50000 65030.00000
 1932.20000    8.59122    8.46186    8.75946    8.79581    2.40361   71.27157    0.26322   -9999.25   92.07515  -14.62038    8.50000 65030.00000
 1932.30000    8.58898    8.00193    8.21147    8.25496    2.40762   71.83950    0.26133   -9999.25   92.36698  -14.76772    8.50000 65030.00000
 1932.40000    8.59082    7.44930    7.72945    7.76525    2.41058   72.10200    0.26070   -9999.25   92.79281  -14.89787    8.50000 65030.00000
 1932.50000    8.59024    7.44505    7.74346    7.77268    2.41334   73.85260    0.26190   -9999.25   92.19602  -15.18491    8.50000 65030.00000
 1932.60000    8.59112    7.47200    7.74005    7.76074    2.41424   73.52765    0.26340   -9999.25   92.00649  -15.22674    8.50000 65030.00000
 1932.70000    8.59180    8.29501    8.48137    8.43146    2.40301   74.29444    0.26302   -9999.25   91.90889  -15.41913    8.50000 65030.00000
 1932.80000    8.59091    8.22763    8.44701    8.39587    2.40590   72.14175    0.26326   -9999.25   92.30904  -15.07758    8.50000 65030.00000
 1932.90000    8.58873    8.17264    8.34817    8.30254    2.40315   71.76432    0.26111   -9999.25   91.92996  -14.48741    8.50000 65030.00000
 1933.00000    8.58781    7.92081    8.10240    8.06879    2.40472   72.45436    0.26058   -9999.25   92.29643  -14.70466    8.50000 65030.00000
 1933.10000    8.59050    7.92809    8.14747    8.12450    2.40166   73.26338    0.25797   -9999.25   91.97274  -14.11070    8.50000 65030.00000
 1933.20000    8.58983    8.04509    8.19335    8.19707    2.39376   73.14115    0.25493   -9999.25   92.67851  -14.38663    8.50000 65030.00000
 1933.30000    8.59201    8.18223    8.31321    8.32598    2.39126   72.56948    0.25361   -9999.25   92.62633  -14.41994    8.50000 65030.00000
 1933.40000    8.59263    8.11356    8.40124    8.44058    2.39470   73.53041    0.25485   -9999.25   93.70427  -14.01477    8.50000 65030.00000
 1933.50000    8.59150    7.93055    8.23126    8.28114    2.39164   74.29782    0.25605   -9999.25   93.07924  -14.44746    8.50000 65030.00000
 1933.60000    8.58952    8.36325    8.74459    8.74443    2.39340   75.58040    0.25754   -9999.25   92.97667  -14.03637    8.50000 65030.00000
 1933.70000    8.59055    8.21751    8.64824    8.60014    2.38978   75.96188    0.25750   -9999.25   93.21995  -14.39011    8.50000 65030.00000
 1933.80000    8.59071    8.10950    8.51922    8.44038    2.38633   76.29989    0.25974   -9999.25   93.25626  -14.44427    8.50000 65030.00000
 1933.90000    8.59181    8.13863    8.57792    8.51711    2.38491   76.34997    0.26002   -9999.25   92.86441  -14.63017    8.50000 65030.00000
 1934.00000    8.58926    7.78268    8.24962    8.22399    2.39164   77.27139    0.25745   -9999.25   92.69964  -14.63303    8.50000 65030.00000
 1934.10000    8.58385    6.87828    7.26125    7.19883    2.39292   76.47894    0.25534   -9999.25   92.53795  -14.94725    8.50000 65030.00000
 1934.20000    8.58319    7.20538    7.51081    7.44569    2.40034   74.97587    0.25357   -9999.25   92.39283  -14.95733    8.50000 65030.00000
 1934.30000    8.58237    7.07565    7.27564    7.20058    2.40186   76.43041    0.25665   -9999.25   91.90782  -14.60333    8.50000 65030.00000
 1934.40000    8.58208    7.13423    7.29894    7.21495    2.40584   77.50589    0.25461   -9999.25   92.14604  -14.40291    8.50000 65030.00000
 1934.50000    8.58081    6.63370    6.77625    6.66950    2.39963   77.32165    0.25683   -9999.25   91.50498  -14.59482    8.50000 65030.00000
 1934.60000    8.57932    6.78225    6.83592    6.74043    2.39608   76.02207    0.25332   -9999.25   91.88547  -14.46281    8.50000 65030.00000
 1934.70000    8.57608    6.92838    6.97319    6.88474    2.39738   76.41882    0.25053   -9999.25   91.79909  -14.50468    8.50000 65030.00000
 1934.80000    8.57693    6.16381    6.34714    6.34015    2.39706   75.49421    0.25154   -9999.25   92.01918  -14.65270    8.50000 65030.00000
 1934.90000    8.57809    6.12578    6.30290    6.29306    2.39804   74.99972    0.25384   -9999.25   91.44551  -14.59686    8.50000 65030.00000
 1935.00000    8.57733    6.16683    6.34909    6.31560    2.40163   75.67490    0.25565   -9999.25   92.17658  -15.35283    8.50000 65030.00000
