~Version ---------------------------------------------------
VERS.   2.0 : CWLS log ASCII Standard -VERSION 2.0
WRAP.    NO : One line per depth step
DLM . SPACE : Column Data Section Delimiter
~Well ------------------------------------------------------
STRT.m          1000.00000 : START DEPTH
STOP.m          2000.00000 : STOP DEPTH
STEP.m             0.10000 : STEP
NULL.             -9999.25 : NULL VALUE
COMP. FORCE 2020 Recreator : 
WELL.   WELL_FORCE_2020_06 : 
FLD .                      : FIELD
LOC .                      : LOCATION
PROV.                      : PROVINCE
CNTY.                      : COUNTY
STAT.                      : STATE
CTRY.                      : COUNTRY
SRVC.                      : SERVICE COMPANY
DATE.                      : DATE
UWI .                      : UNIQUE WELL ID
API .                      : API NUMBER
~Curve Information -----------------------------------------
DEPT                            .m      : 
CALI                            .in     : 
RSHA                            .ohm.m  : 
RMED                            .ohm.m  : 
RDEP                            .ohm.m  : 
RHOB                            .g/cm3  : 
GR                              .gAPI   : 
NPHI                            .v/v    : 
PEF                             .b/e    : 
DTC                             .us/ft  : 
SP                              .mV     : 
BS                              .in     : 
FORCE_2020_LITHOFACIES_LITHOLOGY.code   : 
~Params ----------------------------------------------------
~Other -----------------------------------------------------
~ASCII -----------------------------------------------------
# ...
 1263.20000    8.57225   13.75577   13.95242   13.92766    2.28691   15.27173    0.27554    4.83188   74.07565   -1.75984    8.50000 70032.00000
 1263.30000    8.57181   13.01590   13.27126   13.18186    2.28962   15.15438    0.27642    4.83670   73.18915   -1.64506    8.50000 70032.00000
 1263.40000    8.57134   13.78422   13.97422   13.93190    2.29649   15.17963    0.28542    4.83530   73.15529   -1.21861    8.50000 70032.00000
 1263.50000    8.57400   13.70722   13.95873   13.88805    2.29424   15.10509    0.28524    4.83316   72.97058   -1.20951    8.50000 70032.00000
 1263.60000    8.57645   13.73842   13.95299   13.91165    2.29894   14.89456    0.28433    4.83889   73.20580   -1.20293    8.50000 70032.00000
 1263.70000    8.57809   13.41545   13.59032   13.59824    2.30580   14.94955    0.28110    4.81321   73.19725   -1.31979    8.50000 70032.00000
 1263.80000    8.57890   13.73760   13.77826   13.75571    2.30680   15.36960    0.28095    4.81019   73.72103   -1.32467    8.50000 70032.00000
 1263.90000    8.57769   13.42979   13.49686   13.44441    2.30812   15.02466    0.27759    4.79817   73.67808   -1.49308    8.50000 70032.00000
 1264.00000    8.58230   13.11001   13.09193   13.09284    2.30641   15.18687    0.27196    4.79241   73.65696   -1.25796    8.50000 70032.00000
 1264.10000    8.58371   13.13380   13.07288   13.05121    2.30734   15.02897    0.26525    4.80442   73.08899   -1.41611    8.50000 70032.00000
 1264.20000    8.58196   12.84113   12.85224   12.83896    2.30235   15.18370    0.26773    4.79839   72.54475   -1.36127    8.50000 70032.00000
 1264.30000    8.58429   12.58295   12.52245   12.43996    2.30220   15.20598    0.26790    4.78598   72.96195   -1.34294    8.50000 70032.00000
 1264.40000    8.58702   13.25670   13.08207   13.05769    2.30544   14.85829    0.26604    4.79114   72.49683   -1.08236    8.50000 70032.00000
 1264.50000    8.58612   13.59186   13.30333   13.24128    2.29915   14.48270    0.26729    4.77963   73.02143   -0.93268    8.50000 70032.00000
 1264.60000    8.58784   14.00576   13.63730   13.66737    2.29636   14.56068    0.26595    4.77912   73.48891   -1.03645    8.50000 70032.00000
 1264.70000    8.59176   12.55393   11.98998   12.14903    2.30163   14.99143    0.26866    4.77217   73.74834   -1.09873    8.50000 70032.00000
 1264.80000    8.59490   12.37618   11.87065   12.04764    2.30404   15.22934    0.26906    4.76609   73.56758   -1.10781    8.50000 70032.00000
 1264.90000    8.59287   12.92436   12.55125   12.58125    2.29951   14.80062    0.26946    4.77408   73.72541   -1.49348    8.50000 70032.00000
 1265.00000    8.59380   13.52900   13.17253   13.23526    2.30025   15.30700    0.27036    4.77251   74.50456   -1.72382    8.50000 70032.00000
 1265.10000    8.59333   15.36197   14.67508   14.73607    2.30212   14.93376    0.27883    4.77043   74.56540   -1.75340    8.50000 70032.00000
 1265.20000    8.59153   15.10710   14.37631   14.42479    2.30144   15.00136    0.27447    4.76286   74.31602   -1.89958    8.50000 70032.00000
 1265.30000    8.59083   15.06817   14.44254   14.44530    2.30325   15.27722    0.27541    4.75006   74.83317   -1.99712    8.50000 70032.00000
 1265.40000    8.59253   15.31716   14.61107   14.64664    2.30054   14.93013    0.27540    4.74224   75.66762   -2.21489    8.50000 70032.00000
 1265.50000    8.59179   14.92793   14.30574   14.31448    2.29838   14.63809    0.27543    4.74138   75.41666   -2.57355    8.50000 70032.00000
 1265.60000    8.59157   15.25353   14.65452   14.65505    2.29790   14.55743    0.27515    4.74797   76.77406   -2.73606    8.50000 70032.00000
 1265.70000    8.58953   15.22644   14.74243   14.74102    2.29156   14.81390    0.27898    4.74123   76.40707   -2.58997    8.50000 70032.00000
 1265.80000    8.58828   15.22613   14.68347   14.69613    2.28657   14.82242    0.27909    4.74356   76.11288   -2.63455    8.50000 70032.00000
 1265.90000    8.58660   14.86126   14.32346   14.35033    2.28791   14.58636    0.27270    4.75302   74.96292   -2.44653    8.50000 70032.00000
 1266.00000    8.58905   15.60169   14.92272   15.00415    2.28768   14.75605    0.27658    4.76522   75.48664   -1.98722    8.50000 70032.00000
 1266.10000    8.58733   16.11928   15.41186   15.49537    2.28908   14.83496    0.27950    4.77079   74.82121   -2.24699    8.50000 70032.00000
 1266.20000    8.58579   17.22447   16.38081   16.47524    2.28883   15.07536    0.27854    4.76259   75.20229   -2.17372    8.50000 70032.00000
 1266.30000    8.59061   17.26911   16.46898   16.55465    2.28652   15.36873    0.28188    4.75900   75.75190   -2.01264    8.50000 70032.00000
 1266.40000    8.58796   17.36132   16.56322   16.67544    2.28814   15.50482    0.28836    4.77399   75.15116   -2.22291    8.50000 70032.00000
 1266.50000    8.58354   16.44219   15.73701   15.79777    2.27984   15.84247    0.29133    4.78173   75.56921   -2.02867    8.50000 70032.00000
 1266.60000    8.58628   16.16113   15.52069   15.57358    2.28576   16.09321    0.29378    4.77196   75.33063   -2.24864    8.50000 70032.00000
 1266.70000    8.58388   15.88086   15.34088   15.31309    2.28486   16.21293    0.29198    4.77135   75.33113   -2.26996    8.50000 70032.00000
 1266.80000    8.58254   15.74686   15.18250   15.13236    2.28444   15.61789    0.29272    4.77790   75.53719   -2.22168    8.50000 70032.00000
 1266.90000    8.58000   15.88641   15.38406   15.26559    2.28136   15.13263    0.28743    4.79409   75.65256   -2.21680    8.50000 70032.00000
 1267.00000    8.58199   15.68521   15.02357   15.09053    2.28287   15.48378    0.29494    4.79756   75.62628   -2.06662    8.50000 70032.00000
 1267.10000    8.58252   15.96360   15.54330   15.73857    2.28089   15.45075    0.29337    4.79279   75.28089   -1.84982    8.50000 70032.00000
 1267.20000    8.58167   14.52618   14.32929   14.51933    2.28083   15.98010    0.28682    4.79435   75.45620   -1.63860    8.50000 70032.00000
 1267.30000    8.58223   14.99931   14.81556   15.08633    2.27895   15.80456    0.28841    4.80248   75.79763   -1.73868    8.50000 70032.00000
 1267.40000    8.58403   15.10671   14.92370   15.20381    2.27682   15.52151    0.28553    4.81716   74.98711   -1.66613    8.50000 70032.00000
 1267.50000    8.58316   15.11219   14.85544   15.16350    2.27485   15.98855    0.28768    4.81577   74.64925   -1.73906    8.50000 70032.00000
 1267.60000    8.58368   14.89888   14.51981   14.86071    2.27286   16.25803    0.28521    4.82026   75.00964   -1.93944    8.50000 70032.00000
 1267.70000    8.58024   15.15681   14.72015   15.04403    2.27341   16.53462    0.28313    4.81425   74.14763   -2.11322    8.50000 70032.00000
 1267.80000    8.57987   15.07496   14.57059   14.90699    2.27442   16.76747    0.27921    4.81154   74.63258   -2.06825    8.50000 70032.00000
 1267.90000    8.57889   15.19722   14.79124   15.11557    2.27379   17.03319    0.28012    4.81774   74.70809   -1.70154    8.50000 70032.00000
 1268.00000    8.57872   15.76907   15.44181   15.82186    2.26872   16.92610    0.28677    4.80358   75.69319   -1.82689    8.50000 70032.00000
 1268.10000    8.57613   15.61239   15.35453   15.68925    2.26334   16.83647    0.28763    4.79625   75.49687   -2.07972    8.50000 70032.00000
 1268.20000    8.57451   15.60869   15.31727   15.62254    2.26449   16.77376    0.29088    4.78435   76.04130   -1.97996    8.50000 70032.00000
 1268.30000    8.57728   14.59727   14.41461   14.74274    2.26648   16.69929    0.29135    4.78733   75.99024   -2.08363    8.50000 70032.00000
 1268.40000    8.57545   14.63274   14.48306   14.81886    2.26728   16.71530    0.28906    4.78725   76.34203   -2.17299    8.50000 70032.00000
 1268.50000    8.57807   14.45077   14.38683   14.66962    2.26583   16.76521    0.28518    4.78900   75.67929   -2.03565    8.50000 70032.00000
 1268.60000    8.58245   14.92261   15.08690   15.25847    2.27079   16.66367    0.28458    4.78936   75.61627   -2.20871    8.50000 70032.00000
 1268.70000    8.57934   15.26003   15.33903   15.56531    2.26658   16.38165    0.28160    4.79044   75.48402   -2.07599    8.50000 70032.00000
