~Version ---------------------------------------------------
VERS.   2.0 : CWLS log ASCII Standard -VERSION 2.0
WRAP.    NO : One line per depth step
DLM . SPACE : Column Data Section Delimiter
~Well ------------------------------------------------------
STRT.m          1000.00000 : START DEPTH
STOP.m          2000.00000 : STOP DEPTH
STEP.m             0.10000 : STEP
NULL.             -9999.25 : NULL VALUE
COMP. FORCE 2020 Recreator : 
WELL.   WELL_FORCE_2020_01 : 
FLD .                      : FIELD
LOC .                      : LOCATION
PROV.                      : PROVINCE
CNTY.                      : COUNTY
STAT.                      : STATE
CTRY.                      : COUNTRY
SRVC.                      : SERVICE COMPANY
DATE.                      : DATE
UWI .                      : UNIQUE WELL ID
API .                      : API NUMBER
~Curve Information -----------------------------------------
DEPT                            .m      : 
CALI                            .in     : 
RSHA                            .ohm.m  : 
RMED                            .ohm.m  : 
RDEP                            .ohm.m  : 
RHOB                            .g/cm3  : 
GR                              .gAPI   : 
NPHI                            .v/v    : 
PEF                             .b/e    : 
DTC                             .us/ft  : 
SP                              .mV     : 
BS                              .in     : 
FORCE_2020_LITHOFACIES_LITHOLOGY.code   : 
~Params ----------------------------------------------------
~Other -----------------------------------------------------
~ASCII -----------------------------------------------------
# ...
 1733.60000    8.57602   44.82919   43.79907   43.81513    2.68383   19.31170    0.09886    5.13674   57.06183   -4.50794    8.50000 70000.00000
 1733.70000    8.57893   45.86556   44.93796   44.66943    2.68297   19.44809    0.09675    5.12525   57.14446   -4.51472    8.50000 70000.00000
 1733.80000    8.58293   42.80366   42.19833   41.79200    2.67929   19.66351    0.09756    5.13669   57.40695   -4.49550    8.50000 70000.00000
 1733.90000    8.58769   42.90370   42.49310   42.06875    2.68042   19.89579    0.09672    5.14533   57.66128   -3.78377    8.50000 70000.00000
 1734.00000    8.58422   44.21438   43.47781   43.14702    2.67725   20.41113    0.09433    5.14265   57.50218   -3.71059    8.50000 70000.00000
 1734.10000    8.58327   37.97534   37.56014   37.04914    2.67699   20.64387    0.09478    5.13218   57.60896   -3.75526    8.50000 70000.00000
 1734.20000    8.58481   35.91924   35.00253   34.92816    2.67637   20.32486    0.09475    5.12895   57.53292   -3.82988    8.50000 70000.00000
 1734.30000    8.58390   37.07460   36.21620   36.04949    2.67872   20.37625    0.09559    5.12139   57.60068   -4.05602    8.50000 70000.00000
 1734.40000    8.58150   38.78363   37.68592   37.68440    2.67954   20.27043    0.09468    5.12244   58.00965   -4.24886    8.50000 70000.00000
 1734.50000    8.57881   37.11928   36.02102   36.04941    2.67826   20.28895    0.09318    5.11453   57.33839   -4.37610    8.50000 70000.00000
 1734.60000    8.58018   35.25421   34.01858   34.41620    2.67932   19.94019    0.09569    5.10457   57.16226   -4.33735    8.50000 70000.00000
 1734.70000    8.58220   35.45705   34.09705   34.45286    2.67987   19.89740    0.09440    5.10422   57.60225   -4.54970    8.50000 70000.00000
 1734.80000    8.57942   36.70436   34.87450   35.42783    2.67529   19.64896    0.09475    5.09555   57.48133   -4.55212    8.50000 70000.00000
 1734.90000    8.58023   36.83048   35.36584   35.70255    2.67744   20.19811    0.09381    5.09209   57.25607   -4.85047    8.50000 70000.00000
 1735.00000    8.58096   36.89047   35.47887   35.90655    2.67719   20.94040    0.09566    5.09140   57.50855   -4.74752    8.50000 70000.00000
 1735.10000    8.58163   38.00054   36.51073   36.96263    2.67568   20.56722    0.09663    5.09673   57.79764   -5.22130    8.50000 70000.00000
 1735.20000    8.58435   37.00566   35.36848   35.65556    2.67527   20.95780    0.09964    5.08239   57.84108   -5.16752    8.50000 70000.00000
 1735.30000    8.58493   40.24719   38.61575   38.80358    2.67413   20.62837    0.10000    5.07485   57.72764   -5.38475    8.50000 70000.00000
 1735.40000    8.58487   37.19265   36.04372   35.88822    2.66944   20.87741    0.10174    5.08484   58.00561   -5.17581    8.50000 70000.00000
 1735.50000    8.58750   35.99602   34.86559   34.64824    2.66834   21.29160    0.10346    5.08371   58.11848   -5.63655    8.50000 70000.00000
 1735.60000    8.58646   37.48779   36.35594   36.06542    2.66838   21.66993    0.10364    5.05939   58.09073   -5.64773    8.50000 70000.00000
 1735.70000    8.58220   37.43227   36.46054   36.08283    2.66820   22.30455    0.10202    5.05681   58.09586   -5.74864    8.50000 70000.00000
 1735.80000    8.57909   36.67288   35.64299   35.61761    2.66556   22.08551    0.10076    5.05896   58.35968   -5.60133    8.50000 70000.00000
 1735.90000    8.57545   37.36756   36.43992   36.36973    2.66638   21.89752    0.09996    5.05525   58.04161   -5.48619    8.50000 70000.00000
 1736.00000    8.57170   37.64792   36.67672   36.63505    2.66726   21.76703    0.09912    5.05456   58.02005   -5.66995    8.50000 70000.00000
 1736.10000    8.57393   37.23351   36.48331   36.39641    2.66653   21.67251   -9999.25    5.05095   58.20493   -5.52785    8.50000 70000.00000
 1736.20000    8.57339   43.58875   43.14373   43.26570    2.66495   21.60268    0.09689    5.05247   57.81578   -5.28781    8.50000 70000.00000
 1736.30000    8.57324   42.11524   41.99938   41.99520    2.66527   21.62915    0.09642    5.04743   57.50140   -5.40458    8.50000 70000.00000
 1736.40000    8.57798   41.18496   41.31935   41.43051    2.66316   21.39724    0.09490    5.05037   57.24675   -5.58601    8.50000 70000.00000
 1736.50000    8.57884   41.11843   41.63025   41.75258    2.66389   21.03457    0.09528    5.04235   57.35598   -5.59246    8.50000 70000.00000
 1736.60000    8.57865   41.13974   41.64164   41.81535    2.66392   20.87665    0.09542    5.04749   57.76095   -5.49528    8.50000 70000.00000
 1736.70000    8.58035   41.34017   41.73026   41.89415    2.66456   21.39398    0.09524    5.05188   57.74765   -5.83006    8.50000 70000.00000
 1736.80000    8.57736   41.52910   41.79599   41.89568    2.66313   21.71788    0.09746    5.06267   57.32863   -5.57530    8.50000 70000.00000
 1736.90000    8.57618   39.54217   40.04327   40.03379    2.66208   21.77824    0.09531    5.06848   57.44913   -5.25231    8.50000 70000.00000
 1737.00000    8.57340   38.99911   39.55528   39.66629    2.66320   20.98571    0.09763    5.07108   57.50061   -4.80109    8.50000 70000.00000
 1737.10000    8.57355   41.50970   42.30643   42.16963    2.66393   20.51420    0.09676    5.07393   57.49376   -4.69939    8.50000 70000.00000
 1737.20000    8.57701   40.90764   41.62052   41.52313    2.66516   20.75602    0.09522    5.05771   57.38793   -4.70148    8.50000 70000.00000
 1737.30000    8.57556   41.52030   42.37494   42.30498    2.66398   21.13412    0.09358    5.07002   57.45024   -5.24453    8.50000 70000.00000
 1737.40000    8.57698   42.14906   43.26551   44.01233    2.66413   21.73142    0.09477    5.06985   57.70702   -5.15717    8.50000 70000.00000
 1737.50000    8.57601   42.48859   43.02648   43.95881    2.66817   22.22812    0.09456    5.06825   57.30240   -5.06308    8.50000 70000.00000
 1737.60000    8.57509   42.48182   42.91571   43.85403    2.66946   22.24064    0.09239    5.07370   57.42911   -4.84290    8.50000 70000.00000
 1737.70000    8.57496   44.91725   44.77017   45.85817    2.67180   22.06176    0.09288    5.08368   57.71184   -4.93102    8.50000 70000.00000
 1737.80000    8.57531   -9999.25   45.09435   46.17771    2.67412   21.73366    0.09614    5.08833   57.26720   -4.68675    8.50000 70000.00000
 1737.90000    8.57693   44.53121   44.48027   45.49047    2.67398   21.98866    0.09830    5.08339   56.88091   -4.70247    8.50000 70000.00000
 1738.00000    8.57914   44.98134   44.93219   45.93429    2.67672   21.97129    0.09769    5.08852   56.89761   -4.68302    8.50000 70000.00000
 1738.10000    8.57864   45.25642   44.96328   46.21076    2.67574   21.88625    0.09771    5.08462   56.52479   -4.80082    8.50000 70000.00000
 1738.20000    8.57809   44.67365   44.55053   45.81303    2.67597   21.89558    0.09798    5.08450   56.60271   -4.94546    8.50000 70000.00000
 1738.30000    8.57674   38.18138   37.67305   38.62172    2.67590   21.94980    0.09989    5.08958   57.28897   -4.97442    8.50000 70000.00000
 1738.40000    8.57754   38.40124   38.14564   39.07960    2.67745   22.15147    0.09817    5.08272   57.82999   -4.71288    8.50000 70000.00000
 1738.50000    8.57402   38.96868   39.06136   39.90163    2.67898   22.26585    0.09834    5.09427   58.13450   -4.43166    8.50000 70000.00000
 1738.60000    8.57561   37.90465   37.87002   38.46716    2.67575   22.67930    0.09959    5.11134   57.84342   -4.10710    8.50000 70000.00000
 1738.70000    8.57313   38.42212   38.07816   38.69649    2.67830   22.68564    0.09911    5.09900   58.02359   -4.16755    8.50000 70000.00000
 1738.80000    8.57137   40.10536   39.84302   40.53681    2.67615   22.78392    0.10055    5.09368   57.88282   -3.92878    8.50000 70000.00000
 1738.90000    8.57328   42.76249   42.29532   43.09734    2.67798   22.68431    0.09999    5.08127   58.18031   -3.79383    8.50000 70000.00000
 1739.00000    8.57583   43.33075   42.89852   43.73139    2.68344   22.73727    0.09960    5.08441   58.30272   -3.95070    8.50000 70000.00000
 1739.10000    8.57733   47.51489   47.86558   48.86225    2.67805   22.83878    0.09741    5.08934   58.65467   -4.34175    8.50000 70000.00000
