~Version ---------------------------------------------------
VERS.   2.0 : CWLS log ASCII Standard -VERSION 2.0
WRAP.    NO : One line per depth step
DLM . SPACE : Column Data Section Delimiter
~Well ------------------------------------------------------
STRT.m          1000.00000 : START DEPTH
STOP.m          2000.00000 : STOP DEPTH
STEP.m             0.10000 : STEP
NULL.             -9999.25 : NULL VALUE
COMP. FORCE 2020 Recreator : 
WELL.   WELL_FORCE_2020_02 : 
FLD .                      : FIELD
LOC .                      : LOCATION
PROV.                      : PROVINCE
CNTY.                      : COUNTY
STAT.                      : STATE
CTRY.                      : COUNTRY
SRVC.                      : SERVICE COMPANY
DATE.                      : DATE
UWI .                      : UNIQUE WELL ID
API .                      : API NUMBER
~Curve Information -----------------------------------------
DEPT                            .m      : 
CALI                            .in     : 
RSHA                            .ohm.m  : 
RMED                            .ohm.m  : 
RDEP                            .ohm.m  : 
RHOB                            .g/cm3  : 
GR                              .gAPI   : 
NPHI                            .v/v    : 
PEF                             .b/e    : 
DTC                             .us/ft  : 
SP                              .mV     : 
BS                              .in     : 
FORCE_2020_LITHOFACIES_LITHOLOGY.code   : 
~Params ----------------------------------------------------
~Other -----------------------------------------------------
~ASCII -----------------------------------------------------
# ...
 1795.20000    8.57959    4.10452    4.07270    4.11371   -9999.25   82.67591    0.30030    3.16322   98.98566   -0.23987    8.50000 80000.00000
 1795.30000    8.57760    4.00446    3.99658    4.04227    2.50880   83.18701    0.30462    3.16997   98.60433    0.12168    8.50000 80000.00000
 1795.40000    8.58200    3.87141    3.87873    3.91923    2.51189   83.83087    0.30289    3.16759   98.14154   -0.04270    8.50000 80000.00000
 1795.50000    8.58599    3.81307    3.85191    3.89207    2.51978   82.97778    0.30325    3.14859   98.48850    0.47112    8.50000 80000.00000
 1795.60000    8.58330    3.86651    3.90336    3.93097    2.52609   82.53153    0.30279    3.14605   97.36973    0.82015    8.50000 80000.00000
 1795.70000    8.58276    3.97079    4.00678    4.02125    2.53181   82.55673    0.30479    3.16136   97.08005    0.72003    8.50000 80000.00000
 1795.80000    8.58148    3.98787    3.99060    4.02119    2.53220   82.17494    0.30911    3.16034   96.94678    0.48529    8.50000 80000.00000
 1795.90000    8.58438    4.12672    4.24536    4.27562    2.52610   81.53827    0.31007    3.14831   96.58704    0.22403    8.50000 80000.00000
 1796.00000    8.58567    4.21913    4.32168    4.36669    2.52364   80.43393    0.31174    3.13573   96.85822    0.39052    8.50000 80000.00000
 1796.10000    8.58661    4.07726    4.13902    4.20932    2.52433   80.51123    0.31312    3.13192   96.54220    0.12399    8.50000 80000.00000
 1796.20000    8.58878    4.06393    4.18375    4.22716    2.52540   79.94407    0.31255    3.12846   96.75542    0.02082    8.50000 80000.00000
 1796.30000    8.58844    3.99395    4.09474    4.14518    2.52606   80.32317    0.31199    3.13780   96.57086   -0.15728    8.50000 80000.00000
 1796.40000    8.59075    4.02517    4.12502    4.17300    2.52405   80.57726    0.31585    3.15817   96.86811   -0.18194    8.50000 80000.00000
 1796.50000    8.59006    4.36260    4.50591    4.50556    2.53041   81.18266    0.31615    3.15539   96.72786    0.09879    8.50000 80000.00000
 1796.60000    8.58652    4.45075    4.57028    4.57461    2.53391   81.31516    0.31489    3.15724   95.62821    0.13540    8.50000 80000.00000
 1796.70000    8.58809    4.07194    4.24842    4.26369    2.52724   81.51190    0.31448    3.17359   95.74550    0.22830    8.50000 80000.00000
 1796.80000    8.58515    4.07594    4.25085    4.24155    2.53097   80.97718    0.31314    3.17693   95.67551    0.13034    8.50000 80000.00000
 1796.90000    8.58372    4.07898    4.25647    4.23594    2.53218   80.62627    0.31239    3.16151   95.42045    0.12221    8.50000 80000.00000
 1797.00000    8.58272    4.10643    4.27168    4.25088    2.52919   81.21198    0.31425    3.17189   95.18959    0.16427    8.50000 80000.00000
 1797.10000    8.58408    4.13776    4.32271    4.28764    2.52495   81.00574    0.31637    3.15637   94.77712    0.09421    8.50000 80000.00000
 1797.20000    8.58343    4.22628    4.36076    4.33224    2.52092   81.02657    0.31592    3.16617   95.24071   -0.71640    8.50000 80000.00000
 1797.30000    8.58102    4.18397    4.33870    4.28308    2.52104   81.21311    0.31468    3.16862   95.52616   -0.74721    8.50000 80000.00000
 1797.40000    8.57654    4.28406    4.45009    4.39686    2.52276   80.44255    0.31387    3.16338   96.04025   -0.64630    8.50000 80000.00000
 1797.50000    8.57658    4.33872    4.52427    4.46145    2.52517   79.55605    0.31518    3.17257   95.72631   -0.61803    8.50000 80000.00000
 1797.60000    8.57847    4.29924    4.46881    4.40435    2.52127   79.07738    0.31518    3.18535   95.36993   -0.96147    8.50000 80000.00000
 1797.70000    8.57867    4.24576    4.45427    4.39918    2.51238   79.71911    0.31480    3.17356   96.08098   -1.18892    8.50000 80000.00000
 1797.80000    8.58071    4.31314    4.49545    4.43879    2.51077   80.46519    0.31477    3.16806   96.01223   -0.99603    8.50000 80000.00000
 1797.90000    8.58188    4.16938    4.33632    4.28040    2.51048   81.27786    0.31298    3.18799   96.49539   -0.81691    8.50000 80000.00000
 1798.00000    8.58109    3.95462    3.99850    3.95070    2.51425   79.81754    0.31379    3.18756   97.16176   -0.96289    8.50000 80000.00000
 1798.10000    8.58084    3.99603    4.08172    4.00010    2.51378   80.57932    0.31270    3.20791   97.50746   -1.33147    8.50000 80000.00000
 1798.20000    8.58195    4.05671    4.13708    4.05910    2.51553   81.17531    0.31079    3.21042   97.66338   -1.06545    8.50000 80000.00000
 1798.30000    8.58047    4.03617    4.07107    4.02077    2.51375   80.65803    0.30990    3.19978   97.39234   -0.60572    8.50000 80000.00000
 1798.40000    8.57701    4.11095    4.14176    4.10089    2.51890   80.58325    0.31182    3.19117   97.13744   -0.21472    8.50000 80000.00000
 1798.50000    8.57491    3.96173    3.99077    3.95009    2.52224   80.42730    0.30966    3.20754   96.29649   -0.48355    8.50000 80000.00000
 1798.60000    8.57853    3.78150    3.75252    3.76142    2.52411   79.36718    0.31115    3.21044   96.89418   -0.56996    8.50000 80000.00000
 1798.70000    8.57848    3.87732    3.84455    3.83291    2.52349   78.60052    0.31291    3.20570   96.92658   -0.54859    8.50000 80000.00000
 1798.80000    8.57890    3.88814    3.86884    3.83416    2.52126   78.43911    0.31516    3.19803   96.40767   -0.55432    8.50000 80000.00000
 1798.90000    8.58178    3.78269    3.75727    3.74446    2.51928   78.64177    0.31739    3.19599   96.38480   -0.38290    8.50000 80000.00000
 1799.00000    8.58356    3.95428    4.01502    3.98957    2.51832   78.47167    0.31981    3.21182   95.96644   -0.23168    8.50000 80000.00000
 1799.10000    8.58272    4.05530    4.14057    4.10553    2.52518   78.93563    0.32067    3.20472   95.47747    0.02658    8.50000 80000.00000
 1799.20000    8.58183    4.13793    4.17269    4.14768    2.52858   79.08205    0.31875    3.21932   94.86085    0.17076    8.50000 80000.00000
 1799.30000    8.58315    4.10412    4.15434    4.12594    2.53134   79.52968    0.31980    3.21526   94.08587    0.81630    8.50000 80000.00000
 1799.40000    8.58371    4.17750    4.25118    4.24985    2.53153   79.71239    0.32333    3.22140   93.83704    0.82877    8.50000 80000.00000
 1799.50000    8.58645    4.06478    4.14788    4.13922    2.52538   79.46688    0.31953    3.22127   93.66578    0.47788    8.50000 80000.00000
 1799.60000    8.58511    4.19391    4.23097    4.21319    2.51678   80.63266    0.31994    3.21459   93.89991    1.23910    8.50000 80000.00000
 1799.70000    8.58517    4.22232    4.29495    4.26144    2.52039   81.57281    0.31847    3.21952   93.77205    1.41730    8.50000 80000.00000
 1799.80000    8.58657    4.24335    4.29880    4.26434    2.52777   81.03783    0.32277    3.22802   93.88016    1.52809    8.50000 80000.00000
 1799.90000    8.58483    4.14567    4.21467    4.19153    2.52807   80.80613    0.32188    3.23686   93.81952    1.53465    8.50000 80000.00000
 1800.00000    8.58676    4.30809    4.40580    4.38486    2.53084   79.82367    0.32194    3.22267   93.63014    1.72138    8.50000 80000.00000
 1800.10000    8.58749    4.42370    4.57038    4.53851    2.52651   80.06779    0.32206    3.23332   93.23288    1.64899    8.50000 80000.00000
 1800.20000    8.58959    4.23085    4.35460    4.33722    2.52655   80.48687    0.32437    3.21420   93.04625    1.72458    8.50000 80000.00000
 1800.30000    8.58991    4.16157    4.31550    4.29611    2.52638   79.46625    0.32488    3.22234   92.80069    1.93970    8.50000 80000.00000
 1800.40000    8.59114    4.19741    4.33304    4.30956    2.53201   80.22395    0.32872    3.24075   92.83791    1.62329    8.50000 80000.00000
 1800.50000    8.59600    4.11604    4.27417    4.23672    2.52897   80.34717    0.32897    3.24721   93.08595    1.40008    8.50000 80000.00000
 1800.60000    8.59746    4.29014    4.45395    4.41385    2.52824   81.24047    0.32928    3.24241   93.97751    2.02471    8.50000 80000.00000
 1800.70000    8.59316    4.50664    4.67705    4.66512    2.51919   82.01830    0.32843    3.24187   93.47524    2.17825    8.50000 80000.00000
