~Version ---------------------------------------------------
VERS.   2.0 : CWLS log ASCII Standard -VERSION 2.0
WRAP.    NO : One line per depth step
DLM . SPACE : Column Data Section Delimiter
~Well ------------------------------------------------------
STRT.m          1000.00000 : START DEPTH
STOP.m          2000.00000 : STOP DEPTH
STEP.m             0.10000 : STEP
NULL.             -9999.25 : NULL VALUE
COMP. FORCE 2020 Recreator : 
WELL.   WELL_FORCE_2020_05 : 
FLD .                      : FIELD
LOC .                      : LOCATION
PROV.                      : PROVINCE
CNTY.                      : COUNTY
STAT.                      : STATE
CTRY.                      : COUNTRY
SRVC.                      : SERVICE COMPANY
DATE.                      : DATE
UWI .                      : UNIQUE WELL ID
API .                      : API NUMBER
~Curve Information -----------------------------------------
DEPT                            .m      : 
CALI                            .in     : 
RSHA                            .ohm.m  : 
RMED                            .ohm.m  : 
RDEP                            .ohm.m  : 
RHOB                            .g/cm3  : 
GR                              .gAPI   : 
NPHI                            .v/v    : 
PEF                             .b/e    : 
DTC                             .us/ft  : 
SP                              .mV     : 
BS                              .in     : 
FORCE_2020_LITHOFACIES_LITHOLOGY.code   : 
~Params ----------------------------------------------------
~Other -----------------------------------------------------
~ASCII -----------------------------------------------------
# ...
 1996.20000    8.57158 5939.32474 5542.69909 5610.94465    2.73441  140.11614    0.01244   -9999.25   44.39861   12.50679    8.50000 93000.00000
 1996.30000    8.57016 5937.63624 5549.13789 5597.49521    2.74475  141.07355    0.01221   -9999.25   44.56533   12.20183    8.50000 93000.00000
 1996.40000    8.56732 5512.82155 5209.63834 5250.30453    2.72848  141.16205    0.01218   -9999.25   44.28680   12.44908    8.50000 93000.00000
 1996.50000    8.56757 5497.13641 5194.69934 5235.47887    2.73005  142.64213    0.01246   -9999.25   44.23467   12.87610    8.50000 93000.00000
 1996.60000    8.57124 5521.19621 5220.87130 5262.56362    2.74010  143.03175    0.01271   -9999.25   43.82406   13.74549    8.50000 93000.00000
 1996.70000    8.57118 5347.90687 5050.45581 5091.91565    2.74368  143.74702    0.01282   -9999.25   44.15446   13.20087    8.50000 93000.00000
 1996.80000    8.57016 4899.54676 4586.01813 4614.81544    2.73699  144.53361    0.01289   -9999.25   44.66046   13.14796    8.50000 93000.00000
 1996.90000    8.56990 4972.36617 4652.53933 4693.90094    2.73542  146.24376    0.01348   -9999.25   44.75794   13.15018    8.50000 93000.00000
 1997.00000    8.56849 5148.69814 4795.78304 4842.99429    2.73186  146.20377    0.01420   -9999.25   44.86078   12.92625    8.50000 93000.00000
 1997.10000    8.56772 5648.31721 5247.72709 5321.03792    2.73844  145.55819    0.01478   -9999.25   44.35794   12.81413    8.50000 93000.00000
 1997.20000    8.57083 5973.21907 5542.70452 5613.91526    2.74985  146.15253    0.01464   -9999.25   44.62819   12.62683    8.50000 93000.00000
 1997.30000    8.57267 4949.48334 4771.52081 4760.58294    2.75272  148.58121    0.01503   -9999.25   44.67739   12.39705    8.50000 93000.00000
 1997.40000    8.57658 4804.95324 4598.98335 4601.15187    2.74278  146.58308    0.01440   -9999.25   44.48481   12.26741    8.50000 93000.00000
 1997.50000    8.57851 4173.73706 3978.56805 3988.55245    2.74874  144.68295    0.01402   -9999.25   44.53640   11.76154    8.50000 93000.00000
 1997.60000    8.57988 3402.08483 3261.70992 3290.24900    2.72256  143.13756    0.01429   -9999.25   44.70010   11.93741    8.50000 93000.00000
 1997.70000    8.57795 3394.22566 3253.80720 3283.05583    2.73835  145.82423    0.01375   -9999.25   44.78541   12.00742    8.50000 93000.00000
 1997.80000    8.58077 3411.46538 3270.75874 3299.57433    2.73613  143.55980    0.01446   -9999.25   45.12286   12.39894    8.50000 93000.00000
 1997.90000    8.57808 2953.55758 2894.17726 2911.86053    2.74037  145.60829    0.01473   -9999.25   44.63989   13.10783    8.50000 93000.00000
 1998.00000    8.57725 3097.16122 3084.21067 3083.05462    2.75572  144.62550    0.01500   -9999.25   45.97347   13.36969    8.50000 93000.00000
 1998.10000    8.57644 2872.42548 2804.18240 2815.21293    2.73453  144.20209    0.01576   -9999.25   46.02170   12.80825    8.50000 93000.00000
 1998.20000    8.57562 3052.04956 2956.85653 2990.65516    2.75052  144.41187    0.01613   -9999.25   45.92044   12.77066    8.50000 93000.00000
 1998.30000    8.57706 3997.59788 3843.48493 3912.17270    2.74846  146.71410    0.01616   -9999.25   46.27419   12.65566    8.50000 93000.00000
 1998.40000    8.57688 3910.82050 3744.93754 3834.87193    2.73173  144.56417    0.01621   -9999.25   45.92557   12.59570    8.50000 93000.00000
 1998.50000    8.57829 7647.48708 7135.24869 7335.60217    2.73841  144.81246    0.01718   -9999.25   46.13418   12.76215    8.50000 93000.00000
 1998.60000    8.58008 7701.52793 7185.41355 7386.95686    2.72612  141.65298    0.01648   -9999.25   46.76225   12.71767    8.50000 93000.00000
 1998.70000    8.57837 7691.42552 7175.57047 7374.99986    2.72771  140.24524    0.01653   -9999.25   47.31633   12.01629    8.50000 93000.00000
 1998.80000    8.57727 10629.67653 9868.57326 10310.04839    2.69626  141.57710    0.01593   -9999.25   46.86168   12.35872    8.50000 93000.00000
 1998.90000    8.57649 10636.59521 9870.35256 10313.72389    2.68522  141.69932    0.01569   -9999.25   46.45290   11.73548    8.50000 93000.00000
 1999.00000    8.56380 10503.02457 9736.89752 10172.57618    2.66828  135.97251    0.02457   -9999.25   48.65057    8.95474    8.50000 93000.00000
 1999.10000    8.56381 10842.19251 10072.43426 10523.71570    2.66822  136.89116    0.02447   -9999.25   49.25736    9.00916    8.50000 93000.00000
 1999.20000    8.56251 10785.53786 10036.88031 10481.03412    2.65501  135.14810    0.02418   -9999.25   49.93196    9.23293    8.50000 93000.00000
 1999.30000    8.56071 11003.58365 10247.76842 10719.10996    2.64754  134.57189    0.02461   -9999.25   49.77258    9.03773    8.50000 93000.00000
 1999.40000    8.55761 11560.96610 10765.22643 11266.47771    2.62535  133.22724    0.02461   -9999.25   50.05442    8.57598    8.50000 93000.00000
 1999.50000    8.55275 12188.90456 11344.68781 11872.00463    2.61506  133.48317    0.02581   -9999.25   50.48086    8.28186    8.50000 93000.00000
 1999.60000    8.55000 12416.59924 11517.98148 12096.16761    2.61526  133.60611    0.02728   -9999.25   51.03878    8.76517    8.50000 93000.00000
 1999.70000    8.54807 13277.56641 12315.54787 12936.09154    2.62064  134.18297    0.02805   -9999.25   51.28491    8.32952    8.50000 93000.00000
 1999.80000    8.54622 14284.67855 13251.44540 13919.25043    2.61175  130.79066    0.02995   -9999.25   51.47668    7.61810    8.50000 93000.00000
 1999.90000    8.54120 15435.66265 14318.17429 15042.02452    2.60045  129.61982    0.03051   -9999.25   51.75987    7.30497    8.50000 93000.00000
 2000.00000    8.54193 16544.18797 15316.60661 16074.90936    2.59285  126.87131    0.03210   -9999.25   52.19316    5.66736    8.50000 30000.00000
