~Version ---------------------------------------------------
VERS.   2.0 : CWLS log ASCII Standard -VERSION 2.0
WRAP.    NO : One line per depth step
DLM . SPACE : Column Data Section Delimiter
~Well ------------------------------------------------------
STRT.m          1000.00000 : START DEPTH
STOP.m          2000.00000 : STOP DEPTH
STEP.m             0.10000 : STEP
NULL.             -9999.25 : NULL VALUE
COMP. FORCE 2020 Recreator : 
WELL.   WELL_FORCE_2020_07 : 
FLD .                      : FIELD
LOC .                      : LOCATION
PROV.                      : PROVINCE
CNTY.                      : COUNTY
STAT.                      : STATE
CTRY.                      : COUNTRY
SRVC.                      : SERVICE COMPANY
DATE.                      : DATE
UWI .                      : UNIQUE WELL ID
API .                      : API NUMBER
~Curve Information -----------------------------------------
DEPT                            .m      : 
CALI                            .in     : 
RSHA                            .ohm.m  : 
RMED                            .ohm.m  : 
RDEP                            .ohm.m  : 
RHOB                            .g/cm3  : 
GR                              .gAPI   : 
NPHI                            .v/v    : 
PEF                             .b/e    : 
DTC                             .us/ft  : 
SP                              .mV     : 
BS                              .in     : 
FORCE_2020_LITHOFACIES_LITHOLOGY.code   : 
~Params ----------------------------------------------------
~Other -----------------------------------------------------
~ASCII -----------------------------------------------------
# ...
 1201.60000    9.96073    2.58608    2.58471    2.58394    2.46801  115.00643    0.35929    3.44598  108.34546    5.19562    8.50000 65000.00000
 1201.70000    9.93293    2.56621    2.56256    2.55321    2.46625  114.26556    0.35722    3.45906  108.35590    5.44337    8.50000 65000.00000
 1201.80000    9.95231    2.64623    2.62352    2.62143    2.46433  113.48411    0.35945    3.45262  108.07480    5.05999    8.50000 65000.00000
 1201.90000    9.95822    2.71384    2.69335    2.68817    2.46670  113.71058    0.35616    3.42196  107.67694    4.94171    8.50000 65000.00000
 1202.00000    9.96799    2.69071    2.64896    2.65856    2.47064  113.31138    0.35403    3.42026  106.83519    5.05923    8.50000 65000.00000
 1202.10000    9.95722    2.74442    2.67757    2.67963    2.47659  113.51454    0.35083    3.40658  106.52155    5.14623    8.50000 65000.00000
 1202.20000    9.96216    2.83985    2.74652    2.75154    2.47512  112.21439    0.34657    3.41739  106.60197    5.34579    8.50000 65000.00000
 1202.30000    9.96402    2.81829    2.75246    2.74641    2.47383  111.83126    0.34647    3.42605  106.21419    5.13613    8.50000 65000.00000
 1202.40000    9.98806    2.88242    2.84662    2.81671    2.47260  112.07649    0.34583    3.42252  105.94545    5.08025    8.50000 65000.00000
 1202.50000    9.98579    2.87347    2.84032    2.80788    2.47016  110.86056    0.34792    3.40998  106.18710    5.19252    8.50000 65000.00000
 1202.60000    9.99530    2.71697    2.69077    2.65314    2.47375  111.64383    0.34814    3.40243  106.12106    5.22970    8.50000 65000.00000
 1202.70000   10.01518    2.71478    2.69368    2.65012    2.47428  111.19429    0.35210    3.39789  106.34313    5.26384    8.50000 65000.00000
 1202.80000   10.04273    2.59114    2.58953    2.52600    2.47581  111.47750    0.35531    3.41623  107.83218    5.10275    8.50000 65000.00000
 1202.90000    9.98662    2.56860    2.57437    2.51246    2.47778  112.44440    0.35487    3.42321  106.20180    5.16171    8.50000 65000.00000
 1203.00000    9.96191    2.59491    2.59836    2.52603    2.48058  111.28678    0.35403    3.40245  105.40704    5.25478    8.50000 65000.00000
 1203.10000    9.97327    2.63651    2.64714    2.57666    2.48648  112.21502    0.35422    3.40775  105.36971    5.49372    8.50000 65000.00000
 1203.20000    9.98073    2.60756    2.61705    2.54938    2.48724  112.77535    0.35216    3.42677  105.10860    5.32472    8.50000 65000.00000
 1203.30000    9.97475    2.56982    2.57293    2.50754    2.48956  112.88841    0.35571    3.41302  105.31149    5.36838    8.50000 65000.00000
 1203.40000    9.99381    2.52554    2.52727    2.46703    2.49194  111.85455    0.34804    3.39869  105.05617    4.90851    8.50000 65000.00000
 1203.50000    9.98223    2.48986    2.50726    2.44297    2.49228  112.52281    0.35124    3.39899  105.53030    5.39784    8.50000 65000.00000
 1203.60000    9.96271    2.56547    2.56889    2.51149    2.49152  112.83625    0.35217    3.39393  105.23746    5.29914    8.50000 65000.00000
 1203.70000    9.96576    2.55636    2.56404    2.51211    2.48557  113.10684    0.35392    3.38855  104.39153    5.50974    8.50000 65000.00000
 1203.80000    9.96044    2.54104    2.55774    2.50571    2.48774  113.54729    0.35469    3.41605  103.74556    5.35991    8.50000 65000.00000
 1203.90000    9.94249    2.52218    2.56578    2.50164    2.48778  113.72566    0.35424    3.41290  103.90730    5.63200    8.50000 65000.00000
 1204.00000    9.95322    2.40420    2.43301    2.37739    2.48512  115.41561    0.35623    3.42955  104.27410    5.72550    8.50000 65000.00000
 1204.10000    9.98428    2.35038    2.38113    2.32896    2.48702  116.37733    0.35618    3.42510  104.46099    5.70187    8.50000 65000.00000
 1204.20000    9.98182    2.28446    2.32173    2.28461    2.48189  116.20922    0.35798    3.40770  104.42977    5.79819    8.50000 65000.00000
 1204.30000    9.98433    2.17274    2.22605    2.18928    2.47728  115.75867    0.35969    3.41335  104.18337    5.47887    8.50000 65000.00000
 1204.40000    9.96388    2.12816    2.20370    2.16627    2.47489  115.79082    0.35956    3.37421  104.48850    5.64642    8.50000 65000.00000
 1204.50000    9.95838    2.20339    2.24962    2.20311    2.47454  116.86428    0.35902    3.35730  104.68622    5.71105    8.50000 65000.00000
 1204.60000    9.98492    2.27815    2.30966    2.27378    2.47734  119.20967    0.35625    3.35797  104.52929    5.68551    8.50000 65000.00000
 1204.70000    9.98185    2.30386    2.34559    2.30717    2.47342  118.30925    0.35399    3.35866  104.96500    5.64317    8.50000 65000.00000
 1204.80000    9.96974    2.31639    2.34690    2.30509    2.47341  117.63051    0.35110    3.34615  104.65174    5.62423    8.50000 65000.00000
 1204.90000    9.95103    2.41072    2.44371    2.41455    2.47292  117.12532    0.34852    3.34081  104.24824    5.53095    8.50000 65000.00000
 1205.00000    9.94065    2.44716    2.47497    2.44537    2.47200  115.77694    0.34801    3.32873  105.15261    5.41483    8.50000 65000.00000
 1205.10000    9.94328    2.49157    2.50907    2.49919    2.47493  117.02372    0.35423    3.31661  105.42490    5.43047    8.50000 65000.00000
 1205.20000    9.92532    2.50978    2.53216    2.52528    2.47311  117.08064    0.35268    3.31316  105.91905    5.63567    8.50000 65000.00000
 1205.30000    9.89631    2.61639    2.62706    2.60744    2.47300  117.34690    0.35351    3.31918  105.97358    5.68935    8.50000 65000.00000
 1205.40000    9.88684    2.61120    2.62496    2.60144    2.47077  117.35130    0.34702    3.33264  105.81330    5.85355    8.50000 65000.00000
 1205.50000    9.87559    2.65251    2.67381    2.64254    2.46948  116.40879    0.34752    3.34057  105.70443    6.22169    8.50000 65000.00000
 1205.60000    9.88795    2.68676    2.73973    2.70903    2.46426  116.62547    0.34316    3.33639  105.19825    5.84305    8.50000 65000.00000
 1205.70000    9.89736    2.91471    2.96423    2.94417    2.46407  116.27674    0.34000    3.31680  106.06106    5.91206    8.50000 65000.00000
 1205.80000    9.86439    2.87368    2.90671    2.88690    2.47145  116.56346    0.34248    3.32535  106.62844    5.77786    8.50000 65000.00000
 1205.90000    9.86449    2.89035    2.91083    2.88994    2.47034  115.78780    0.34544    3.31811  107.48969    6.20707    8.50000 65000.00000
 1206.00000    9.89428    2.86812    2.91319    2.90889    2.47684  115.88323    0.34285    3.31638  107.48018    6.27966    8.50000 65000.00000
 1206.10000    9.88475    2.91193    2.95390    2.95214    2.47410  114.26900    0.34333    3.33129  108.16245    6.21821    8.50000 65000.00000
 1206.20000    9.89374    2.93209    2.99469    2.98290    2.47268  113.70097    0.34421    3.34699  108.16419    6.06096    8.50000 65000.00000
 1206.30000    9.90821    2.92824    3.00280    2.99676    2.47284  114.29160    0.34396    3.35931  108.57548    5.88449    8.50000 65000.00000
 1206.40000    9.87043    2.98658    3.05593    3.05029    2.47605  114.64807    0.34324    3.34480  108.43900    5.98137    8.50000 65000.00000
 1206.50000    9.91114    2.95273    2.98880    2.99198    2.47877  113.36593    0.34499    3.35649  108.50614    6.12612    8.50000 65000.00000
 1206.60000    9.88403    2.85140    2.85639    2.90503    2.48046  113.43232    0.34442    3.38636  108.25383    5.67116    8.50000 65000.00000
 1206.70000    9.85906    2.86277    2.89163    2.93677    2.48056  112.40189    0.34805    3.37225  108.19304    5.72057    8.50000 65000.00000
 1206.80000    9.82875    2.79150    2.81911    2.86668    2.47941  112.71614    0.35468    3.37262  108.08549    5.87254    8.50000 65000.00000
 1206.90000    9.83756    2.83013    2.84548    2.90357    2.48292  113.87923    0.35518    3.38351  108.36955    5.90408    8.50000 65000.00000
 1207.00000    9.85745    2.80391    2.80017    2.84619    2.48364  113.37921    0.35826    3.36376  107.81828    6.09500    8.50000 65000.00000
 1207.10000    9.86137    2.82768    2.88276    2.91258    2.47980  113.10881    0.35427    3.37377  108.48238    6.16350    8.50000 65000.00000
