~Version ---------------------------------------------------
VERS.   2.0 : CWLS log ASCII Standard -VERSION 2.0
WRAP.    NO : One line per depth step
DLM . SPACE : Column Data Section Delimiter
~Well ------------------------------------------------------
STRT.m          1000.00000 : START DEPTH
STOP.m          2000.00000 : STOP DEPTH
STEP.m             0.10000 : STEP
NULL.             -9999.25 : NULL VALUE
COMP. FORCE 2020 Recreator : 
WELL.   WELL_FORCE_2020_04 : 
FLD .                      : FIELD
LOC .                      : LOCATION
PROV.                      : PROVINCE
CNTY.                      : COUNTY
STAT.                      : STATE
CTRY.                      : COUNTRY
SRVC.                      : SERVICE COMPANY
DATE.                      : DATE
UWI .                      : UNIQUE WELL ID
API .                      : API NUMBER
~Curve Information -----------------------------------------
DEPT                            .m      : 
CALI                            .in     : 
RSHA                            .ohm.m  : 
RMED                            .ohm.m  : 
RDEP                            .ohm.m  : 
RHOB                            .g/cm3  : 
GR                              .gAPI   : 
NPHI                            .v/v    : 
PEF                             .b/e    : 
DTC                             .us/ft  : 
SP                              .mV     : 
BS                              .in     : 
FORCE_2020_LITHOFACIES_LITHOLOGY.code   : 
~Params ----------------------------------------------------
~Other -----------------------------------------------------
~ASCII -----------------------------------------------------
# ...
 1263.10000    8.57042 1663.88611 1623.39880 1607.35780    2.95502   11.96017    0.02035    4.99996   50.90066    5.81714    8.50000 86000.00000
 1263.20000    8.57119 1700.87304 1647.06207 1645.29982    2.95509   12.01584    0.01953    4.98816   50.96012    5.76289    8.50000 86000.00000
 1263.30000    8.57192 1295.72890 1241.81038 1278.02729    2.95427   11.60103    0.01972    4.96534   50.90871    6.14738    8.50000 86000.00000
 1263.40000    8.57333 1261.07451 1213.64909 1241.57991    2.94949   11.72358    0.01879    4.95597   50.55818    6.11711    8.50000 86000.00000
 1263.50000    8.57392 1175.48186 1135.57205 1161.00434    2.94589   11.64125    0.01870    4.94266   50.69151    6.15757    8.50000 86000.00000
 1263.60000    8.57286 1261.33214 1188.87356 1225.63619    2.94814   11.63520    0.01845    4.95576   50.62086    6.08242    8.50000 86000.00000
 1263.70000    8.57378 1298.92073 1234.11709 1263.44933    2.95019   11.82107    0.01893    4.94503   50.73807    6.02446    8.50000 86000.00000
 1263.80000    8.57820 1312.44794 1247.39649 1276.29455    2.95244   11.68020    0.01897    4.96233   50.76857    5.88254    8.50000 86000.00000
 1263.90000    8.58058 1351.29848 1275.66785 1302.18785    2.95354   11.55154    0.01862    4.96125   50.49872    5.58023    8.50000 86000.00000
 1264.00000    8.58174 1373.92148 1294.00658 1323.35777    2.95099   11.76561    0.01820    4.96295   50.54711    5.74860    8.50000 86000.00000
 1264.10000    8.57993 1686.66507 1618.56091 1656.54569    2.95176   11.70660    0.01741    4.97546   50.31171    5.85784    8.50000 86000.00000
 1264.20000    8.58120 1926.60684 1855.13213 1897.46812    2.95037   11.60065    0.01913    4.97382   50.18942    5.86090    8.50000 86000.00000
 1264.30000    8.58107 1950.93874 1881.98423 1930.70421    2.95425   11.89145    0.01797    4.96835   50.29575    5.96098    8.50000 86000.00000
 1264.40000    8.58401 2043.07340 1953.99758 2009.06215    2.95124   11.90863    0.01818    4.95841   50.44762    5.73310    8.50000 86000.00000
 1264.50000    8.58448 2943.37585 2871.09520 2946.45330    2.95350   11.92495    0.01891    4.95461   50.49556    5.74953    8.50000 86000.00000
 1264.60000    8.58466 2867.01953 2794.02575 2858.97943    2.95587   11.87580    0.01885    4.95695   50.45475    5.90879    8.50000 86000.00000
 1264.70000    8.58305 2881.86437 2810.33718 2874.46807    2.95743   11.45770    0.01916    4.94272   50.24160    5.88894    8.50000 86000.00000
 1264.80000    8.58438 3024.59824 2971.73840 3037.37891    2.95750   11.64664    0.01923    4.95197   50.17679    5.80880    8.50000 86000.00000
 1264.90000    8.58222 2877.33042 2846.15110 2908.38469    2.95707   11.79765    0.01826    4.96103   50.30293    5.60184    8.50000 86000.00000
 1265.00000    8.58279 2830.76575 2800.61057 2864.97741    2.95677   11.89508    0.01820    4.97374   50.15567    5.87841    8.50000 86000.00000
 1265.10000    8.58246 2845.42752 2819.40315 2881.66638    2.95575   11.71861    0.01909    4.96982   50.23924    5.76997    8.50000 86000.00000
 1265.20000    8.58561 2893.48948 2859.24524 2924.36167    2.95908   11.83657    0.01767    4.96382   50.20311    5.86065    8.50000 86000.00000
 1265.30000    8.58502 2840.08724 2806.10066 2862.22257    2.95680   11.83104    0.01816    4.97682   50.11614    6.22892    8.50000 86000.00000
 1265.40000    8.58717 3075.73415 3055.28829 3074.38288    2.95946   12.16632    0.01890    4.99262   50.17560    6.25057    8.50000 86000.00000
 1265.50000    8.58699 3072.12637 3057.15377 3073.01019    2.96142   12.00071    0.01837    5.01230   50.18852    6.29442    8.50000 86000.00000
 1265.60000    8.58631 3153.83654 3149.27688 3159.68446    2.96264   12.22801    0.01917    5.02423   50.01868    6.08974    8.50000 86000.00000
 1265.70000    8.58781 3118.11676 3151.01850 3154.28992    2.96334   12.30490    0.01935    5.02155   50.08733    6.20711    8.50000 86000.00000
 1265.80000    8.58878 3092.11502 3112.03460 3124.44170    2.96227   11.65447    0.01932    5.02596   50.05876    6.31791    8.50000 86000.00000
 1265.90000    8.58562 3096.40897 3119.95758 3129.56350    2.96222   11.85725    0.01931    5.02262   49.98126    6.37884    8.50000 86000.00000
 1266.00000    8.58210 3521.62803 3521.11313 3517.58162    2.96420   11.73603    0.01989    5.02552   50.13707    6.66850    8.50000 86000.00000
 1266.10000    8.58212 3767.83819 3749.62242 3741.34072    2.96467   11.59186    0.02064    5.02698   50.10851    6.66172    8.50000 86000.00000
 1266.20000    8.58107 3455.90690 3430.16339 3411.77909    2.96498   11.54647    0.02119    5.02347   50.23686    6.47727    8.50000 86000.00000
 1266.30000    8.57984 3314.78239 3289.38022 3261.32417    2.96739   11.60822    0.02073    5.01602   50.26207    6.37124    8.50000 86000.00000
 1266.40000    8.57804 3289.13690 3269.99035 3235.74249    2.96279   11.10750    0.02050    4.99240   49.92432    6.40569    8.50000 86000.00000
 1266.50000    8.57842 3176.51309 3176.82987 3134.44772    2.96426   11.15370    0.01954    4.99268   49.72944    6.46821    8.50000 86000.00000
 1266.60000    8.57890 2268.22925 2269.13636 2201.31908    2.96143   11.32087    0.01889    4.99388   49.62978    6.48926    8.50000 86000.00000
 1266.70000    8.57864 2328.49409 2337.65514 2284.02633    2.95867   11.25989    0.01895    4.98608   49.46185    6.20599    8.50000 86000.00000
 1266.80000    8.57979 2436.14317 2431.97858 2372.00997    2.95928   11.34606    0.01827    4.98845   49.63115    6.19536    8.50000 86000.00000
 1266.90000    8.58101 2284.80426 2266.60393 2202.81310    2.96221   11.19674    0.01722    4.99527   49.57370    6.33546    8.50000 86000.00000
 1267.00000    8.58266 2318.56286 2302.26511 2242.10786    2.96149   11.26605    0.01685    4.98128   49.47830    6.42002    8.50000 86000.00000
 1267.10000    8.58261 2316.83285 2299.15670 2240.37556    2.96035   11.13039    0.01729    4.98574   49.51746    6.35357    8.50000 86000.00000
 1267.20000    8.58488 2355.27411 2337.62452 2281.95932    2.95908   11.44121    0.01766    4.97436   49.42712    6.50505    8.50000 86000.00000
 1267.30000    8.58327 2863.97547 2897.73291 2824.59610    2.95778   11.20500    0.01997    4.97049   49.54409    6.40476    8.50000 86000.00000
 1267.40000    8.58470 2938.71457 2970.76360 2893.29111    2.95781   11.31812    0.02013    4.96095   49.56073    6.14784    8.50000 86000.00000
 1267.50000    8.58235 2744.83596 2760.12610 2709.42222    2.95551   11.15710    0.01978    4.95634   49.66573    6.12091    8.50000 86000.00000
 1267.60000    8.58378 2722.80491 2737.99613 2688.88260    2.95704   11.21226    0.02086    4.95781   49.74384    6.06523    8.50000 86000.00000
 1267.70000    8.58250 2652.08296 2659.49188 2619.31818    2.95750   11.07987    0.02147    4.95308   49.97724    6.12397    8.50000 86000.00000
 1267.80000    8.58021 2577.62856 2574.06201 2532.81708    2.95305   11.21623    0.02134    4.94523   50.00052    5.96902    8.50000 86000.00000
 1267.90000    8.58470 2836.27470 2871.20296 2821.48097    2.95379   11.24802    0.02113    4.94416   50.03503    5.72229    8.50000 86000.00000
 1268.00000    8.58600 2827.52976 2862.30632 2813.30505    2.95199   11.18485    0.02105    4.94262   50.15917    5.57301    8.50000 86000.00000
 1268.10000    8.58632 2431.85422 2504.29139 2465.87623    2.95123   11.66955    0.02161    4.94726   49.95319    5.58254    8.50000 86000.00000
 1268.20000    8.58446 2131.47949 2226.24763 2191.67143    2.95203   11.73640    0.02119    4.94202   50.07946    5.41592    8.50000 86000.00000
 1268.30000    8.58383 2192.70973 2284.98280 2249.42204    2.95264   11.83641    0.02144    4.91966   50.22519    5.47319    8.50000 86000.00000
 1268.40000    8.58398 2093.43626 2187.22121 2156.72706    2.95262   11.86284    0.02134    4.92989   50.35191    5.37695    8.50000 86000.00000
 1268.50000    8.58236 2023.27315 2112.27897 2087.22613    2.95662   12.35581    0.02154    4.93793   50.83912    5.48891    8.50000 86000.00000
 1268.60000    8.57920 2135.39468 2224.32915 2207.31853    2.95792   12.22087    0.02158    4.93951   50.79931    5.33433    8.50000 86000.00000
