~Version ---------------------------------------------------
VERS.   2.0 : CWLS log ASCII Standard -VERSION 2.0
WRAP.    NO : One line per depth step
DLM . SPACE : Column Data Section Delimiter
~Well ------------------------------------------------------
STRT.m          1000.00000 : START DEPTH
STOP.m          2000.00000 : STOP DEPTH
STEP.m             0.10000 : STEP
NULL.             -9999.25 : NULL VALUE
COMP. FORCE 2020 Recreator : 
WELL.   WELL_FORCE_2020_01 : 
FLD .                      : FIELD
LOC .                      : LOCATION
PROV.                      : PROVINCE
CNTY.                      : COUNTY
STAT.                      : STATE
CTRY.                      : COUNTRY
SRVC.                      : SERVICE COMPANY
DATE.                      : DATE
UWI .                      : UNIQUE WELL ID
API .                      : API NUMBER
~Curve Information -----------------------------------------
DEPT                            .m      : 
CALI                            .in     : 
RSHA                            .ohm.m  : 
RMED                            .ohm.m  : 
RDEP                            .ohm.m  : 
RHOB                            .g/cm3  : 
GR                              .gAPI   : 
NPHI                            .v/v    : 
PEF                             .b/e    : 
DTC                             .us/ft  : 
SP                              .mV     : 
BS                              .in     : 
FORCE_2020_LITHOFACIES_LITHOLOGY.code   : 
~Params ----------------------------------------------------
~Other -----------------------------------------------------
~ASCII -----------------------------------------------------
# ...
 1263.20000    8.58242 2098.38738 2147.72377 2155.10531    2.96186   13.44398    0.01885    5.01832   50.14465    5.93854    8.50000 86000.00000
 1263.30000    8.58169 2113.43508 2167.21501 2168.75493    2.95893   13.13473    0.02007    5.02441   49.97317    5.88227    8.50000 86000.00000
 1263.40000    8.57841 2219.85474 2267.25267 2261.18630    2.95783   13.13776    0.02109    5.03431   49.94801    6.14343    8.50000 86000.00000
 1263.50000    8.57640 2196.80404 2250.30630 2243.32131    2.96009   12.95087    0.02182    5.00856   50.07046    6.11479    8.50000 86000.00000
 1263.60000    8.57553 2085.50741 2131.44521 2125.58164    2.96066   13.26579    0.02224    5.01271   50.25142    6.04138    8.50000 86000.00000
 1263.70000    8.57736 2100.48750 2158.24576 2142.13965    2.95993   12.92031    0.02270    5.01985   50.20072    6.15956    8.50000 86000.00000
 1263.80000    8.57938 2047.39035 2080.86304 2085.33173    2.96143   12.51790    0.02318    5.02367   50.26278    5.95209    8.50000 86000.00000
 1263.90000    8.57614 2053.87058 2102.88381 2113.62553    2.96229   12.94467    0.02245    5.01162   50.04772    5.95937    8.50000 86000.00000
 1264.00000    8.57562 1988.29615 2045.89242 2047.20408    2.96003   12.79138    0.02156    5.02073   50.07978    5.97290    8.50000 86000.00000
 1264.10000    8.57578 1896.05464 1954.95774 1949.03505    2.96132   12.79458    0.02134    5.00400   49.99682    6.32713    8.50000 86000.00000
 1264.20000    8.57638 1969.64641 2025.80700 2021.50567    2.96124   12.54421    0.02047    5.00051   50.06723    6.24165    8.50000 86000.00000
 1264.30000    8.57811 2074.07712 2114.68145 2117.91262    2.96006   12.69688    0.02141    4.98918   50.05413    6.08992    8.50000 86000.00000
 1264.40000    8.58065 2381.94614 2370.10518 2387.00315    2.96154   12.88956    0.02131    4.99220   50.17373    6.01892    8.50000 86000.00000
 1264.50000    8.58094 2417.98905 2418.20920 2435.44301    2.95832   12.90511    0.02194    4.99372   50.10813    5.90607    8.50000 86000.00000
 1264.60000    8.58228 2571.58970 2574.16210 2589.67069    2.95984   12.78505    0.02168    4.99248   50.31609    5.72974    8.50000 86000.00000
 1264.70000    8.58008 2550.77920 2547.04071 2562.35640    2.96393   12.50007    0.02232    4.99678   50.21064    5.70356    8.50000 86000.00000
 1264.80000    8.57720 2579.04950 2566.51376 2584.70656    2.96482   12.28978    0.02260    4.98084   49.98906    5.77627    8.50000 86000.00000
 1264.90000    8.57891 3236.46601 3275.16727 3293.87902    2.96393   12.26837    0.02212    4.97576   50.01624    5.80278    8.50000 86000.00000
 1265.00000    8.58153 3251.05717 3292.63037 3310.17076    2.96457   12.19839    0.02245    4.99592   49.84163    5.83341    8.50000 86000.00000
 1265.10000    8.58348 3227.61430 3273.65203 3289.21433    2.96688   12.39218    0.02293    4.98948   49.85825    5.89724    8.50000 86000.00000
 1265.20000    8.58261 3189.96088 3231.25849 3243.86525    2.96666   12.38197    0.02326    5.00031   49.79063    5.92403    8.50000 86000.00000
 1265.30000    8.58125 2881.23808 2874.16603 2879.60618    2.96424   12.27164    0.02280    4.99232   49.54008    5.93612    8.50000 86000.00000
 1265.40000    8.57991 2873.22662 2868.86005 2873.51660    2.96615   12.57812    0.02204    5.00264   49.55047    6.01285    8.50000 86000.00000
 1265.50000    8.57959 2709.96679 2721.57340 2735.32149    2.96458   12.67671    0.01979    4.98522   49.55234    5.78855    8.50000 86000.00000
 1265.60000    8.58065 2825.07821 2827.30812 2836.67180    2.96166   12.90203    0.01854    4.99698   49.68430    5.99735    8.50000 86000.00000
 1265.70000    8.58241 3083.56353 3063.89210 3057.80919    2.96201   12.54220    0.01809    4.99544   49.40522    5.86948    8.50000 86000.00000
 1265.80000    8.58107 3094.76099 3077.45992 3087.05140    2.96171   12.84033    0.01710    4.98527   49.54509    5.71472    8.50000 86000.00000
 1265.90000    8.58091 3041.19763 3025.48737 3028.11792    2.95927   12.86280    0.01711    4.99030   49.42637    5.87670    8.50000 86000.00000
 1266.00000    8.57897 3200.99616 3149.04916 3160.73728    2.95860   12.65394    0.01690    4.99332   49.41052    6.00632    8.50000 86000.00000
 1266.10000    8.58382 3202.01581 3140.69001 3155.37667    2.95826   12.78542    0.01757    4.98091   49.19921    6.03941    8.50000 86000.00000
 1266.20000    8.58202 3606.65587 3586.38885 3580.57744    2.95620   12.77124    0.01847    4.98406   49.20012    5.85238    8.50000 86000.00000
 1266.30000    8.58235 3461.50817 3450.77854 3441.80849    2.95519   13.12829    0.01937    4.99278   49.06039    5.98139    8.50000 86000.00000
 1266.40000    8.58130 3545.86300 3516.03136 3512.98003    2.95717   12.89277    0.01897    4.99670   49.04471    6.21050    8.50000 86000.00000
 1266.50000    8.58148 3182.98003 3202.34632 3185.55960    2.95591   12.73118    0.01954    5.00215   48.89112    6.30424    8.50000 86000.00000
 1266.60000    8.58137 3111.61199 3111.01384 3095.26589    2.95759   12.86047    0.01938    4.99394   48.93657    6.51350    8.50000 86000.00000
 1266.70000    8.57795 2908.84528 2912.00511 2895.91732    2.95834   13.22662    0.01945    5.00063   48.89694    6.58975    8.50000 86000.00000
 1266.80000    8.57522 2875.44425 2879.60905 2867.57458    2.95657   13.24211    0.01899    4.98593   48.84966    6.69115    8.50000 86000.00000
 1266.90000    8.57529 2918.41479 2927.55293 2931.19286    2.95599   13.10670    0.01846    4.99915   48.91021    6.68808    8.50000 86000.00000
 1267.00000    8.57420 2265.54663 2220.07004 2219.72894    2.95676   13.06648    0.01782    5.01762   48.72049    6.77847    8.50000 86000.00000
 1267.10000    8.57492 2240.36365 2199.13773 2197.08673    2.95615   12.91367    0.01777    5.01306   48.81963    6.80141    8.50000 86000.00000
 1267.20000    8.57667 2249.26759 2207.63655 2206.36948    2.95745   12.93184    0.01787    5.02184   48.96269    6.70019    8.50000 86000.00000
 1267.30000    8.57811 2315.01803 2285.02101 2280.34323    2.95516   13.03458    0.01826    5.01466   49.25841    6.75075    8.50000 86000.00000
 1267.40000    8.57786 2376.52485 2337.21184 2340.11366    2.95466   12.90233    0.01853    5.02509   49.37389    6.64692    8.50000 86000.00000
 1267.50000    8.58133 2522.21365 2490.13457 2486.76932    2.95105   12.56612    0.01841    5.00909   49.39785    6.64164    8.50000 86000.00000
 1267.60000    8.58206 2529.01316 2503.38950 2490.86007    2.95485   12.27289    0.02018    5.00649   49.49161    6.70998    8.50000 86000.00000
 1267.70000    8.57997 2473.41333 2449.37854 2439.33639    2.95695   12.01016    0.02166    5.02319   49.37408    6.54581    8.50000 86000.00000
 1267.80000    8.57660 2395.67285 2365.03822 2370.47437    2.95467   11.83272    0.02311    5.01814   49.41853    6.80600    8.50000 86000.00000
 1267.90000    8.57715 2390.07484 2353.44880 2350.72621    2.95649   11.73531    0.02370    5.01215   49.13181    6.69639    8.50000 86000.00000
 1268.00000    8.57635 2422.04712 2388.43370 2380.08526    2.95836   11.73769    0.02441    5.01016   49.07300    6.69193    8.50000 86000.00000
 1268.10000    8.57778 2281.80962 2274.04854 2253.20027    2.95887   11.79503    0.02437    5.01590   49.32754    6.57841    8.50000 86000.00000
 1268.20000    8.57326 2256.63864 2262.52626 2237.90366    2.95735   11.73950    0.02358    5.01549   49.68518    6.34710    8.50000 86000.00000
 1268.30000    8.57530 1895.17560 1868.10634 1862.58241    2.95852   11.39733    0.02253    5.03092   49.78810    6.22769    8.50000 86000.00000
 1268.40000    8.57695 1943.58149 1904.06801 1902.66406    2.95981   11.19704    0.02237    5.03618   49.72327    6.37833    8.50000 86000.00000
 1268.50000    8.57429 1788.26170 1774.19829 1764.15101    2.95925   11.22702    0.02231    5.03288   49.57790    6.42200    8.50000 86000.00000
 1268.60000    8.57432 1811.87222 1805.76115 1800.60320    2.95671   11.23913    0.02158    5.03644   49.72910    6.27658    8.50000 86000.00000
 1268.70000    8.57500 1961.04733 1959.97315 1952.02236    2.95681   11.06814    0.02156    5.04035   49.69776    6.14881    8.50000 86000.00000
