~Version ---------------------------------------------------
VERS.   2.0 : CWLS log ASCII Standard -VERSION 2.0
WRAP.    NO : One line per depth step
DLM . SPACE : Column Data Section Delimiter
~Well ------------------------------------------------------
STRT.m          1000.00000 : START DEPTH
STOP.m          2000.00000 : STOP DEPTH
STEP.m             0.10000 : STEP
NULL.             -9999.25 : NULL VALUE
COMP. FORCE 2020 Recreator : 
WELL.   WELL_FORCE_2020_05 : 
FLD .                      : FIELD
LOC .                      : LOCATION
PROV.                      : PROVINCE
CNTY.                      : COUNTY
STAT.                      : STATE
CTRY.                      : COUNTRY
SRVC.                      : SERVICE COMPANY
DATE.                      : DATE
UWI .                      : UNIQUE WELL ID
API .                      : API NUMBER
~Curve Information -----------------------------------------
DEPT                            .m      : 
CALI                            .in     : 
RSHA                            .ohm.m  : 
RMED                            .ohm.m  : 
RDEP                            .ohm.m  : 
RHOB                            .g/cm3  : 
GR                              .gAPI   : 
NPHI                            .v/v    : 
PEF                             .b/e    : 
DTC                             .us/ft  : 
SP                              .mV     : 
BS                              .in     : 
FORCE_2020_LITHOFACIES_LITHOLOGY.code   : 
~Params ----------------------------------------------------
~Other -----------------------------------------------------
~ASCII -----------------------------------------------------
# ...
 1599.10000    8.58072   46.10263   47.13758   46.84936    2.67475   20.28480    0.10823   -9999.25   58.30015   -4.51067    8.50000 70000.00000
 1599.20000    8.58096   48.07753   48.69572   48.33163    2.67389   20.43380    0.10810   -9999.25   58.10102   -4.60229    8.50000 70000.00000
 1599.30000    8.58090   52.33631   52.83265   52.78720    2.67341   20.34763    0.10723   -9999.25   57.98701   -4.66201    8.50000 70000.00000
 1599.40000    8.57987   56.95786   56.80721   56.76651    2.67111   20.48416    0.10894   -9999.25   57.97883   -4.98456    8.50000 70000.00000
 1599.50000    8.57830   59.40471   58.81450   58.88534    2.66817   20.72363    0.10681   -9999.25   57.81514   -5.10083    8.50000 70000.00000
 1599.60000    8.57554   60.85756   58.95895   59.31717    2.66757   20.22002    0.10574   -9999.25   58.10133   -5.03828    8.50000 70000.00000
 1599.70000    8.57442   60.95516   58.70620   59.20100    2.66898   19.93614    0.10496   -9999.25   58.00301   -4.78373    8.50000 70000.00000
 1599.80000    8.57623   63.38182   60.82701   61.10024    2.66898   19.62088    0.10566   -9999.25   57.85492   -4.42592    8.50000 70000.00000
 1599.90000    8.57502   63.57529   61.50358   61.70983    2.66907   19.66770    0.10673   -9999.25   57.98401   -4.26215    8.50000 70000.00000
 1600.00000    8.57703   62.32237   60.42027   60.45128    2.66718   19.54853    0.10460   -9999.25   57.98862   -4.11716    8.50000 70000.00000
 1600.10000    8.57594   64.25688   61.55652   61.65147    2.66879   19.33724    0.10272   -9999.25   58.00883   -4.23427    8.50000 70000.00000
 1600.20000    8.57686   63.73878   61.07700   61.13034    2.66795   19.17434    0.10228   -9999.25   58.51637   -4.11008    8.50000 70000.00000
 1600.30000    8.57719   63.23549   60.65788   60.71006    2.66922   19.29843    0.10201   -9999.25   59.01207   -4.32713    8.50000 70000.00000
 1600.40000    8.58269   64.36828   61.92764   61.60565    2.66910   19.68870    0.09939   -9999.25   59.05654   -4.55942    8.50000 70000.00000
 1600.50000    8.58171   67.60338   65.36075   64.97953    2.67085   20.30563    0.09853   -9999.25   59.11661   -4.73645    8.50000 70000.00000
 1600.60000    8.57955   70.62411   68.77495   68.10840    2.67063   19.44249    0.09771   -9999.25   59.57379   -4.48743    8.50000 70000.00000
 1600.70000    8.58143   67.81515   66.59031   65.94027    2.67316   19.15874    0.09741   -9999.25   59.27164   -4.62268    8.50000 70000.00000
 1600.80000    8.58331   64.63164   63.93846   63.16151    2.67316   18.35480    0.09711   -9999.25   59.56963   -4.34128    8.50000 70000.00000
 1600.90000    8.58577   60.94886   60.20932   59.49181    2.67047   18.31087    0.09807   -9999.25   59.69922   -4.35728    8.50000 70000.00000
 1601.00000    8.58371   60.31212   59.82272   59.09948    2.67205   18.46302    0.09795   -9999.25   59.45984   -4.64224    8.50000 70000.00000
 1601.10000    8.58837   60.87707   60.26439   59.53736    2.67430   18.86721    0.09809   -9999.25   59.09963   -5.10006    8.50000 70000.00000
 1601.20000    8.59097   62.50179   60.53839   59.92818    2.67680   19.09405    0.09660   -9999.25   59.02409   -5.02296    8.50000 70000.00000
 1601.30000    8.59054   60.54300   58.88639   58.28432    2.67736   19.11163    0.09665   -9999.25   58.93354   -4.78604    8.50000 70000.00000
 1601.40000    8.59130   58.93345   57.12297   55.70402    2.67632   18.99157    0.09831   -9999.25   58.63300   -4.78634    8.50000 70000.00000
 1601.50000    8.59306   53.99006   52.82979   51.60172    2.67730   19.44333    0.09757   -9999.25   58.74854   -4.49847    8.50000 70000.00000
 1601.60000    8.59580   51.78382   51.08784   49.77699    2.67804   19.43874    0.09896   -9999.25   58.63717   -4.59946    8.50000 70000.00000
 1601.70000    8.59611   51.20911   51.32346   49.74053    2.67663   19.46880    0.09899   -9999.25   58.11275   -4.58895    8.50000 70000.00000
 1601.80000    8.59670   50.63706   50.59854   49.11438    2.67834   19.94683    0.10043   -9999.25   57.87795   -4.90015    8.50000 70000.00000
 1601.90000    8.59666   49.05862   49.20103   48.05840    2.67926   19.89189    0.09925   -9999.25   58.11466   -4.67632    8.50000 70000.00000
 1602.00000    8.59548   46.88496   46.68941   45.56209    2.68103   20.20293    0.09901   -9999.25   57.56155   -4.79822    8.50000 70000.00000
 1602.10000    8.59266   46.45514   46.30805   45.17731    2.68362   19.73291    0.09887   -9999.25   57.90889   -5.26335    8.50000 70000.00000
 1602.20000    8.59306   44.41432   44.95213   43.99010    2.68286   19.48199    0.09972   -9999.25   58.00816   -5.46306    8.50000 70000.00000
 1602.30000    8.59469   47.31687   47.71995   46.56826    2.68351   19.42600    0.10017   -9999.25   57.87616   -5.36678    8.50000 70000.00000
 1602.40000    8.59477   46.31845   46.70554   45.52348    2.68321   19.43886    0.10056   -9999.25   57.27212   -5.29485    8.50000 70000.00000
 1602.50000    8.58978   45.00990   45.76271   44.98347    2.68214   19.27100    0.10287   -9999.25   56.77474   -5.10757    8.50000 70000.00000
 1602.60000    8.59118   41.50345   42.13227   41.41510    2.68261   18.69856    0.10230   -9999.25   56.65666   -4.96928    8.50000 70000.00000
 1602.70000    8.59248   41.74932   42.66531   42.30063    2.68512   19.53656    0.10331   -9999.25   56.27529   -4.97390    8.50000 70000.00000
 1602.80000    8.59079   46.76974   46.81375   46.65353    2.68325   19.67094    0.10436   -9999.25   56.39774   -4.90264    8.50000 70000.00000
 1602.90000    8.58884   49.62283   50.10857   49.92976    2.68539   20.17269    0.10400   -9999.25   56.22379   -5.03216    8.50000 70000.00000
 1603.00000    8.58739   49.60225   50.25408   50.09721    2.68600   20.72949    0.10093   -9999.25   56.18252   -5.53799    8.50000 70000.00000
 1603.10000    8.58882   49.67598   49.81401   49.77038    2.68430   20.46160    0.10209   -9999.25   56.44323   -5.35538    8.50000 70000.00000
 1603.20000    8.58831   46.38565   46.79927   46.82665    2.68397   20.52985    0.10029   -9999.25   56.63886   -5.05655    8.50000 70000.00000
 1603.30000    8.58756   43.14932   44.78071   44.70219    2.68027   20.47838    0.10100   -9999.25   56.66544   -5.28427    8.50000 70000.00000
 1603.40000    8.58828   47.40247   48.71665   48.30086    2.68080   19.83471    0.10239   -9999.25   56.64995   -5.60153    8.50000 70000.00000
 1603.50000    8.59013   44.85204   46.26750   46.36772    2.67960   20.36498    0.10057   -9999.25   56.69938   -5.51513    8.50000 70000.00000
 1603.60000    8.58922   50.30391   51.45165   51.86247    2.67892   20.11285    0.09987   -9999.25   56.63905   -5.86909    8.50000 70000.00000
 1603.70000    8.58935   51.62773   53.22280   53.38851    2.67936   20.20839    0.09843   -9999.25   56.79509   -5.66604    8.50000 70000.00000
 1603.80000    8.59130   48.99115   50.45229   50.66701    2.68037   20.56491    0.09724   -9999.25   56.68748   -5.84142    8.50000 70000.00000
 1603.90000    8.58764   49.37235   51.18242   51.18066    2.67851   20.37598    0.09575   -9999.25   57.09116   -6.12782    8.50000 70000.00000
 1604.00000    8.58490   51.84456   53.76132   53.43474    2.67956   20.41205    0.09823   -9999.25   56.88297   -6.32693    8.50000 70000.00000
 1604.10000    8.58599   52.10185   53.97809   53.75892    2.67842   20.37920    0.09938   -9999.25   57.54452   -6.56146    8.50000 70000.00000
 1604.20000    8.58629   55.70945   57.74788   57.54222    2.67998   20.49921    0.10077   -9999.25   57.09520   -6.22886    8.50000 70000.00000
 1604.30000    8.58475   59.31761   61.54498   61.00582    2.68523   20.62869    0.10162   -9999.25   57.31072   -6.18782    8.50000 70000.00000
 1604.40000    8.58361   56.96278   58.91937   58.65050    2.68263   20.95173    0.10140   -9999.25   57.38727   -5.73997    8.50000 70000.00000
 1604.50000    8.58356   57.66748   59.59977   59.38185    2.68313   20.91025    0.10218   -9999.25   57.58497   -5.53513    8.50000 70000.00000
 1604.60000    8.58568   57.74515   59.48430   59.11527    2.68330   21.06369    0.10179   -9999.25   57.65341   -5.36202    8.50000 70000.00000
