~Version ---------------------------------------------------
VERS.   2.0 : CWLS log ASCII Standard -VERSION 2.0
WRAP.    NO : One line per depth step
DLM . SPACE : Column Data Section Delimiter
~Well ------------------------------------------------------
STRT.m          1000.00000 : START DEPTH
STOP.m          2000.00000 : STOP DEPTH
STEP.m             0.10000 : STEP
NULL.             -9999.25 : NULL VALUE
COMP. FORCE 2020 Recreator : 
WELL.   WELL_FORCE_2020_02 : 
FLD .                      : FIELD
LOC .                      : LOCATION
PROV.                      : PROVINCE
CNTY.                      : COUNTY
STAT.                      : STATE
CTRY.                      : COUNTRY
SRVC.                      : SERVICE COMPANY
DATE.                      : DATE
UWI .                      : UNIQUE WELL ID
API .                      : API NUMBER
~Curve Information -----------------------------------------
DEPT                            .m      : 
CALI                            .in     : 
RSHA                            .ohm.m  : 
RMED                            .ohm.m  : 
RDEP                            .ohm.m  : 
RHOB                            .g/cm3  : 
GR                              .gAPI   : 
NPHI                            .v/v    : 
PEF                             .b/e    : 
DTC                             .us/ft  : 
SP                              .mV     : 
BS                              .in     : 
FORCE_2020_LITHOFACIES_LITHOLOGY.code   : 
~Params ----------------------------------------------------
~Other -----------------------------------------------------
~ASCII -----------------------------------------------------
# ...
 1532.00000    8.57316    6.54392    6.70948    6.63256    2.39599   74.29009    0.25381    2.63145   93.35836  -15.58490    8.50000 65030.00000
 1532.10000    8.57030    7.12662    7.30582    7.24309    2.39067   73.59438    0.24959    2.63627   92.46892  -14.88991    8.50000 65030.00000
 1532.20000    8.57331    7.73418    7.79502    7.67057    2.38788   74.12608    0.24538    2.64008   92.11264  -14.62653    8.50000 65030.00000
 1532.30000    8.57303    7.60410    7.68217    7.53911    2.38823   74.60544    0.24511    2.64100   92.45177  -14.85637    8.50000 65030.00000
 1532.40000    8.57432    8.37309    8.54041    8.39652    2.39300   73.31944    0.24365    2.63579   92.83352  -15.15139    8.50000 65030.00000
 1532.50000    8.57438    8.42254    8.56203    8.38741    2.39312   73.13175    0.24570    2.65569   93.41753  -14.83200    8.50000 65030.00000
 1532.60000    8.57230    8.44648    8.57291    8.40466    2.39412   72.93100    0.24689    2.66069   93.72752  -15.14989    8.50000 65030.00000
 1532.70000    8.57842    8.55517    8.65886    8.50883    2.39418   72.70291    0.24669    2.67553   92.73681  -15.21493    8.50000 65030.00000
 1532.80000    8.57713    8.76269    8.84760    8.74649    2.39685   71.67519    0.24706    2.67166   93.19204  -15.33336    8.50000 65030.00000
 1532.90000    8.57458    8.66387    8.73121    8.66303    2.39826   71.87758    0.24993    2.68096   93.89601  -15.80287    8.50000 65030.00000
 1533.00000    8.57162    8.67289    8.74278    8.68227    2.39800   72.08349    0.25176    2.66870   93.36731  -15.59341    8.50000 65030.00000
 1533.10000    8.57037    8.40396    8.48904    8.42387    2.40022   71.00725    0.25066    2.69294   93.51085  -15.96360    8.50000 65030.00000
 1533.20000    8.57031    8.54466    8.54122    8.48806    2.40411   71.17833    0.24884    2.68963   94.20181  -15.60693    8.50000 65030.00000
 1533.30000    8.56977    8.81470    8.80613    8.76452    2.40164   71.92296    0.24863    2.68079   94.42704  -15.61080    8.50000 65030.00000
 1533.40000    8.57003    8.63707    8.61283    8.58320    2.40275   74.06179    0.24593    2.66516   94.25535  -15.26641    8.50000 65030.00000
 1533.50000    8.57164    8.73722    8.77067    8.72044    2.40436   73.91942    0.24639    2.65670   94.57036  -15.33474    8.50000 65030.00000
 1533.60000    8.57236    8.60141    8.62494    8.57325    2.41160   74.47069    0.24695    2.66010   94.51274  -15.31168    8.50000 65030.00000
 1533.70000    8.57187    8.48404    8.49968    8.48447    2.41132   74.49878    0.24418    2.64891   93.80851  -14.73019    8.50000 65030.00000
 1533.80000    8.57415    8.66752    8.64472    8.65729    2.40562   75.32827    0.24262    2.64724   93.17314  -14.51648    8.50000 65030.00000
 1533.90000    8.57515    8.56486    8.41008    8.47120    2.40702   75.68356    0.24020    2.64275   92.44173  -15.46418    8.50000 65030.00000
 1534.00000    8.57727    8.61989    8.51615    8.57980    2.41010   75.89111    0.23857    2.62516   92.37460  -15.10333    8.50000 65030.00000
 1534.10000    8.57740    9.29606    9.21346    9.24552    2.40395   75.94255    0.23966    2.64193   92.60348  -14.77148    8.50000 65030.00000
 1534.20000    8.57924    8.83670    8.68734    8.72370    2.40944   76.01652    0.23908    2.64483   93.02003  -14.98749    8.50000 65030.00000
 1534.30000    8.57861    8.80208    8.70837    8.80356    2.40720   75.51670    0.24243    2.64679   94.10907  -14.92081    8.50000 65030.00000
 1534.40000    8.57792    8.66717    8.56730    8.68587    2.40253   75.35085    0.24839    2.65368   93.92076  -14.91345    8.50000 65030.00000
 1534.50000    8.57585    7.71592    7.64014    7.71369    2.39596   76.19411    0.25044    2.65481   93.30653  -14.96511    8.50000 65030.00000
 1534.60000    8.57631    7.79798    7.74044    7.79210    2.40037   76.01352    0.25039    2.64640   93.20734  -15.32840    8.50000 65030.00000
 1534.70000    8.57838    7.78808    7.74390    7.78968    2.39138   76.18431    0.25042    2.63321   93.04778  -15.62796    8.50000 65030.00000
 1534.80000    8.57530    8.05460    7.96849    7.99165    2.39079   76.28668    0.25156    2.59469   92.65754  -15.05779    8.50000 65030.00000
 1534.90000    8.57615    8.05647    8.03271    7.98034    2.38966   77.28229    0.25136    2.59007   92.20712  -14.71741    8.50000 65030.00000
 1535.00000    8.57526    8.15283    8.21388    8.13204    2.39158   77.20055    0.25111    2.58720   91.60030  -14.25129    8.50000 65030.00000
 1535.10000    8.57574    8.43850    8.50703    8.44435    2.39144   76.56671    0.24928    2.58724   91.86970  -14.25859    8.50000 65030.00000
 1535.20000    8.57667    8.29451    8.37554    8.32825    2.38834   77.16717    0.25077    2.57584   92.21109  -14.74838    8.50000 65030.00000
 1535.30000    8.57781    8.25396    8.39011    8.34120    2.38893   77.29577    0.25582    2.56288   91.19230  -15.04507    8.50000 65030.00000
 1535.40000    8.57886    7.82522    7.93678    7.88349    2.39073   77.98169    0.25599    2.57429   90.68226  -14.75904    8.50000 65030.00000
 1535.50000    8.57742    7.89287    7.97911    7.92675    2.39190   76.38145    0.25926    2.58332   90.92528  -14.96927    8.50000 65030.00000
 1535.60000    8.57626    7.89987    7.94040    7.91637    2.39203   77.65497    0.26178    2.58669   90.81237  -14.47482    8.50000 65030.00000
 1535.70000    8.57928    8.02564    8.02327    8.01009    2.39094   75.66746    0.26087    2.59541   90.06175  -14.19686    8.50000 65030.00000
 1535.80000    8.57822    8.40132    8.40231    8.41464    2.39333   76.01864    0.26127    2.58872   90.19290  -14.68112    8.50000 65030.00000
 1535.90000    8.57791    8.25603    8.27626    8.27087    2.39938   75.06588    0.26106    2.57408   91.19367  -15.15382    8.50000 65030.00000
 1536.00000    8.57463    7.88545    8.00112    8.00614    2.40126   75.06984    0.26362    2.57424   92.21636  -14.81495    8.50000 65030.00000
 1536.10000    8.57451    8.03948    8.01318    8.04419    2.40469   74.00978    0.26280    2.58371   91.99101  -14.88293    8.50000 65030.00000
 1536.20000    8.57361    7.49365    7.38094    7.44316    2.40741   74.13854    0.26107    2.57655   92.25582  -15.01377    8.50000 65030.00000
 1536.30000    8.57297    7.77105    7.63531    7.74607    2.40946   73.12711    0.26267    2.57080   92.08540  -15.19088    8.50000 65030.00000
 1536.40000    8.57418    7.47797    7.31410    7.47578    2.41134   72.63855    0.26638    2.56819   91.69592  -15.50426    8.50000 65030.00000
 1536.50000    8.57299    7.83686    7.67763    7.80608    2.41363   72.86900    0.25863    2.55230   91.11529  -15.62090    8.50000 65030.00000
 1536.60000    8.57200    7.95353    7.72678    7.87689    2.41456   73.13752    0.25722    2.54782   91.55003  -15.44271    8.50000 65030.00000
 1536.70000    8.56826    8.14081    7.96970    8.11438    2.41254   73.40361    0.25698    2.55750   91.21530  -15.01119    8.50000 65030.00000
 1536.80000    8.56863    8.43262    8.23037    8.37890    2.41824   73.80054    0.25720    2.56834   91.58355  -14.84968    8.50000 65030.00000
 1536.90000    8.56896    9.26955    9.08891    9.29889    2.43269   70.87522    0.24942    2.69465   90.49657  -15.44025    8.50000 65030.00000
 1537.00000    8.56694   11.29976   10.85930   11.17718    2.44565   68.76969    0.24263    2.81481   89.21835  -15.21057    8.50000 65030.00000
 1537.10000    8.56531   16.62401   15.95285   15.95894    2.45886   67.14381    0.23413    2.94187   88.02546  -14.68011    8.50000 65030.00000
 1537.20000    8.56480   17.83465   16.92753   16.93407    2.47016   64.86395    0.22682    3.06253   86.33108  -14.20388    8.50000 65030.00000
 1537.30000    8.56205   31.91741   30.99748   31.98938    2.48618   61.75007    0.21970    3.17120   84.05035  -13.17597    8.50000 65030.00000
 1537.40000    8.56056   33.45623   32.88211   33.96118    2.49951   58.76671    0.21101    3.29590   83.43962  -12.56213    8.50000 65030.00000
 1537.50000    8.55967   37.20591   37.13294   38.04605    2.51115   55.39262    0.20254    3.40370   82.32178  -12.17098    8.50000 65030.00000
