~Version ---------------------------------------------------
VERS.   2.0 : CWLS log ASCII Standard -VERSION 2.0
WRAP.    NO : One line per depth step
DLM . SPACE : Column Data Section Delimiter
~Well ------------------------------------------------------
STRT.m          1000.00000 : START DEPTH
STOP.m          2000.00000 : STOP DEPTH
STEP.m             0.10000 : STEP
NULL.             -9999.25 : NULL VALUE
COMP. FORCE 2020 Recreator : 
WELL.   WELL_FORCE_2020_08 : 
FLD .                      : FIELD
LOC .                      : LOCATION
PROV.                      : PROVINCE
CNTY.                      : COUNTY
STAT.                      : STATE
CTRY.                      : COUNTRY
SRVC.                      : SERVICE COMPANY
DATE.                      : DATE
UWI .                      : UNIQUE WELL ID
API .                      : API NUMBER
~Curve Information -----------------------------------------
DEPT                            .m      : 
CALI                            .in     : 
RSHA                            .ohm.m  : 
RMED                            .ohm.m  : 
RDEP                            .ohm.m  : 
RHOB                            .g/cm3  : 
GR                              .gAPI   : 
NPHI                            .v/v    : 
PEF                             .b/e    : 
DTC                             .us/ft  : 
SP                              .mV     : 
BS                              .in     : 
FORCE_2020_LITHOFACIES_LITHOLOGY.code   : 
~Params ----------------------------------------------------
~Other -----------------------------------------------------
~ASCII -----------------------------------------------------
# ...
 1599.20000    8.58654   54.16456   51.74641   52.84698    2.67061   20.98829    0.09915    5.05611   55.02965   -6.27498    8.50000 70000.00000
 1599.30000    8.58622   52.25991   49.78705   51.04754    2.66846   20.56423    0.09689    5.05752   55.33791   -6.87257    8.50000 70000.00000
 1599.40000    8.58582   45.59728   44.31045   45.05557    2.67097   21.17498    0.09516    5.06581   55.58291   -6.89917    8.50000 70000.00000
 1599.50000    8.58340   45.40012   44.29935   44.93978    2.67211   21.75209    0.09736    5.05093   55.73667   -6.69029    8.50000 70000.00000
 1599.60000    8.58215   44.28634   42.95281   43.41413    2.67540   21.35289    0.09803    5.06518   55.69409   -6.42435    8.50000 70000.00000
 1599.70000    8.58233   46.99069   46.08326   46.21961    2.67890   21.25286    0.09798    5.06620   55.89592   -6.41904    8.50000 70000.00000
 1599.80000    8.58337   47.93140   47.18184   47.12276    2.68016   20.65382    0.09696    5.05099   55.66912   -6.60163    8.50000 70000.00000
 1599.90000    8.58365   47.96100   47.38413   47.16239    2.68187   20.57888    0.09691    5.02865   55.81158   -6.21045    8.50000 70000.00000
 1600.00000    8.58224   47.90467   48.02370   47.49967    2.68193   20.75432    0.09587    5.02227   55.86566   -5.92331    8.50000 70000.00000
 1600.10000    8.58072   49.41132   49.22331   49.02008    2.67884   20.88328    0.09604    5.02840   55.64420   -5.99748    8.50000 70000.00000
 1600.20000    8.58009   47.98366   48.02770   47.81525    2.68040   20.37417    0.09474    5.02661   55.50906   -5.46889    8.50000 70000.00000
 1600.30000    8.58037   48.46560   48.48330   48.22459    2.68155   20.03786    0.09514    5.02280   56.16642   -5.56762    8.50000 70000.00000
 1600.40000    8.57951   47.93111   48.01320   47.65117    2.68415   19.55168    0.09587    5.02625   55.99114   -5.88019    8.50000 70000.00000
 1600.50000    8.58258   48.94978   48.58483   48.26801    2.68155   19.51977    0.09496    5.03067   56.06142   -5.96381    8.50000 70000.00000
 1600.60000    8.58267   43.39955   43.98593   43.61739    2.68252   19.38867    0.09653    5.03710   56.42851   -6.46441    8.50000 70000.00000
 1600.70000    8.58365   46.15741   47.40503   46.56917    2.68131   19.10388    0.09599    5.03103   56.42218   -6.08475    8.50000 70000.00000
 1600.80000    8.58344   42.60746   44.28193   43.21288    2.68113   18.99084    0.09527    5.01979   56.69133   -5.95215    8.50000 70000.00000
 1600.90000    8.58330   42.42344   44.06522   43.04703    2.68052   18.97825    0.09492    5.01140   56.38574   -6.14735    8.50000 70000.00000
 1601.00000    8.58448   45.49658   46.34768   45.52105    2.67609   19.02674    0.09525    4.99642   56.76422   -6.23744    8.50000 70000.00000
 1601.10000    8.58414   49.04447   -9999.25   49.21338    2.67728   19.04831    0.09564    5.01114   57.03831   -6.40056    8.50000 70000.00000
 1601.20000    8.58501   51.81746   52.58306   51.86030    2.67712   19.00269    0.09620    5.00421   56.89401   -5.99921    8.50000 70000.00000
 1601.30000    8.58277   51.32169   52.28641   51.56224    2.67854   19.15164    0.09554    4.99458   57.40199   -6.18656    8.50000 70000.00000
 1601.40000    8.58595   50.63584   51.80854   51.00413    2.67988   19.60660    0.09659    5.00432   57.88449   -5.67708    8.50000 70000.00000
 1601.50000    8.58948   47.22962   48.74120   47.97038    2.67618   19.65376    0.09854    5.02042   57.91157   -5.74434    8.50000 70000.00000
 1601.60000    8.59170   49.90959   51.10582   50.35108    2.67399   19.46469    0.09727    5.01843   58.05129   -5.70697    8.50000 70000.00000
 1601.70000    8.59074   50.12539   51.07982   50.52066    2.67380   19.41479    0.09562    5.02161   57.96568   -5.66155    8.50000 70000.00000
 1601.80000    8.59183   47.72188   48.41894   48.13814    2.66943   19.49709    0.09394    5.02554   58.33881   -5.32339    8.50000 70000.00000
 1601.90000    8.59148   44.96029   45.40183   45.38081    2.67067   19.84175    0.09591    5.03940   58.52092   -5.21722    8.50000 70000.00000
 1602.00000    8.59231   45.50892   45.86778   45.89344    2.67134   20.21586    0.09548    5.05041   58.43536   -5.10414    8.50000 70000.00000
 1602.10000    8.59598   47.10761   47.16725   47.49581    2.67388   20.05850    0.09614    5.05994   58.60355   -5.36137    8.50000 70000.00000
 1602.20000    8.59774   47.28046   47.60599   47.72157    2.67609   20.13807    0.09587    5.06781   58.79282   -5.47269    8.50000 70000.00000
 1602.30000    8.59708   46.58467   46.73425   46.84629    2.67494   20.28803    0.09669    5.08339   58.97683   -5.83917    8.50000 70000.00000
 1602.40000    8.59487   46.45020   46.54977   46.72494    2.67431   20.48920    0.09737    5.10346   58.87917   -5.61600    8.50000 70000.00000
 1602.50000    8.59328   46.10721   46.05921   46.24847    2.67436   20.33636    0.09654    5.10137   59.88095   -5.63798    8.50000 70000.00000
 1602.60000    8.58943   43.72723   43.81084   44.04682    2.67156   19.94916    0.09646    5.09970   59.53574   -6.02420    8.50000 70000.00000
 1602.70000    8.58622   44.02983   44.27964   44.43480    2.67169   19.82319    0.09717    5.09634   59.33835   -5.39057    8.50000 70000.00000
 1602.80000    8.58347   41.78277   41.59890   42.02828    2.67510   20.01314    0.09718    5.11280   59.39958   -5.14703    8.50000 70000.00000
 1602.90000    8.58089   43.81871   43.32043   43.85069    2.67517   20.22885    0.09746    5.12506   59.37833   -4.95164    8.50000 70000.00000
 1603.00000    8.58181   47.85678   46.92773   47.41735    2.67712   20.62618    0.09865    5.13681   59.73573   -5.13830    8.50000 70000.00000
 1603.10000    8.58151   48.00851   47.33595   47.84105    2.68033   20.43111    0.09977    5.14471   59.29725   -4.84191    8.50000 70000.00000
 1603.20000    8.57769   44.75211   44.04243   44.30418    2.68087   20.14421    0.09793    5.14320   58.95422   -4.70011    8.50000 70000.00000
 1603.30000    8.57905   43.40918   42.32384   42.79571    2.68214   20.25950    0.09738    5.13952   58.80798   -4.96824    8.50000 70000.00000
 1603.40000    8.57904   45.02578   43.68022   43.95321    2.68293   20.18236    0.09759    5.14495   58.35087   -4.86308    8.50000 70000.00000
 1603.50000    8.57571   46.59353   45.21344   45.31830    2.68537   20.09655    0.09665    5.14444   58.16957   -4.92006    8.50000 70000.00000
 1603.60000    8.57312   50.76364   48.94101   49.42955    2.68489   20.01777    0.09826    5.12913   58.24851   -4.48741    8.50000 70000.00000
 1603.70000    8.56833   47.64517   46.07290   46.59748    2.68802   19.49380    0.09939    5.13931   58.14830   -4.36578    8.50000 70000.00000
 1603.80000    8.57056   47.91455   47.01891   47.19494    2.68737   19.75820    0.10015    5.13980   58.04300   -4.48442    8.50000 70000.00000
 1603.90000    8.56816   47.37077   46.35646   46.51528    2.68895   19.89230    0.10254    5.13829   58.16512   -4.77430    8.50000 70000.00000
 1604.00000    8.56885   47.61670   46.75412   46.73330    2.68967   19.75806    0.10030    5.14324   58.09181   -4.93025    8.50000 70000.00000
 1604.10000    8.57076   47.95136   47.01237   46.95563    2.68640   19.21695    0.10117    5.15989   58.26936   -4.64758    8.50000 70000.00000
 1604.20000    8.57221   45.65106   44.73039   44.60757    2.68551   19.27549    0.10332    5.14823   58.14231   -4.23312    8.50000 70000.00000
 1604.30000    8.57027   43.04935   41.84884   41.77009    2.68641   19.28401    0.10391    5.14798   58.20061   -4.32818    8.50000 70000.00000
 1604.40000    8.56903   42.99654   41.46317   41.47427    2.68705   19.35466    0.10530    5.13790   58.46604   -4.06436    8.50000 70000.00000
 1604.50000    8.57109   42.74644   41.26433   41.21721    2.68619   19.56054    0.10494    5.12047   58.57092   -4.12410    8.50000 70000.00000
 1604.60000    8.57254   43.74000   42.81018   42.63410    2.68253   19.78505    0.10581    5.11853   57.81392   -4.09021    8.50000 70000.00000
 1604.70000    8.57677   42.54820   41.64475   41.45333    2.68390   19.77337    0.10672    5.11784   58.30212   -3.94796    8.50000 70000.00000
