~Version ---------------------------------------------------
VERS.   2.0 : CWLS log ASCII Standard -VERSION 2.0
WRAP.    NO : One line per depth step
DLM . SPACE : Column Data Section Delimiter
~Well ------------------------------------------------------
STRT.m          1000.00000 : START DEPTH
STOP.m          2000.00000 : STOP DEPTH
STEP.m             0.10000 : STEP
NULL.             -9999.25 : NULL VALUE
COMP. FORCE 2020 Recreator : 
WELL.   WELL_FORCE_2020_04 : 
FLD .                      : FIELD
LOC .                      : LOCATION
PROV.                      : PROVINCE
CNTY.                      : COUNTY
STAT.                      : STATE
CTRY.                      : COUNTRY
SRVC.                      : SERVICE COMPANY
DATE.                      : DATE
UWI .                      : UNIQUE WELL ID
API .                      : API NUMBER
~Curve Information -----------------------------------------
DEPT                            .m      : 
CALI                            .in     : 
RSHA                            .ohm.m  : 
RMED                            .ohm.m  : 
RDEP                            .ohm.m  : 
RHOB                            .g/cm3  : 
GR                              .gAPI   : 
NPHI                            .v/v    : 
PEF                             .b/e    : 
DTC                             .us/ft  : 
SP                              .mV     : 
BS                              .in     : 
FORCE_2020_LITHOFACIES_LITHOLOGY.code   : 
~Params ----------------------------------------------------
~Other -----------------------------------------------------
~ASCII -----------------------------------------------------
# ...
 1201.50000    8.58397 2115.05140 2250.40452 2256.75994    2.96506   11.54701    0.01592    5.02897   49.49716    5.94995    8.50000 86000.00000
 1201.60000    8.57941 1905.88253 2065.79571 2068.65037    2.96645   11.47302    0.01559    5.01687   49.76363    5.78381    8.50000 86000.00000
 1201.70000    8.57690 1973.96383 2130.73664 2145.80913    2.96869   11.25706    0.01698    5.02049   49.78810    5.96640    8.50000 86000.00000
 1201.80000    8.57872 2142.83260 2284.03381 2303.19706    2.96742   11.37222    0.01705    5.01868   49.80835    5.70288    8.50000 86000.00000
 1201.90000    8.57813 2901.18790 3038.64744 3004.28935    2.96782   11.44953    0.01662    5.01379   49.71620    5.70693    8.50000 86000.00000
 1202.00000    8.57869 3063.99307 3238.64553 3200.41027    2.96714   11.54513    0.01538    5.02913   49.95344    5.75106    8.50000 86000.00000
 1202.10000    8.57858 3035.06317 3225.61043 3181.74132    2.96403   11.57489    0.01554    5.03133   49.75511    5.81269    8.50000 86000.00000
 1202.20000    8.57846 3145.83336 3341.38167 3297.83374    2.96335   11.66648    0.01712    5.02982   49.95458    5.96020    8.50000 86000.00000
 1202.30000    8.58176 3208.17758 3416.97624 3365.45125    2.96138   11.72153    0.01822    5.01773   49.98144    5.89759    8.50000 86000.00000
 1202.40000    8.58010 2753.18654 2778.77149 2741.40947    2.96068   11.81629    0.01820    5.02290   50.20957    6.00407    8.50000 86000.00000
 1202.50000    8.57975 2934.23393 2989.96415 2942.45051    2.95885   11.55136    0.02013    5.02100   49.92215    5.86056    8.50000 86000.00000
 1202.60000    8.58457 2894.82528 2952.56756 2905.80378    2.95878   11.57509    0.02078    5.01074   49.96502    6.01202    8.50000 86000.00000
 1202.70000    8.58556 3009.95240 3094.58084 3042.70734    2.96215   11.83756    0.01997    5.00868   49.88057    5.94947    8.50000 86000.00000
 1202.80000    8.58165 2992.92874 3064.74771 3014.12245    2.95801   11.60913    0.01986    5.00711   49.73209    5.83736    8.50000 86000.00000
 1202.90000    8.58039 3000.53524 3108.90149 3077.68146   -9999.25   11.46988    0.01998    5.01039   49.61023    5.78401    8.50000 86000.00000
 1203.00000    8.58132 3238.84779 3313.07882 3285.92300    2.95723   11.03273    0.02103    4.99587   49.62201    5.65133    8.50000 86000.00000
 1203.10000    8.58627 3311.26971 3391.69277 3365.11487    2.95535   11.05924    0.02143    4.98445   49.59340    5.55574    8.50000 86000.00000
 1203.20000    8.58361 3497.60993 3564.79487 3529.55589    2.95438   11.09765    0.02128    4.98984   49.95121    5.37186    8.50000 86000.00000
 1203.30000    8.58405 3359.76962 3442.18918 3404.35728    2.95367   11.26360    0.02088    4.98358   50.13200    5.68214    8.50000 86000.00000
 1203.40000    8.58109 3487.96499 3551.59454 3527.87554    2.95488   11.03649    0.02142    4.98385   50.25443    5.74455    8.50000 86000.00000
 1203.50000    8.57988 3609.10640 3713.83735 3691.77660    2.95487   10.93042    0.02058    4.99134   50.22379    5.76535    8.50000 86000.00000
 1203.60000    8.57954 3582.34905 3683.03538 3663.33862    2.95314   10.71967    0.02173    4.97614   50.32911    5.60453    8.50000 86000.00000
 1203.70000    8.58273 3663.26355 3779.74612 3744.63129    2.95403   10.91679    0.02162    4.98624   50.23787    5.61805    8.50000 86000.00000
 1203.80000    8.58356 3631.83301 3742.55094 3698.78686    2.95235   10.75205    0.02085    4.97585   50.27783    5.23355    8.50000 86000.00000
 1203.90000    8.58188 3573.03822 3700.63711 3660.87396    2.95344   10.70219    0.02059    4.96891   50.06255    5.18056    8.50000 86000.00000
 1204.00000    8.58447 2929.24600 3111.85694 3120.88217    2.95301   10.67686    0.02184    4.96856   50.28216    5.30459    8.50000 86000.00000
 1204.10000    8.58598 2861.81189 2987.32136 3004.61544    2.95473   10.68138    0.02196    4.94806   50.21362    5.11700    8.50000 86000.00000
 1204.20000    8.58646 3047.13916 3189.74481 3199.13271    2.95830   10.43547    0.02168    4.94710   50.19959    4.96342    8.50000 86000.00000
 1204.30000    8.58377 2956.30955 3097.87427 3104.58712    2.95715   10.51377    0.02124    4.95459   50.12857    4.98615    8.50000 86000.00000
 1204.40000    8.58159 2885.58390 3009.58139 3025.63931    2.95655   10.50842    0.02118    4.96657   50.16237    5.01987    8.50000 86000.00000
 1204.50000    8.58202 2951.75296 3072.75730 3076.10394    2.95963   10.67509    0.02141    4.95580   50.01425    5.20052    8.50000 86000.00000
 1204.60000    8.58189 2744.89233 2826.75179 2842.62781    2.95844   10.78798    0.01957    4.96981   50.06200    5.28686    8.50000 86000.00000
 1204.70000    8.57721 2710.19269 2791.91135 2809.61540    2.95856   10.83716    0.01963    4.97255   49.95327    5.33389    8.50000 86000.00000
 1204.80000    8.57879 2609.81708 2662.46537 2680.95637    2.95814   10.57737    0.01978    4.96963   49.88942    5.32534    8.50000 86000.00000
 1204.90000    8.58132 2521.47701 2580.39176 2595.29014    2.96155   11.10889    0.02011    4.97244   49.95786    5.23874    8.50000 86000.00000
 1205.00000    8.58293 2430.33220 2457.06576 2456.85249    2.96198   11.56187    0.01933    4.97602   49.92738    5.00389    8.50000 86000.00000
 1205.10000    8.58265 2246.32650 2314.12234 2306.71863    2.96427   11.97260    0.01866    4.99728   49.90759    5.19167    8.50000 86000.00000
 1205.20000    8.58254 2199.65324 2259.81192 2252.39011    2.96909   12.07080    0.01844    5.00829   50.22939    5.23117    8.50000 86000.00000
 1205.30000    8.58254 2055.19531 2122.48881 2120.22218    2.96717   11.98483    0.01967    4.99477   49.86558    5.34340    8.50000 86000.00000
 1205.40000    8.58364 2087.16500 2158.26829 2155.42267    2.96326   11.87824    0.02068    4.99261   49.70629    5.06112    8.50000 86000.00000
 1205.50000    8.58439 2139.75104 2261.84097 2245.21992    2.96137   12.22952    0.02000    4.99644   49.83358    5.20714    8.50000 86000.00000
 1205.60000    8.58386 2032.49140 2124.75072 2098.85728    2.96373   12.20280    0.02204    5.00040   49.90240    5.13978    8.50000 86000.00000
 1205.70000    8.58670 2021.36251 2115.80587 2090.92100    2.96476   12.23542    0.02079    5.00033   49.82647    5.13816    8.50000 86000.00000
 1205.80000    8.58597 2066.45835 2134.35492 2129.52728    2.96325   11.96969    0.02140    5.00359   49.79633    5.31758    8.50000 86000.00000
 1205.90000    8.58670 2189.21747 2259.90964 2252.78178    2.96492   12.34200    0.02238    5.01249   49.74075    5.43881    8.50000 86000.00000
 1206.00000    8.58583 2106.10999 2176.41710 2163.83776    2.96451   12.34794    0.02219    5.01104   49.79577    5.59732    8.50000 86000.00000
 1206.10000    8.58245 2043.39665 2052.22000 2044.00320    2.96164   12.18865    0.02084    4.99949   49.62221    5.53518    8.50000 86000.00000
 1206.20000    8.58055 2081.32733 2091.26527 2093.80365    2.96276   11.84571    0.02098    5.01205   49.55895    5.67537    8.50000 86000.00000
 1206.30000    8.57884 1947.38573 1926.18184 1939.20025    2.96002   12.16787    0.02109    5.02408   49.61855    5.69550    8.50000 86000.00000
 1206.40000    8.58049 1930.97085 1909.64519 1924.54010    2.96133   12.19080    0.02170    5.02729   49.71086    5.74736    8.50000 86000.00000
 1206.50000    8.58186 2144.83441 2163.52749 2163.64056    2.96270   12.02937    0.02141    5.01130   49.85452    5.82406    8.50000 86000.00000
 1206.60000    8.57975 1966.47464 1987.06750 1991.87798    2.95793   12.25896    0.02139    5.02799   49.79930    5.84577    8.50000 86000.00000
 1206.70000    8.57905 2023.24350 2043.62691 2050.36649    2.95746   12.46768    0.02191    5.00386   49.91345    5.79981    8.50000 86000.00000
 1206.80000    8.57888 2138.29935 2181.39462 2196.29346    2.95827   12.38470    0.02107    5.02188   49.94432    5.61109    8.50000 86000.00000
 1206.90000    8.57240 2159.52979 2199.33504 2217.17512    2.95713   12.65621    0.02164    5.03362   49.90622    5.53411    8.50000 86000.00000
 1207.00000    8.57422 2098.41266 2132.94151 2154.87220    2.95862   12.52744    0.02197    5.02807   49.68127    5.64565    8.50000 86000.00000
