~Version ---------------------------------------------------
VERS.   2.0 : CWLS log ASCII Standard -VERSION 2.0
WRAP.    NO : One line per depth step
DLM . SPACE : Column Data Section Delimiter
~Well ------------------------------------------------------
STRT.m          1000.00000 : START DEPTH
STOP.m          2000.00000 : STOP DEPTH
STEP.m             0.10000 : STEP
NULL.             -9999.25 : NULL VALUE
COMP. FORCE 2020 Recreator : 
WELL.   WELL_FORCE_2020_01 : 
FLD .                      : FIELD
LOC .                      : LOCATION
PROV.                      : PROVINCE
CNTY.                      : COUNTY
STAT.                      : STATE
CTRY.                      : COUNTRY
SRVC.                      : SERVICE COMPANY
DATE.                      : DATE
UWI .                      : UNIQUE WELL ID
API .                      : API NUMBER
~Curve Information -----------------------------------------
DEPT                            .m      : 
CALI                            .in     : 
RSHA                            .ohm.m  : 
RMED                            .ohm.m  : 
RDEP                            .ohm.m  : 
RHOB                            .g/cm3  : 
GR                              .gAPI   : 
NPHI                            .v/v    : 
PEF                             .b/e    : 
DTC                             .us/ft  : 
SP                              .mV     : 
BS                              .in     : 
FORCE_2020_LITHOFACIES_LITHOLOGY.code   : 
~Params ----------------------------------------------------
~Other -----------------------------------------------------
~ASCII -----------------------------------------------------
# ...
 1929.60000    8.58933    4.30000    4.23146    4.27073    2.50529   78.48579    0.31678    3.21666   96.19801   -0.32677    8.50000 80000.00000
 1929.70000    8.58990    4.13821    4.07128    4.11649    2.50450   77.67826    0.31510    3.22081   95.93763    0.04411    8.50000 80000.00000
 1929.80000    8.59204    4.16122    4.13860    4.17335    2.50805   78.90447    0.31326    3.23685   95.41735    0.39361    8.50000 80000.00000
 1929.90000    8.59395    4.20233    4.21390    4.25130    2.50647   79.15425    0.31277    3.23115   95.33878    0.61730    8.50000 80000.00000
 1930.00000    8.59279    4.02094    4.04772    4.08415    2.50675   79.69922    0.31133    3.24074   94.89735    0.52292    8.50000 80000.00000
 1930.10000    8.59492    4.12782    4.19915    4.23820    2.51231   79.96910    0.31254    3.23176   95.12535    0.14754    8.50000 80000.00000
 1930.20000    8.59203    4.16357    4.17376    4.27073    2.51982   79.88877    0.31137    3.22073   95.06406    0.74178    8.50000 80000.00000
 1930.30000    8.59287    4.11717    4.16132    4.23858    2.51933   80.16089    0.31064    3.21262   95.06694    0.83756    8.50000 80000.00000
 1930.40000    8.58801    4.05184    4.06901    4.16938    2.52343   80.32323    0.31017    3.19785   95.76885    0.99498    8.50000 80000.00000
 1930.50000    8.58549    4.19482    4.14937    4.27179    2.52696   79.39176    0.31010    3.20530   96.14379    0.94699    8.50000 80000.00000
 1930.60000    8.58545    4.14202    4.08711    4.22849    2.52923   79.36295    0.30371    3.22017   96.70323    1.06371    8.50000 80000.00000
 1930.70000    8.58699    3.92119    3.89135    4.04316    2.52521   79.59532    0.30534    3.21716   96.88522    0.80455    8.50000 80000.00000
 1930.80000    8.58365    3.95863    3.90468    4.05828    2.52960   78.73978    0.30622    3.22950   96.38480    1.03209    8.50000 80000.00000
 1930.90000    8.58488    4.29201    4.21105    4.36943    2.53208   79.07723    0.30927    3.20938   96.52658    1.35096    8.50000 80000.00000
 1931.00000    8.58548    4.55846    4.39346    4.57368    2.53054   78.75034    0.31186    3.20712   96.05296    1.90634    8.50000 80000.00000
 1931.10000    8.58594    4.47775    4.31329    4.49010    2.53292   79.03320    0.31436    3.20812   95.53453    2.27224    8.50000 80000.00000
 1931.20000    8.58250    4.41931    4.29134    4.44628    2.53703   79.03564    0.31137    3.20336   95.34485    2.21177    8.50000 80000.00000
 1931.30000    8.58263    4.52389    4.42535    4.57472    2.54505   79.66524    0.31351    3.21178   94.34206    1.74921    8.50000 80000.00000
 1931.40000    8.58207    4.71530    4.61047    4.73619    2.54396   79.19415    0.31296    3.20306   94.62954    1.58037    8.50000 80000.00000
 1931.50000    8.58295    4.57679    4.49846    4.60469    2.54682   77.46089    0.31223    3.21359   94.57985    1.87265    8.50000 80000.00000
 1931.60000    8.58481    4.60024    4.48978    4.60529    2.55337   78.00921    0.31297    3.21539   95.28770    1.43844    8.50000 80000.00000
 1931.70000    8.58383    4.72200    4.61807    4.73940    2.55061   78.38278    0.31639    3.20358   95.55363    1.82852    8.50000 80000.00000
 1931.80000    8.58287    4.84418    4.74013    4.84894    2.54844   79.19599    0.31573    3.21286   95.24060    2.04626    8.50000 80000.00000
 1931.90000    8.58074    4.85455    4.71552    4.83701    2.55084   78.09232    0.31799    3.20579   95.08522    1.99363    8.50000 80000.00000
 1932.00000    8.58082    4.94010    4.81809    4.93334    2.55227   77.96427    0.31917    3.20715   95.09141    1.39602    8.50000 80000.00000
 1932.10000    8.58154    4.92268    4.80932    4.93496    2.55871   78.22591    0.32192    3.20668   94.73534    1.16255    8.50000 80000.00000
 1932.20000    8.57961    4.78397    4.65957    4.78131    2.55421   78.34813    0.32309    3.19742   93.78887    1.71612    8.50000 80000.00000
 1932.30000    8.58007    4.64985    4.53416    4.61580    2.54339   78.71453    0.32475    3.17479   93.97282    1.48337    8.50000 80000.00000
 1932.40000    8.57941    4.63754    4.50314    4.58598    2.54317   78.20506    0.32562    3.17042   93.83525    1.64447    8.50000 80000.00000
 1932.50000    8.58304    4.67904    4.54223    4.61527    2.54169   77.69712    0.32505    3.17985   93.53375    1.44671    8.50000 80000.00000
 1932.60000    8.58570    4.65673    4.56424    4.61542    2.54015   78.05188    0.32466    3.17421   93.95036    1.13260    8.50000 80000.00000
 1932.70000    8.58439    4.64329    4.53897    4.58464    2.53669   78.27026    0.32989    3.17389   93.21837    1.36831    8.50000 80000.00000
 1932.80000    8.58120    4.66988    4.55499    4.60038    2.53810   77.93287    0.32826    3.17062   93.15156    1.30741    8.50000 80000.00000
 1932.90000    8.58197    4.79282    4.71717    4.76395    2.53207   78.17823    0.32490    3.16693   93.26746    0.96653    8.50000 80000.00000
 1933.00000    8.58211    4.72539    4.60907    4.67618    2.53317   77.78425    0.32543    3.17452   93.07954    0.50010    8.50000 80000.00000
 1933.10000    8.58033    4.66570    4.61973    4.67194    2.52966   77.31662    0.32026    3.16522   92.95225    0.12876    8.50000 80000.00000
 1933.20000    8.57975    4.73438    4.67290    4.72298    2.52696   76.96091    0.31901    3.17147   93.17280    0.07810    8.50000 80000.00000
 1933.30000    8.57905    4.82848    4.78822    4.83896    2.52605   78.05223    0.32001    3.17458   93.09412    0.34631    8.50000 80000.00000
 1933.40000    8.57805    4.82444    4.87568    4.88287    2.52435   77.69977    0.31532    3.16156   93.01027    0.53762    8.50000 80000.00000
 1933.50000    8.57385    4.79625    4.84733    4.88469    2.52179   77.93271    0.31546    3.17158   93.09718    0.36331    8.50000 80000.00000
 1933.60000    8.57236    4.70987    4.74733    4.79439    2.52651   78.97220    0.31677    3.15861   93.13172    0.21060    8.50000 80000.00000
 1933.70000    8.57056    4.70665    4.74593    4.78761    2.51723   79.37170    0.31725    3.15696   93.41791    0.14892    8.50000 80000.00000
 1933.80000    8.57074    4.35678    4.39226    4.41678    2.51761   79.62956    0.31223    3.15964   93.11075    0.21731    8.50000 80000.00000
 1933.90000    8.57052    4.29566    4.30976    4.33492    2.52122   78.99007    0.31479    3.15797   93.35847    0.10608    8.50000 80000.00000
 1934.00000    8.57011    4.28717    4.32556    4.33957    2.51846   80.02065    0.31141    3.15677   93.55223    0.16527    8.50000 80000.00000
 1934.10000    8.56760    4.10948    4.13753    4.13658    2.51435   79.54002    0.30894    3.14722   93.55853    0.70826    8.50000 80000.00000
 1934.20000    8.56859    4.29371    4.29935    4.30420    2.50785   80.50893    0.30770    3.12497   94.11855    0.71570    8.50000 80000.00000
 1934.30000    8.56870    4.26262    4.24115    4.24754    2.50439   80.71020    0.30666    3.13769   94.26873    0.40770    8.50000 80000.00000
 1934.40000    8.56661    4.26497    4.25935    4.26170    2.51321   79.27261    0.30338    3.16367   93.78320    0.35845    8.50000 80000.00000
 1934.50000    8.56769    4.28253    4.26406    4.26549    2.51519   80.01236    0.30125    3.16706   93.63685    0.09600    8.50000 80000.00000
 1934.60000    8.56712    4.19369    4.19181    4.20784    2.51566   80.72492    0.30257    3.17902   93.71578    0.38316    8.50000 80000.00000
 1934.70000    8.56641    4.35602    4.40725    4.40923    2.51615   81.02906    0.30232    3.15686   93.24527    0.26991    8.50000 80000.00000
 1934.80000    8.56484    4.42574    4.47910    4.47089    2.52041   81.10275    0.30053    3.13618   93.85896    0.25300    8.50000 80000.00000
 1934.90000    8.56454    4.52757    4.57926    4.58105    2.51831   81.14599    0.29899    3.13400   93.27880    0.54461    8.50000 80000.00000
 1935.00000    8.56382    4.35138    4.47260    4.45464    2.51196   80.76082    0.29894    3.13164   93.91780    0.55407    8.50000 80000.00000
 1935.10000    8.56292    4.17827    4.34254    4.30189    2.51441   81.99553    0.29812    3.12683   94.33745    0.54200    8.50000 80000.00000
