~Version ---------------------------------------------------
VERS.   2.0 : CWLS log ASCII Standard -VERSION 2.0
WRAP.    NO : One line per depth step
DLM . SPACE : Column Data Section Delimiter
~Well ------------------------------------------------------
STRT.m          1000.00000 : START DEPTH
STOP.m          2000.00000 : STOP DEPTH
STEP.m             0.10000 : STEP
NULL.             -9999.25 : NULL VALUE
COMP. FORCE 2020 Recreator : 
WELL.   WELL_FORCE_2020_10 : 
FLD .                      : FIELD
LOC .                      : LOCATION
PROV.                      : PROVINCE
CNTY.                      : COUNTY
STAT.                      : STATE
CTRY.                      : COUNTRY
SRVC.                      : SERVICE COMPANY
DATE.                      : DATE
UWI .                      : UNIQUE WELL ID
API .                      : API NUMBER
~Curve Information -----------------------------------------
DEPT                            .m      : 
CALI                            .in     : 
RSHA                            .ohm.m  : 
RMED                            .ohm.m  : 
RDEP                            .ohm.m  : 
RHOB                            .g/cm3  : 
GR                              .gAPI   : 
NPHI                            .v/v    : 
PEF                             .b/e    : 
DTC                             .us/ft  : 
SP                              .mV     : 
BS                              .in     : 
FORCE_2020_LITHOFACIES_LITHOLOGY.code   : 
~Params ----------------------------------------------------
~Other -----------------------------------------------------
~ASCII -----------------------------------------------------
# ...
 1795.20000    8.57048    4.67410    4.54524    4.54078    2.49792   82.10394    0.30638    3.18442   96.85315    1.08101    8.50000 80000.00000
 1795.30000    8.57069    4.40143    4.32643    4.30836    2.50190   82.09514    0.30563    3.18516   96.06870    0.87258    8.50000 80000.00000
 1795.40000    8.57100    4.61615    4.55352    4.53978    2.51222   81.76385    0.30336    3.18473   95.61722    0.70929    8.50000 80000.00000
 1795.50000    8.57024    4.64030    4.57715    4.56894    2.51932   81.89649    0.30294    3.19431   95.80113    0.63209    8.50000 80000.00000
 1795.60000    8.57041    4.64549    4.56992    4.55280    2.53005   82.42814    0.29975    3.17850   95.35710    0.59419    8.50000 80000.00000
 1795.70000    8.57057    4.63068    4.59367    4.56523    2.52939   81.34447    0.30287    3.18144   95.06317    0.56483    8.50000 80000.00000
 1795.80000    8.56872    4.69246    4.64265    4.63735    2.53056   80.60534    0.30490    3.18318   95.69673    0.45042    8.50000 80000.00000
 1795.90000    8.56615    4.75339    4.70267    4.70337    2.52668   80.45624    0.30966    3.18080   95.79423    0.32732    8.50000 80000.00000
 1796.00000    8.56010    4.50638    4.43796    4.44513    2.52731   79.99134    0.30697    3.18008   96.20591    0.29815    8.50000 80000.00000
 1796.10000    8.56090    4.64298    4.59373    4.63143    2.53022   79.44898    0.30547    3.18515   95.60421    0.52196    8.50000 80000.00000
 1796.20000    8.56242    4.38413    4.37567    4.38314    2.53277   79.25258    0.30352    3.19064   95.23582    0.17683    8.50000 80000.00000
 1796.30000    8.56382    4.42296    4.43560    4.45552    2.53426   79.00015    0.30601    3.20285   94.82587   -0.00946    8.50000 80000.00000
 1796.40000    8.56619    4.31098    4.34585    4.36202    2.53497   78.34569    0.30818    3.20089   94.76791    0.38210    8.50000 80000.00000
 1796.50000    8.56190    4.31687    4.36081    4.37113    2.53015   78.79494    0.30707    3.19459   95.23256    0.36131    8.50000 80000.00000
 1796.60000    8.56335    4.31416    4.33538    4.35013    2.53370   79.30064    0.30591    3.19275   94.85307    0.17024    8.50000 80000.00000
 1796.70000    8.56654    4.25756    4.24095    4.26487    2.53346   79.74815    0.30912    3.19257   94.98029    0.58385    8.50000 80000.00000
 1796.80000    8.56416    4.26946    4.26869    4.31148    2.53732   79.07980    0.30953    3.19146   94.93907    0.77086    8.50000 80000.00000
 1796.90000    8.56226    4.26167    4.22612    4.27286    2.53874   78.33445    0.30742    3.20743   95.07353    0.61020    8.50000 80000.00000
 1797.00000    8.56369    4.25787    4.21920    4.25374    2.55037   77.70648    0.31003    3.21892   95.51758    0.67184    8.50000 80000.00000
 1797.10000    8.56646    4.32532    4.30434    4.32873    2.55282   77.47616    0.30825    3.22170   95.68636    0.85979    8.50000 80000.00000
 1797.20000    8.56579    3.86284    3.90795    3.95299    2.55856   76.77536    0.30513    3.21381   95.85198    0.39454    8.50000 80000.00000
 1797.30000    8.56381    3.94939    4.08333    4.10606    2.55649   77.06998    0.30470    3.21398   95.78275   -0.08040    8.50000 80000.00000
 1797.40000    8.56437    3.87605    4.01966    4.04967    2.54899   77.42696    0.30743    3.22800   96.24325    0.04224    8.50000 80000.00000
 1797.50000    8.56068    4.04791    4.16779    4.21182    2.53757   77.89780    0.30918    3.24336   96.62780   -0.08310    8.50000 80000.00000
 1797.60000    8.55973    3.87548    4.02790    4.05562    2.52978   77.95435    0.31327    3.25197   96.16542   -0.01813    8.50000 80000.00000
 1797.70000    8.56404    3.97817    4.10730    4.14785    2.52710   77.89438    0.31497    3.26591   96.23575   -0.19627    8.50000 80000.00000
 1797.80000    8.56545    4.03440    4.09668    4.15672    2.52722   78.28689    0.31392    3.26350   97.07404   -0.04782    8.50000 80000.00000
 1797.90000    8.56886    3.93247    4.00033    4.05228    2.53025   79.78470    0.31369    3.25004   96.96369   -0.00865    8.50000 80000.00000
 1798.00000    8.57309    4.06855    4.12136    4.17181    2.53652   79.76337    0.31263    3.25213   96.89755   -0.04786    8.50000 80000.00000
 1798.10000    8.57744    4.07368    4.13861    4.18486    2.53368   79.37363    0.31347    3.24140   96.76262   -0.10697    8.50000 80000.00000
 1798.20000    8.58119    4.07033    4.08437    4.11066    2.53900   80.01036    0.31344    3.22865   97.31773   -0.18136    8.50000 80000.00000
 1798.30000    8.57965    4.17986    4.18845    4.20281    2.54007   80.66439    0.31585    3.23077   97.85078   -0.18220    8.50000 80000.00000
 1798.40000    8.57772    4.33128    4.35324    4.33690    2.53578   79.98553    0.31689    3.22722   97.92479   -0.61644    8.50000 80000.00000
 1798.50000    8.57569    4.42273    4.45957    4.45306    2.52766   79.79339    0.31398    3.22626   97.73104   -0.91324    8.50000 80000.00000
 1798.60000    8.57841    4.61061    4.58126    4.60294    2.53410   78.72333    0.31744    3.23133   97.15142   -0.95711    8.50000 80000.00000
 1798.70000    8.57617    4.53739    4.51724    4.53991    2.52852   79.17720    0.31857    3.22680   97.35853   -1.39202    8.50000 80000.00000
 1798.80000    8.57568    4.62824    4.62148    4.64585    2.52910   78.30014    0.31740    3.22776   97.22522   -1.65798    8.50000 80000.00000
 1798.90000    8.57600    4.63480    4.58827    4.60967    2.53027   78.06067    0.31765    3.22144   97.04951   -1.79426    8.50000 80000.00000
 1799.00000    8.57706    4.78938    4.79764    4.81635    2.52922   77.88176    0.31925    3.19891   96.61001   -2.11581    8.50000 80000.00000
 1799.10000    8.57511    4.76643    4.79304    4.81455    2.52589   78.27217    0.32040    3.19655   96.83562   -2.20854    8.50000 80000.00000
 1799.20000    8.57479    4.81343    4.75094    4.77718    2.52223   78.25353    0.32350    3.19797   96.87972   -2.05435    8.50000 80000.00000
 1799.30000    8.57666    4.82905    4.78350    4.80189    2.51777   78.80947    0.32325    3.21831   96.52832   -1.61259    8.50000 80000.00000
 1799.40000    8.57985    4.77436    4.64840    4.68750    2.51511   78.98253    0.32123    3.21923   96.64721   -1.51456    8.50000 80000.00000
 1799.50000    8.58019    4.88776    4.78063    4.80464    2.52446   79.32006    0.31877    3.20246   96.20486   -1.26845    8.50000 80000.00000
 1799.60000    8.58420    4.56710    4.45885    4.45908    2.52409   78.56342    0.31900    3.19330   96.48708   -1.17997    8.50000 80000.00000
 1799.70000    8.58652    4.93104    4.70175    4.72066    2.52699   78.45894    0.31537    3.18683   96.30767   -1.58180    8.50000 80000.00000
 1799.80000    8.58323    4.79669    4.60010    4.61209    2.52439   78.61116    0.31387    3.17064   96.58435   -1.43050    8.50000 80000.00000
 1799.90000    8.58359    4.62581    4.50330    4.51158    2.52301   78.43497    0.31453    3.16970   95.89201   -1.08481    8.50000 80000.00000
 1800.00000    8.58271    4.57576    4.43688    4.45035    2.51840   77.68376    0.30987    3.16723   96.14942   -1.17269    8.50000 80000.00000
 1800.10000    8.58280    4.57926    4.44834    4.46231    2.51120   77.79922    0.30893    3.15863   95.71503   -0.79203    8.50000 80000.00000
 1800.20000    8.58049    4.88658    4.78423    4.81070    2.51597   78.48340    0.30839    3.16060   95.88054   -0.30416    8.50000 80000.00000
 1800.30000    8.57742    4.86616    4.73844    4.79162    2.51471   78.12650    0.30948    3.17806   94.85866   -0.87791    8.50000 80000.00000
 1800.40000    8.58040    4.86351    4.74342    4.80847    2.51429   77.45894    0.30959    3.17037   94.55898   -0.45687    8.50000 80000.00000
 1800.50000    8.58039    4.73638    4.60788    4.69421    2.51358   77.31526    0.31129    3.17401   94.15154    0.13782    8.50000 80000.00000
 1800.60000    8.58285    4.77072    4.63106    4.72494    2.51127   77.83648    0.31279    3.17936   94.03933    0.51629    8.50000 80000.00000
 1800.70000    8.58460    4.73860    4.73028    4.78258    2.51214   78.45234    0.31040    3.19175   94.56182    0.20888    8.50000 80000.00000
