~Version ---------------------------------------------------
VERS.   2.0 : CWLS log ASCII Standard -VERSION 2.0
WRAP.    NO : One line per depth step
DLM . SPACE : Column Data Section Delimiter
~Well ------------------------------------------------------
STRT.m          1000.00000 : START DEPTH
STOP.m          2000.00000 : STOP DEPTH
STEP.m             0.10000 : STEP
NULL.             -9999.25 : NULL VALUE
COMP. FORCE 2020 Recreator : 
WELL.   WELL_FORCE_2020_07 : 
FLD .                      : FIELD
LOC .                      : LOCATION
PROV.                      : PROVINCE
CNTY.                      : COUNTY
STAT.                      : STATE
CTRY.                      : COUNTRY
SRVC.                      : SERVICE COMPANY
DATE.                      : DATE
UWI .                      : UNIQUE WELL ID
API .                      : API NUMBER
~Curve Information -----------------------------------------
DEPT                            .m      : 
CALI                            .in     : 
RSHA                            .ohm.m  : 
RMED                            .ohm.m  : 
RDEP                            .ohm.m  : 
RHOB                            .g/cm3  : 
GR                              .gAPI   : 
NPHI                            .v/v    : 
PEF                             .b/e    : 
DTC                             .us/ft  : 
SP                              .mV     : 
BS                              .in     : 
FORCE_2020_LITHOFACIES_LITHOLOGY.code   : 
~Params ----------------------------------------------------
~Other -----------------------------------------------------
~ASCII -----------------------------------------------------
# ...
 1263.20000    9.90939    2.61658    2.55197    2.51474    2.48350  113.63012    0.36539    3.40655  105.40784    5.53259    8.50000 65000.00000
 1263.30000    9.88894    2.63944    2.56894    2.54363    2.48700  113.59551    0.36162    3.40137  105.62476    5.43672    8.50000 65000.00000
 1263.40000    9.89317    2.62540    2.55403    2.53365    2.48286  114.44878    0.36027    3.39139  105.03644    5.45104    8.50000 65000.00000
 1263.50000    9.93299    2.52606    2.47586    2.45148    2.48818  113.96099    0.35932    3.37735  103.75161    5.28458    8.50000 65000.00000
 1263.60000    9.93256    2.63462    2.62763    2.59411    2.48262  113.97188    0.35613    3.37310  104.22049    5.09462    8.50000 65000.00000
 1263.70000    9.90628    2.64561    2.65881    2.61514    2.48267  114.26575    0.35484    3.39218  103.77657    4.93872    8.50000 65000.00000
 1263.80000    9.89374    2.61783    2.63724    2.59191    2.47896  116.00193    0.35623    3.38610  103.81414    5.06081    8.50000 65000.00000
 1263.90000    9.90752    2.57116    2.60756    2.55554    2.48798  114.90646    0.35849    3.38755  103.29407    4.70373    8.50000 65000.00000
 1264.00000    9.91786    2.54915    2.57580    2.52945    2.48542  115.15449    0.35789    3.38802  103.89441    4.92689    8.50000 65000.00000
 1264.10000    9.94269    2.50888    2.54465    2.51301    2.48923  116.14955    0.35561    3.40563  104.24312    5.32609    8.50000 65000.00000
 1264.20000    9.96023    2.47271    2.50398    2.47285    2.49387  117.06892    0.35638    3.40053  104.15640    5.33266    8.50000 65000.00000
 1264.30000    9.96276    2.52931    2.56513    2.53276    2.49408  116.18007    0.36081    3.39803  103.73071    5.51712    8.50000 65000.00000
 1264.40000    9.95379    2.49641    2.52518    2.50063    2.49398  116.40916    0.36141    3.40553  104.06923    5.77481    8.50000 65000.00000
 1264.50000    9.97032    2.42127    2.46383    2.44307    2.49821  116.90054    0.35904    3.39241  104.69497    6.10697    8.50000 65000.00000
 1264.60000    9.89446    2.43501    2.45073    2.43723    2.49686  116.51621    0.35499    3.40844  104.63269    6.08404    8.50000 65000.00000
 1264.70000    9.91748    2.41257    2.43356    2.41268    2.49172  117.30529    0.35664    3.39237  105.37102    5.88595    8.50000 65000.00000
 1264.80000    9.93820    2.46333    2.47631    2.45444    2.48707  117.41149    0.35723    3.38103  105.29905    6.13519    8.50000 65000.00000
 1264.90000    9.89313    2.55997    2.51440    2.50096    2.48795  117.48106    0.35573    3.38428  106.04303    6.01674    8.50000 65000.00000
 1265.00000    9.90269    2.66042    2.58294    2.58320    2.48221  118.54263    0.35611    3.37278  105.71131    6.01740    8.50000 65000.00000
 1265.10000    9.91000    2.56935    2.49097    2.49012    2.48287  118.51470    0.35546    3.38015  105.69831    5.83757    8.50000 65000.00000
 1265.20000    9.88765    2.60909    2.53899    2.54238    2.48583  119.28413    0.35239    3.38447  105.19256    6.11927    8.50000 65000.00000
 1265.30000    9.91684    2.59027    2.52921    2.53072    2.49157  119.84796    0.35666    3.39811  105.44989    6.06605    8.50000 65000.00000
 1265.40000    9.94909    2.54673    2.47610    2.46735    2.49088  119.71333    0.36061    3.40223  105.76733    5.84339    8.50000 65000.00000
 1265.50000    9.97130    2.63658    2.53371    2.52791    2.48968  119.64230    0.36065    3.39774  105.92157    5.68602    8.50000 65000.00000
 1265.60000    9.95766    2.66917    2.56023    2.56399    2.49192  120.63033    0.35844    3.40819  106.16754    5.90744    8.50000 65000.00000
 1265.70000    9.96170    2.65154    2.52352    2.52577    2.49282  120.40474    0.35935    3.37969  106.02056    5.98641    8.50000 65000.00000
 1265.80000    9.98908    2.62068    2.46857    2.47919    2.49461  120.48620    0.35993    3.36241  105.87019    5.98658    8.50000 65000.00000
 1265.90000    9.98691    2.65266    2.48836    2.50498    2.50082  118.35993    0.35930    3.34133  106.21741    5.87640    8.50000 65000.00000
 1266.00000    9.98966    2.76903    2.58683    2.61149    2.49379  119.20299    0.36112    3.35985  106.91433    6.28721    8.50000 65000.00000
 1266.10000    9.98061    2.77652    2.60834    2.63379    2.48507  120.26413    0.36091    3.34667  106.93913    6.17898    8.50000 65000.00000
 1266.20000    9.94493    2.73292    2.55595    2.58470    2.48138  117.79065    0.35731    3.33241  106.88558    5.97678    8.50000 65000.00000
 1266.30000    9.94428    2.83039    2.68071    2.70465    2.47654  116.80415    0.35426    3.34957  107.15740    6.04205    8.50000 65000.00000
 1266.40000    9.93877    2.74477    2.61180    2.63387    2.48091  117.15028    0.35035    3.33834  107.20859    5.84262    8.50000 65000.00000
 1266.50000    9.94123    2.74744    2.63452    2.64772    2.48156  117.15771    0.35137    3.33997  107.00819    5.93559    8.50000 65000.00000
 1266.60000    9.94043    2.74724    2.63483    2.64289    2.48083  116.10601    0.35021    3.36575   -9999.25    5.98493    8.50000 65000.00000
 1266.70000    9.96010    2.72185    2.62393    2.63914    2.48614  116.97517    0.35523    3.35286  106.32038    5.96698    8.50000 65000.00000
 1266.80000    9.93370    2.72424    2.61869    2.64040    2.48430  115.24738    0.35493    3.35972  106.30660    6.02630    8.50000 65000.00000
 1266.90000    9.91339    2.69789    2.61038    2.63325    2.48516  115.16480    0.35715    3.35711  106.18314    5.93575    8.50000 65000.00000
 1267.00000    9.96027    2.57256    2.51768    2.54306    2.47680  115.97245    0.35544    3.34096  106.23079    6.06973    8.50000 65000.00000
 1267.10000    9.95426    2.46818    2.49316    2.49491    2.47805  114.17161    0.35640    3.34639  106.89693    6.34102    8.50000 65000.00000
 1267.20000    9.94629    2.51159    2.55161    2.55125    2.47985  115.11477    0.35675    3.34476  107.16171    6.56564    8.50000 65000.00000
 1267.30000    9.93517    2.42211    2.46392    2.47117    2.47505  114.30326    0.36338    3.36284  107.32744    6.39170    8.50000 65000.00000
 1267.40000    9.93183    2.43615    2.47247    2.48280    2.46482  114.48989    0.36124    3.36300  106.87516    6.48036    8.50000 65000.00000
 1267.50000    9.87609    2.48208    2.52425    2.53444    2.46487  115.51074    0.35985    3.36823  106.73469    6.63746    8.50000 65000.00000
 1267.60000    9.85086    2.39092    2.45912    2.46827    2.46619  114.54195    0.36015    3.37204  107.21519    6.68579    8.50000 65000.00000
 1267.70000    9.84016    2.43359    2.52171    2.51022    2.46385  113.70592    0.35954    3.35705  107.28514    6.72823    8.50000 65000.00000
 1267.80000    9.84133    2.39354    2.46960    2.47030    2.46644  114.29884    0.35761    3.38348  106.85949    6.59618    8.50000 65000.00000
 1267.90000    9.85205    2.37411    2.45611    2.45664    2.46783  113.24724    0.35465    3.38709  107.36215    6.69383    8.50000 65000.00000
 1268.00000    9.86700    2.39589    2.46495    2.46730    2.46704  115.04819    0.35129    3.39004  106.70796    6.53533    8.50000 65000.00000
 1268.10000    9.84579    2.30302    2.39893    2.38891    2.46525  114.52439    0.34395    3.36723  106.29005    6.25671    8.50000 65000.00000
 1268.20000    9.83547    2.35805    2.45140    2.44449    2.47469  114.90590    0.34811    3.38864  106.21256    6.15946    8.50000 65000.00000
 1268.30000    9.83748    2.38973    2.51179    2.50014    2.47788  116.15490    0.35098    3.38185  106.03714    6.31996    8.50000 65000.00000
 1268.40000    9.82596    2.36182    2.44139    2.44268    2.48286  116.41775    0.35539    3.37062  106.13573    6.36416    8.50000 65000.00000
 1268.50000    9.82612    2.37162    2.45343    2.45142    2.48142  115.73045    0.35845    3.37227  106.45350    6.29271    8.50000 65000.00000
 1268.60000    9.85795    2.39278    2.48950    2.48504    2.48054  115.13861    0.35568    3.36857  107.18352    5.78910    8.50000 65000.00000
 1268.70000    9.86585    2.43447    2.51544    2.51058    2.47712  116.50302    0.35607    3.34291  107.15958    5.59298    8.50000 65000.00000
