~Version ---------------------------------------------------
VERS.   2.0 : CWLS log ASCII Standard -VERSION 2.0
WRAP.    NO : One line per depth step
DLM . SPACE : Column Data Section Delimiter
~Well ------------------------------------------------------
STRT.m          1000.00000 : START DEPTH
STOP.m          2000.00000 : STOP DEPTH
STEP.m             0.10000 : STEP
NULL.             -9999.25 : NULL VALUE
COMP. FORCE 2020 Recreator : 
WELL.   WELL_FORCE_2020_05 : 
FLD .                      : FIELD
LOC .                      : LOCATION
PROV.                      : PROVINCE
CNTY.                      : COUNTY
STAT.                      : STATE
CTRY.                      : COUNTRY
SRVC.                      : SERVICE COMPANY
DATE.                      : DATE
UWI .                      : UNIQUE WELL ID
API .                      : API NUMBER
~Curve Information -----------------------------------------
DEPT                            .m      : 
CALI                            .in     : 
RSHA                            .ohm.m  : 
RMED                            .ohm.m  : 
RDEP                            .ohm.m  : 
RHOB                            .g/cm3  : 
GR                              .gAPI   : 
NPHI                            .v/v    : 
PEF                             .b/e    : 
DTC                             .us/ft  : 
SP                              .mV     : 
BS                              .in     : 
FORCE_2020_LITHOFACIES_LITHOLOGY.code   : 
~Params ----------------------------------------------------
~Other -----------------------------------------------------
~ASCII -----------------------------------------------------
# ...
 1201.60000    8.58153    4.69136    4.78422    4.91005    2.52612   82.62222    0.31141   -9999.25   97.92834   -0.92267    8.50000 80000.00000
 1201.70000    8.58525    4.80592    4.90148    5.02525    2.52428   82.16831    0.31220   -9999.25   97.45743   -1.11388    8.50000 80000.00000
 1201.80000    8.58971    4.71544    4.80882    4.93505    2.51955   81.99180    0.31454   -9999.25   98.10343   -1.25921    8.50000 80000.00000
 1201.90000    8.59102    4.86284    4.98834    5.11046    2.51933   81.19138    0.31544   -9999.25   98.36990   -0.88771    8.50000 80000.00000
 1202.00000    8.58899    4.68304    4.79711    4.91660    2.52422   81.42572    0.31273   -9999.25   98.51712   -0.78657    8.50000 80000.00000
 1202.10000    8.59002    4.61657    4.70269    4.81233    2.52600   82.24446    0.31493   -9999.25   99.67617   -0.72976    8.50000 80000.00000
 1202.20000    8.58903    4.45457    4.52170    4.63662    2.53024   81.02454    0.31188   -9999.25   99.79420   -0.65738    8.50000 80000.00000
 1202.30000    8.58587    4.48417    4.55726    4.66727    2.53140   80.95439    0.31564   -9999.25   99.26534   -0.27292    8.50000 80000.00000
 1202.40000    8.58622    4.39315    4.52696    4.61595    2.52529   80.37322    0.31288   -9999.25   98.85470    0.00093    8.50000 80000.00000
 1202.50000    8.58817    4.32783    4.48807    4.54355    2.52100   80.10992    0.31207   -9999.25   98.60271   -0.06749    8.50000 80000.00000
 1202.60000    8.58766    4.21348    4.37193    4.41312    2.51653   79.63420    0.31225   -9999.25   98.40869   -0.09058    8.50000 80000.00000
 1202.70000    8.58855    4.14797    4.30209    4.35639    2.51783   78.41555    0.31168   -9999.25   98.47779   -0.39184    8.50000 80000.00000
 1202.80000    8.58852    3.94056    4.12026    4.16935    2.51410   77.80999    0.31105   -9999.25   97.89445   -0.44554    8.50000 80000.00000
 1202.90000    8.58843    3.67940    3.75762    3.76143    2.51607   78.39679    0.31131   -9999.25   97.91656   -0.37812    8.50000 80000.00000
 1203.00000    8.58542    3.79823    3.85812    3.85304    2.51601   78.85811    0.30996   -9999.25   98.08084   -0.40867    8.50000 80000.00000
 1203.10000    8.58722    3.83319    3.90918    3.91190    2.51646   78.81184    0.30954   -9999.25   98.26154   -0.61163    8.50000 80000.00000
 1203.20000    8.58713    3.79583    3.85112    3.87620    2.51606   78.63229    0.31009   -9999.25   98.54100   -0.98515    8.50000 80000.00000
 1203.30000    8.59087    3.65921    3.70723    3.71746    2.51811   78.85282    0.30826   -9999.25   98.30898   -0.66625    8.50000 80000.00000
 1203.40000    8.58849    3.67887    3.73375    3.75577    2.51593   78.37351    0.30849   -9999.25   98.47699   -0.49381    8.50000 80000.00000
 1203.50000    8.58327    3.67040    3.74376    3.76381    2.50942   78.78540    0.30823   -9999.25   97.85819   -0.33238    8.50000 80000.00000
 1203.60000    8.58398    3.67614    3.62767   -9999.25    2.50193   78.93596    0.30953   -9999.25   97.57318    0.19894    8.50000 80000.00000
 1203.70000    8.58393    3.71849    3.64352    3.70067    2.50105   78.24543    0.30885   -9999.25   97.18549    0.52848    8.50000 80000.00000
 1203.80000    8.58430    3.76711    3.70179    3.75254    2.50284   77.51155    0.30921   -9999.25   97.14426    0.57370    8.50000 80000.00000
 1203.90000    8.58389    3.90349    3.85266    3.90228    2.50896   77.22135    0.30834   -9999.25   96.54057    1.04331    8.50000 80000.00000
 1204.00000    8.58558    3.71408    3.61492    3.66117    2.50856   76.88350    0.30799   -9999.25   96.71823    0.61876    8.50000 80000.00000
 1204.10000    8.58602    3.88171    3.75794    3.80322    2.50738   77.60424    0.30933   -9999.25   96.22329    0.55099    8.50000 80000.00000
 1204.20000    8.58350    3.72504    3.68392    3.70377    2.50728   77.15287    0.30962   -9999.25   94.96534    0.54998    8.50000 80000.00000
 1204.30000    8.58049    3.73978    3.70319    3.71885    2.51050   76.66442    0.31141   -9999.25   94.49746    0.74969    8.50000 80000.00000
 1204.40000    8.58117    3.74446    3.69799    3.70273    2.50856   77.76189    0.31252   -9999.25   95.45217    0.44159    8.50000 80000.00000
 1204.50000    8.57860    3.81826    3.76491    3.77653    2.51611   78.60426    0.31568   -9999.25   95.08024    0.27795    8.50000 80000.00000
 1204.60000    8.57829    3.85271    3.84963    3.86053    2.52713   79.98172    0.31637   -9999.25   96.17371    0.62556    8.50000 80000.00000
 1204.70000    8.57996    3.93104    3.92785    3.94440    2.52504   80.41625    0.31646   -9999.25   96.30276    0.63617    8.50000 80000.00000
 1204.80000    8.58037    3.88131    3.90127    3.90612    2.52902   81.67772    0.31575   -9999.25   96.34019    0.88802    8.50000 80000.00000
 1204.90000    8.58215    3.90476    3.92870    3.92960    2.53165   82.09776    0.31511   -9999.25   96.87105    1.19698    8.50000 80000.00000
 1205.00000    8.58483    3.82497    3.85805    3.86310    2.52799   81.34348    0.31362   -9999.25   96.72824    1.24710    8.50000 80000.00000
 1205.10000    8.58717    3.79112    3.78544    3.82401    2.53279   81.39005    0.31245   -9999.25   96.48886    1.16943    8.50000 80000.00000
 1205.20000    8.58616    3.95379    3.97876    3.99118    2.52987   81.11641    0.31006   -9999.25   96.58881    1.23356    8.50000 80000.00000
 1205.30000    8.58899    3.98640    4.01742    4.01067    2.52641   80.98992    0.31181   -9999.25   96.40806    1.69576    8.50000 80000.00000
 1205.40000    8.58641    4.00068    4.05773    4.05102    2.52578   80.76673    0.31649   -9999.25   96.44114    1.09686    8.50000 80000.00000
 1205.50000    8.58488    3.88848    3.93082    3.93186    2.52561   80.64184    0.31397   -9999.25   95.77200    0.68193    8.50000 80000.00000
 1205.60000    8.58748    4.54515    4.54594    4.52520    2.53630   80.00202    0.31212   -9999.25   95.88354    0.93301    8.50000 80000.00000
 1205.70000    8.58602    4.46359    4.54171    4.48279    2.53705   80.32510    0.30992   -9999.25   96.22875    0.99994    8.50000 80000.00000
 1205.80000    8.58567    4.44104    4.53492    4.46660    2.53626   81.34182    0.30968   -9999.25   96.17919    1.44580    8.50000 80000.00000
 1205.90000    8.58511    4.46199    4.55737    4.52590    2.53813   81.41903    0.30793   -9999.25   96.05118    1.71535    8.50000 80000.00000
 1206.00000    8.58391    4.66145    4.73002    4.69948    2.53829   81.66070    0.30612   -9999.25   95.96009    1.50878    8.50000 80000.00000
 1206.10000    8.58251    4.79505    4.86234    4.83325    2.53913   81.90162    0.30858   -9999.25   95.38407    1.85939    8.50000 80000.00000
 1206.20000    8.58564    4.66585    4.76533    4.72618    2.53887   81.73264    0.30931   -9999.25   95.57518    1.78913    8.50000 80000.00000
 1206.30000    8.58879    4.73411    4.79419    4.77318    2.53531   81.94899    0.30929   -9999.25   96.04444    1.75939    8.50000 80000.00000
 1206.40000    8.59168    4.80577    4.88019    4.84987    2.53079   82.12033    0.30995   -9999.25   96.76841    1.81902    8.50000 80000.00000
 1206.50000    8.58834    4.76354    4.85178    4.82548    2.52651   82.03319    0.30533   -9999.25   96.06723    1.99534    8.50000 80000.00000
 1206.60000    8.59028    4.75099    4.85701    4.80868    2.52387   81.43633    0.30415   -9999.25   96.52759    2.02070    8.50000 80000.00000
 1206.70000    8.58981    4.75137    4.82877    4.80794    2.51777   81.01415    0.30388   -9999.25   95.98438    1.76968    8.50000 80000.00000
 1206.80000    8.58729    4.99594    5.07276    5.04917    2.52243   80.98018    0.30262   -9999.25   95.58621    1.63127    8.50000 80000.00000
 1206.90000    8.58764    5.11883    5.18061    5.15496    2.52162   80.52059    0.30425   -9999.25   95.31344    1.61287    8.50000 80000.00000
 1207.00000    8.58581    5.23978    5.28744    5.26757    2.52359   81.42182    0.30760   -9999.25   95.41721    1.33602    8.50000 80000.00000
 1207.10000    8.58239    5.48902    5.55382    5.51842    2.53177   81.04591    0.30816   -9999.25   95.28274    1.33540    8.50000 80000.00000
