~Version ---------------------------------------------------
VERS.   2.0 : CWLS log ASCII Standard -VERSION 2.0
WRAP.    NO : One line per depth step
DLM . SPACE : Column Data Section Delimiter
~Well ------------------------------------------------------
STRT.m          1000.00000 : START DEPTH
STOP.m          2000.00000 : STOP DEPTH
STEP.m             0.10000 : STEP
NULL.             -9999.25 : NULL VALUE
COMP. FORCE 2020 Recreator : 
WELL.   WELL_FORCE_2020_09 : 
FLD .                      : FIELD
LOC .                      : LOCATION
PROV.                      : PROVINCE
CNTY.                      : COUNTY
STAT.                      : STATE
CTRY.                      : COUNTRY
SRVC.                      : SERVICE COMPANY
DATE.                      : DATE
UWI .                      : UNIQUE WELL ID
API .                      : API NUMBER
~Curve Information -----------------------------------------
DEPT                            .m      : 
CALI                            .in     : 
RSHA                            .ohm.m  : 
RMED                            .ohm.m  : 
RDEP                            .ohm.m  : 
RHOB                            .g/cm3  : 
GR                              .gAPI   : 
NPHI                            .v/v    : 
PEF                             .b/e    : 
DTC                             .us/ft  : 
SP                              .mV     : 
BS                              .in     : 
FORCE_2020_LITHOFACIES_LITHOLOGY.code   : 
~Params ----------------------------------------------------
~Other -----------------------------------------------------
~ASCII -----------------------------------------------------
# ...
 1134.40000    8.58924  241.72313  240.81017  239.31360    1.43716   28.24256    0.53399    1.54436  128.42029   -7.34789    8.50000 90000.00000
 1134.50000    8.58675  237.74039  237.42278  235.51103    1.43706   27.74577    0.52838    1.56706  129.90597   -7.49723    8.50000 90000.00000
 1134.60000    8.58361  230.43941  234.50531  229.21081    1.44529   28.14195    0.52882    1.55519  130.01354   -7.64381    8.50000 90000.00000
 1134.70000    8.58313  204.76940  211.43157  205.56281    1.43639   28.27346    0.52778    1.55355  130.72569   -7.83433    8.50000 90000.00000
 1134.80000    8.58774  234.58532  233.94259  231.16848    1.43247   28.13030    0.52768    1.54956  130.60478   -7.57457    8.50000 90000.00000
 1134.90000    8.59180  220.93339  219.26637  216.47598    1.43543   28.60906    0.52962    1.54213  130.19071   -7.26808    8.50000 90000.00000
 1135.00000    8.59076  202.51774  199.40775  197.04493    1.43255   27.75095    0.52952    1.55496  130.42806   -7.79209    8.50000 90000.00000
 1135.10000    8.59255  180.82955  178.64465  178.85272    1.43608   27.76277    0.52677    1.55042  130.49395   -7.75812    8.50000 90000.00000
 1135.20000    8.59354  180.60937  178.69975  178.56568    1.43167   27.71269    0.53152    1.55146  130.66671   -8.21614    8.50000 90000.00000
 1135.30000    8.59639  172.48775  169.99348  169.39261    1.43062   29.40583    0.53126    1.53695  130.65144   -7.81866    8.50000 90000.00000
 1135.40000    8.59629  181.59228  181.17124  179.75423    1.42761   28.80412    0.53068    1.53751  129.34137   -7.49312    8.50000 90000.00000
 1135.50000    8.59463  186.39126  183.89413  183.28757    1.42344   29.23710    0.52937    1.54756  129.18804   -8.11888    8.50000 90000.00000
 1135.60000    8.59341  175.79875  173.67891  173.60642    1.42419   29.38205    0.52268    1.56347  128.78793   -7.91319    8.50000 90000.00000
 1135.70000    8.59366  165.40795  163.37153  163.43512    1.43349   28.79289    0.51726    1.59130  127.42422   -7.68161    8.50000 90000.00000
 1135.80000    8.59534  174.50180  172.63317  172.31417    1.42036   28.31121    0.52312    1.57612  128.07178   -7.77735    8.50000 90000.00000
 1135.90000    8.58990  187.20095  186.14758  186.21140    1.41629   28.01616    0.52508    1.56666  127.56406   -7.98477    8.50000 90000.00000
 1136.00000    8.59087  188.27137  188.54738  188.34762    1.40779   28.58810    0.52565    1.56031  126.71196   -7.93330    8.50000 90000.00000
 1136.10000    8.59062  164.09767  162.34072  164.06723    1.40799   27.88865    0.51571    1.55995  126.13281   -8.09647    8.50000 90000.00000
 1136.20000    8.58683  177.36149  181.57565  182.18738    1.40479   28.38181    0.51609    1.56700  125.34938   -7.98594    8.50000 90000.00000
 1136.30000    8.58446  189.14710  194.90719  195.06010    1.40076   28.34115    0.51662    1.56205  125.81396   -7.62667    8.50000 90000.00000
 1136.40000    8.58506  191.02289  196.74929  196.87711    1.39767   28.23788    0.51631    1.56537  126.82671   -7.48661    8.50000 90000.00000
 1136.50000    8.58371  193.16283  196.85343  196.59114    1.40589   28.27686    0.51588    1.58052  125.95121   -7.60945    8.50000 90000.00000
 1136.60000    8.58524  195.16577  199.74801  199.32042    1.40444   28.47495    0.51537    1.57026  124.63907   -7.59128    8.50000 90000.00000
 1136.70000    8.58588  189.28703  193.50952  193.93073    1.40043   28.72333    0.51978    1.55698  124.67774   -7.14344    8.50000 90000.00000
 1136.80000    8.59110  188.63741  192.50561  193.09307    1.40671   29.14679    0.52102    1.57070  124.85307   -6.71388    8.50000 90000.00000
 1136.90000    8.58824  159.77302  168.94639  166.92328    1.40899   29.85331    0.51604    1.59286  124.25008   -7.15659    8.50000 90000.00000
 1137.00000    8.58567  161.65000  171.15475  169.04376    1.41600   30.36567    0.51090    1.59819  124.40983   -7.76894    8.50000 90000.00000
 1137.10000    8.58719  177.58854  184.11318  182.35128    1.41419   31.81673    0.51004    1.59074  125.26290   -7.20799    8.50000 90000.00000
 1137.20000    8.58538  176.45586  182.80475  181.36453    1.40576   31.71449    0.51323    1.60949  124.78836   -7.56945    8.50000 90000.00000
 1137.30000    8.58530  191.80467  198.31485  196.98869    1.40514   31.62322    0.51294    1.61035  124.90341   -7.53834    8.50000 90000.00000
 1137.40000    8.58419  201.37404  208.26175  206.79149    1.40757   30.61244    0.51122    1.60646  124.88286   -8.01572    8.50000 90000.00000
 1137.50000    8.58507  191.66616  196.84272  196.22553    1.40521   30.72023    0.51473    1.59884  123.99963   -8.23407    8.50000 90000.00000
 1137.60000    8.58518  216.93741  220.43354  220.49557    1.40067   30.86900    0.50742    1.58393  123.82235   -7.94526    8.50000 90000.00000
 1137.70000    8.58488  220.20054  224.04037  223.73024    1.39360   31.65384    0.51252    1.57747  123.96910   -8.27713    8.50000 90000.00000
 1137.80000    8.58314  224.12526  225.93550  226.52724    1.38208   31.84469    0.51341    1.55847  124.70394   -8.41900    8.50000 90000.00000
 1137.90000    8.57987  224.20302  226.18389  226.89417    1.38781   31.83604    0.50872    1.57423  123.06871   -8.09327    8.50000 90000.00000
 1138.00000    8.58270  212.02382  213.50888  213.68447    1.39126   32.11342    0.51180    1.58071  123.30733   -7.75452    8.50000 90000.00000
 1138.10000    8.58143  211.68786  211.24972  211.75136    1.39570   32.26806    0.51169    1.57827  122.91314   -7.40346    8.50000 90000.00000
 1138.20000    8.58241  208.31652  209.23908  209.93915    1.40537   32.77793    0.51398    1.57055  124.32459   -7.59870    8.50000 90000.00000
 1138.30000    8.58611  194.63401  189.72564  191.51452    1.40963   32.08211    0.51782    1.56106  124.86371   -7.88496    8.50000 90000.00000
 1138.40000    8.58756  193.48110  188.15505  190.20508    1.41374   32.21372    0.51715    1.57566  124.36789   -8.38650    8.50000 90000.00000
 1138.50000    8.58686  188.35373  183.44797  185.48200    1.42159   32.13688    0.51774    1.58204  123.72858   -8.71011    8.50000 90000.00000
 1138.60000    8.58588  182.86769  180.99344  183.06796    1.41521   32.20907    0.51451    1.58740  124.31618   -8.54798    8.50000 90000.00000
 1138.70000    8.58562  271.28560  261.80427  263.80654    1.41943   32.05080    0.51718    1.60713  125.05186   -8.42612    8.50000 90000.00000
 1138.80000    8.58564  265.08413  254.99661  257.59742    1.41922   31.73975    0.51473    1.62080  124.74978   -9.02750    8.50000 90000.00000
 1138.90000    8.58450  289.43403  279.91871  281.34136    1.41778   31.56113    0.51481    1.61639  124.39790   -9.24512    8.50000 90000.00000
 1139.00000    8.58495  307.50066  298.02529  299.98181    1.42418   31.55704    0.51722    1.60793  124.00348   -9.01199    8.50000 90000.00000
 1139.10000    8.58620  307.81589  298.06975  299.76535    1.42086   31.94382    0.51763    1.62344  123.16630   -9.03340    8.50000 90000.00000
 1139.20000    8.58394  297.27147  288.96422  290.92040    1.42277   32.38279    0.52023    1.64437  123.06950   -9.39538    8.50000 90000.00000
 1139.30000    8.58952  302.85463  295.11424  297.16583    1.42467   32.09375    0.51891    1.62643  123.75969   -9.09297    8.50000 90000.00000
 1139.40000    8.58921  313.68926  303.19692  306.90304   -9999.25   32.48828    0.51608    1.61905  123.03677   -8.37706    8.50000 90000.00000
 1139.50000    8.58889  314.09355  303.48623  306.86928    1.42401   33.44151    0.52042    1.64115  123.75500   -7.91167    8.50000 90000.00000
 1139.60000    8.58901  335.00239  322.37495  328.29178    1.43265   34.14102    0.51750    1.65315  124.69500   -8.05026    8.50000 90000.00000
 1139.70000    8.58727  305.49232  295.86720  300.48331    1.43286   33.52490    0.51514    1.66355  124.85719   -7.96078    8.50000 90000.00000
 1139.80000    8.58774  304.15375  292.58862  297.92997    1.42798   33.03862    0.51567    1.66090  125.29728   -7.81916    8.50000 90000.00000
 1139.90000    8.59322  295.63634  285.90618  290.38165    1.43805   33.02364    0.51773    1.66003  125.80864   -7.91783    8.50000 90000.00000
