~Version ---------------------------------------------------
VERS.   2.0 : CWLS log ASCII Standard -VERSION 2.0
WRAP.    NO : One line per depth step
DLM . SPACE : Column Data Section Delimiter
~Well ------------------------------------------------------
STRT.m          1000.00000 : START DEPTH
STOP.m          2000.00000 : STOP DEPTH
STEP.m             0.10000 : STEP
NULL.             -9999.25 : NULL VALUE
COMP. FORCE 2020 Recreator : 
WELL.   WELL_FORCE_2020_09 : 
FLD .                      : FIELD
LOC .                      : LOCATION
PROV.                      : PROVINCE
CNTY.                      : COUNTY
STAT.                      : STATE
CTRY.                      : COUNTRY
SRVC.                      : SERVICE COMPANY
DATE.                      : DATE
UWI .                      : UNIQUE WELL ID
API .                      : API NUMBER
~Curve Information -----------------------------------------
DEPT                            .m      : 
CALI                            .in     : 
RSHA                            .ohm.m  : 
RMED                            .ohm.m  : 
RDEP                            .ohm.m  : 
RHOB                            .g/cm3  : 
GR                              .gAPI   : 
NPHI                            .v/v    : 
PEF                             .b/e    : 
DTC                             .us/ft  : 
SP                              .mV     : 
BS                              .in     : 
FORCE_2020_LITHOFACIES_LITHOLOGY.code   : 
~Params ----------------------------------------------------
~Other -----------------------------------------------------
~ASCII -----------------------------------------------------
# ...
 1599.20000    8.58407   11.77139   11.82253   11.61533    2.19289   90.64233    0.32490    2.98820   97.34007    2.13590    8.50000 99000.00000
 1599.30000    8.58229   11.98764   12.12876   11.90136    2.18723   90.22038    0.32031    2.99077   96.77196    1.93253    8.50000 99000.00000
 1599.40000    8.57971   11.76966   11.90162   11.69156    2.19223   88.02429    0.32134    3.01266   97.10720    1.57006    8.50000 99000.00000
 1599.50000    8.57909   12.29176   12.39734   12.22374    2.18707   87.46223    0.32139    2.98989   97.24525    1.50850    8.50000 99000.00000
 1599.60000    8.57700   13.70737   13.67860   13.52780    2.18458   88.66436    0.32194    3.00525   97.67439    1.90668    8.50000 99000.00000
 1599.70000    8.57980   13.76721   13.71702   13.59774    2.18724   89.43139    0.32036    2.97533   97.49869    1.69258    8.50000 99000.00000
 1599.80000    8.57842   13.77304   13.83622   13.78850    2.19146   90.04771    0.31890    2.99651   97.65407    2.17324    8.50000 99000.00000
 1599.90000    8.57599   13.71909   13.75691   13.73780    2.19257   89.48895    0.32043    3.00954   98.26997    2.29702    8.50000 99000.00000
 1600.00000    8.57687   13.42798   13.16181   13.20323    2.18671   91.39072    0.32582    3.00992   98.17400    2.60171    8.50000 99000.00000
 1600.10000    8.57713   12.83314   12.37585   12.44229    2.17619   91.13816    0.32744    3.00532   99.26981    2.59887    8.50000 99000.00000
 1600.20000    8.57485   12.56869   12.14855   12.25025    2.16826   91.29955    0.33317    3.00264   98.30536    2.73939    8.50000 99000.00000
 1600.30000    8.57345   12.84182   12.44605   12.53600    2.17209   90.67641    0.33266    3.00738   98.07580    2.16041    8.50000 99000.00000
 1600.40000    8.57264   11.92575   11.51190   11.66056    2.16979   90.62287    0.33211    2.99722   98.54458    1.85784    8.50000 99000.00000
 1600.50000    8.57485   12.77922   12.22738   12.36459    2.17579   91.45210    0.33260    3.00459   99.18470    2.15138    8.50000 99000.00000
 1600.60000    8.57416   12.46602   11.85029   11.97179    2.17659   90.99381    0.33604    2.96930   99.75063    1.95036    8.50000 99000.00000
 1600.70000    8.57499   12.13617   11.56951   11.69529    2.18419   91.03628    0.33662    2.97194   99.73996    2.20183    8.50000 99000.00000
 1600.80000    8.57448   11.78964   11.33258   11.43993    2.19123   91.42409    0.33290    2.96949   98.52305    2.30564    8.50000 99000.00000
 1600.90000    8.57432   11.80963   11.39834   11.49371    2.18492   90.41045    0.33245    2.96223   97.34721    1.78350    8.50000 99000.00000
 1601.00000    8.57233   11.90261   11.45566   11.56875    2.17701   90.92147    0.33063    2.95219   98.15769    1.64052    8.50000 99000.00000
 1601.10000    8.57567   12.41512   12.04203   12.17316    2.16930   91.38732    0.33326    2.96493   98.20640    1.67006    8.50000 99000.00000
 1601.20000    8.57707   11.95709   11.62344   11.76536    2.16375   90.74333    0.33478    2.94994   97.47857    1.46103    8.50000 99000.00000
 1601.30000    8.57981   12.08174   11.78766   11.94286    2.16447   89.81026    0.32966    2.96124   97.57092    1.43819    8.50000 99000.00000
 1601.40000    8.58182   11.89911   11.48397   11.67628    2.16676   90.51540    0.32956    2.96876   98.37396    1.65941    8.50000 99000.00000
 1601.50000    8.57971   12.26665   11.82620   12.00882    2.16026   91.15910    0.32964    2.96001   98.24918    1.79780    8.50000 99000.00000
 1601.60000    8.57917   11.98649   11.55887   11.70870    2.16119   91.35239    0.32942    2.97120   98.64784    1.74015    8.50000 99000.00000
 1601.70000    8.57796   10.62516   10.24210   10.39060    2.16151   90.04895    0.33111    2.97049   99.04831    2.07123    8.50000 99000.00000
 1601.80000    8.57886   10.19686    9.84081    9.98386    2.16011   89.28282    0.33068    2.97912   99.06402    2.13244    8.50000 99000.00000
 1601.90000    8.57749   10.02119    9.79442    9.84699    2.15780   88.87141    0.32737    2.97478   98.30391    2.18805    8.50000 99000.00000
 1602.00000    8.57789   10.37610   10.26350   10.28120    2.16525   89.56881    0.33100    2.98269   98.10565    2.16676    8.50000 99000.00000
 1602.10000    8.57553   11.64209   11.46162   11.47314    2.17366   88.27502    0.32822    2.97890   97.71014    2.32060    8.50000 99000.00000
 1602.20000    8.57591   11.65037   11.42496   11.46157    2.17933   89.21258    0.32253    2.98270   97.19540    2.17338    8.50000 99000.00000
 1602.30000    8.57806   11.05403   10.86424   10.91493    2.17292   89.78210    0.31766    2.98865   97.21816    2.30989    8.50000 99000.00000
 1602.40000    8.57606   10.82504   10.53718   10.58453    2.16576   90.42089    0.32200    2.98737   97.88961    2.79738    8.50000 99000.00000
 1602.50000    8.57692   11.10978   10.80714   10.83267    2.16815   89.25887    0.32259    3.01680   97.57231    3.18550    8.50000 99000.00000
 1602.60000    8.57345   10.26813   10.15083   10.18190    2.16322   88.47536    0.32353    3.01902   97.00486    3.54236    8.50000 99000.00000
 1602.70000    8.57434   10.11546   10.13397   10.15760    2.16372   88.60586    0.32103    3.04849   95.97172    3.69813    8.50000 99000.00000
 1602.80000    8.57441   10.06626   10.14362   10.16431    2.16074   89.17369    0.31595    3.05851   96.50050    3.81027    8.50000 99000.00000
 1602.90000    8.57520    9.43150    9.49362    9.51963    2.14892   89.62959    0.31861    3.04229   97.02826    3.94564    8.50000 99000.00000
 1603.00000    8.57745    9.26569    9.31775    9.34790    2.14849   90.06328    0.31964    3.03348   96.99069    3.80903    8.50000 99000.00000
 1603.10000    8.58096    9.21737    9.28894    9.33618    2.15797   90.87005    0.31935    3.03021   96.45815    3.57922    8.50000 99000.00000
 1603.20000    8.57931    8.87894    8.93332    8.94902    2.16654   90.10884    0.32253    3.02838   96.35353    3.44953    8.50000 99000.00000
 1603.30000    8.57789    9.04908    9.15670    9.16450    2.17259   89.97827    0.32059    3.01919   97.98222    3.22893    8.50000 99000.00000
 1603.40000    8.57652   11.06060   10.99608   11.12960    2.17218   90.62209    0.32585    3.01564   98.14742    3.30447    8.50000 99000.00000
 1603.50000    8.57544   10.96946   10.93880   11.07053    2.17286   91.41164    0.32824    2.99987   97.40860    3.26024    8.50000 99000.00000
 1603.60000    8.57922   10.56363   10.50128   10.65320    2.17312   91.28877    0.32293    3.01004   97.46168    2.98754    8.50000 99000.00000
 1603.70000    8.58229   10.53801   10.59160   10.72665    2.17403   92.37212    0.32518    2.98506   97.41587    3.04796    8.50000 99000.00000
 1603.80000    8.58500   10.70106   10.81124   10.93927    2.17545   93.15409    0.31999    2.97412   97.37415    2.61241    8.50000 99000.00000
 1603.90000    8.58496   10.98086   11.13959   11.25162    2.17778   92.15420    0.31591    2.96855   96.81915    2.93402    8.50000 99000.00000
 1604.00000    8.58578   10.71340   10.70028   10.81699    2.17771   91.95686    0.32187    2.98851   97.28451    2.72784    8.50000 99000.00000
 1604.10000    8.58718   10.51935   10.32792   10.48397    2.17398   92.44644    0.31690    2.99888   97.04632    2.71188    8.50000 99000.00000
 1604.20000    8.58822    9.72913    9.60145    9.75194    2.17658   92.44929    0.32197    2.99410   97.19299    2.87072    8.50000 99000.00000
 1604.30000    8.58676    9.65140    9.46574    9.66023    2.17602   91.35318    0.32356    2.99332   97.37147    3.12815    8.50000 99000.00000
 1604.40000    8.58691    9.51707    9.42478    9.61366    2.17772   90.83820    0.32408    3.01561   97.63604    2.71490    8.50000 99000.00000
 1604.50000    8.58850    9.49322    9.54151    9.70778    2.18148   90.58357    0.31685    3.01951   97.34278    2.73457    8.50000 99000.00000
 1604.60000    8.58683    9.32809    9.39036    9.57177    2.17750   92.02596    0.31641    3.01178   97.35023    2.57589    8.50000 99000.00000
 1604.70000    8.58689   10.21571   10.26288   10.43608    2.18158   92.48539    0.31372    3.01717   96.99445    2.37877    8.50000 99000.00000
