~Version ---------------------------------------------------
VERS.   2.0 : CWLS log ASCII Standard -VERSION 2.0
WRAP.    NO : One line per depth step
DLM . SPACE : Column Data Section Delimiter
~Well ------------------------------------------------------
STRT.m          1000.00000 : START DEPTH
STOP.m          2000.00000 : STOP DEPTH
STEP.m             0.10000 : STEP
NULL.             -9999.25 : NULL VALUE
COMP. FORCE 2020 Recreator : 
WELL.   WELL_FORCE_2020_03 : 
FLD .                      : FIELD
LOC .                      : LOCATION
PROV.                      : PROVINCE
CNTY.                      : COUNTY
STAT.                      : STATE
CTRY.                      : COUNTRY
SRVC.                      : SERVICE COMPANY
DATE.                      : DATE
UWI .                      : UNIQUE WELL ID
API .                      : API NUMBER
~Curve Information -----------------------------------------
DEPT                            .m      : 
CALI                            .in     : 
RSHA                            .ohm.m  : 
RMED                            .ohm.m  : 
RDEP                            .ohm.m  : 
RHOB                            .g/cm3  : 
GR                              .gAPI   : 
NPHI                            .v/v    : 
PEF                             .b/e    : 
DTC                             .us/ft  : 
SP                              .mV     : 
BS                              .in     : 
FORCE_2020_LITHOFACIES_LITHOLOGY.code   : 
~Params ----------------------------------------------------
~Other -----------------------------------------------------
~ASCII -----------------------------------------------------
# ...
 1067.00000    8.57963 4993.11919 4686.10493 4763.87073    2.07539    7.82234    0.03329    4.65773   66.22265    7.75432    8.50000 88000.00000
 1067.10000    8.58308 5081.83322 4813.39675 4878.86474    2.07275    7.96722    0.03409    4.66076   65.98073    7.67864    8.50000 88000.00000
 1067.20000    8.58269 5360.17765 5100.31012 5179.70192    2.07775    7.87660    0.03392    4.66512   66.17903    7.65690    8.50000 88000.00000
 1067.30000    8.58106 4669.83859 4570.82365 4632.29053    2.07566    7.93152    0.03332    4.66384   66.16544    7.53304    8.50000 88000.00000
 1067.40000    8.58126 4902.98389 4824.10986 4885.03781    2.07483    7.71295    0.03420    4.66777   66.07887    7.56464    8.50000 88000.00000
 1067.50000    8.57696 4994.38836 4904.33058 4968.79168    2.07648    7.79199    0.03383    4.66278   66.31547    7.65200    8.50000 88000.00000
 1067.60000    8.58002 5007.27904 4931.99408 4987.92377    2.08097    7.79912    0.03329    4.65473   66.56189    7.72292    8.50000 88000.00000
 1067.70000    8.58099 5114.96630 4995.89953 5090.55864    2.07784    7.78762    0.03452    4.65712   66.67432    7.90094    8.50000 88000.00000
 1067.80000    8.58112 5028.02375 4897.05585 4997.83831    2.07863    8.08311    0.03446    4.65562   66.39973    7.90635    8.50000 88000.00000
 1067.90000    8.58352 5030.45949 4900.86481 5007.11162    2.07820    8.08823    0.03525    4.64689   66.38554    7.80624    8.50000 88000.00000
 1068.00000    8.58657 6133.61640 6127.18581 6360.36217    2.07895    7.96936    0.03537    4.63757   66.49075    7.74016    8.50000 88000.00000
 1068.10000    8.58435 5680.46496 5659.36128 5861.12124    2.07826    7.86104    0.03633    4.64591   66.13673    7.80351    8.50000 88000.00000
 1068.20000    8.58060 4909.46515 4986.32117 5181.92728    2.08018    7.86628    0.03628    4.64274   66.09238    7.82505    8.50000 88000.00000
 1068.30000    8.58055 5411.86421 5467.02855 5693.36997    2.07973    7.62133    0.03562    4.64759   66.21190    7.86438    8.50000 88000.00000
 1068.40000    8.57837 5267.20391 5321.12611 5555.63314    2.07722    7.69478    0.03514    4.63743   66.17301    8.00368    8.50000 88000.00000
 1068.50000    8.57874 5152.72260 5239.11485 5452.87838    2.07804    7.56438    0.03475    4.62768   66.42296    8.04037    8.50000 88000.00000
 1068.60000    8.57764 5100.03558 5177.46604 5390.59146    2.08053    7.98341    0.03431    4.62595   66.81890    8.16394    8.50000 88000.00000
 1068.70000    8.57695 5462.76428 5614.29358 5832.52431    2.08353    7.95471    0.03320    4.61462   67.13067    8.14064    8.50000 88000.00000
 1068.80000    8.57710 5522.70883 5663.71552 5872.71767    2.08169    8.06370    0.03314    4.61943   67.25637    8.12151    8.50000 88000.00000
 1068.90000    8.57643 10286.95414 10191.36573 10504.33011    2.08105    7.89803    0.03311    4.62038   67.42757    7.98146    8.50000 88000.00000
 1069.00000    8.57761 10266.58724 10161.03259 10466.23383    2.08151    7.90111    0.03321    4.60730   67.32609    7.93284    8.50000 88000.00000
 1069.10000    8.57757 10291.41156 10190.69624 10495.41593    2.08216    7.85991    0.03292    4.60857   67.62169    8.04057    8.50000 88000.00000
 1069.20000    8.57657 11366.89893 11193.65678 11491.94482    2.08304    7.56948    0.03220    4.60551   67.89777    8.10251    8.50000 88000.00000
 1069.30000    8.57462 11420.77581 11216.12025 11506.24375    2.08297    7.74120    0.03260    4.59795   67.62872    8.16034    8.50000 88000.00000
 1069.40000    8.57681 11198.14295 11061.80858 11351.02320    2.08066    7.75643    0.03258    4.60681   67.66280    8.31232    8.50000 88000.00000
 1069.50000    8.57742 10780.97248 10638.02226 10929.97809    2.07852    7.99130    0.03218    4.61323   67.85493    8.31083    8.50000 88000.00000
 1069.60000    8.57688 10718.94247 10584.96420 10870.82739    2.07659    8.03900    0.03198    4.62323   67.55272    8.37570    8.50000 88000.00000
 1069.70000    8.57684 10735.28146 10576.48137 10866.57553    2.07262    8.03758    0.03224    4.63328   67.47609    8.28784    8.50000 88000.00000
 1069.80000    8.57397 10183.90295 10075.36717 10300.70432    2.07051    7.95479    0.03162    4.63336   67.55038    8.22727    8.50000 88000.00000
 1069.90000    8.57767 10175.37337 10067.76667 10293.38022    2.06591    7.69715    0.03189    4.63999   68.21452    8.18971    8.50000 88000.00000
 1070.00000    8.57564 10221.74581 10118.60707 10349.17826    2.06568    7.57587    0.03041    4.64068   68.37532    8.26266    8.50000 88000.00000
 1070.10000    8.57466 10198.42203 10170.46857 10244.89734    2.06721    7.44238    0.03073    4.64235   68.58600    8.23555    8.50000 88000.00000
 1070.20000    8.57546 10284.08466 10229.59805 10311.47811    2.06747    7.54756    0.02871    4.64539   68.56624    8.34781    8.50000 88000.00000
 1070.30000    8.57651 10254.81561 10187.09075 10252.70469    2.06694    7.51264    0.02868    4.65363   68.43445    8.46273    8.50000 88000.00000
 1070.40000    8.57841 10533.09071 10501.79412 10514.23403    2.06517    7.68548    0.02963    4.64093   68.34291    8.41190    8.50000 88000.00000
 1070.50000    8.57768 10696.51964 10656.79644 10659.59224    2.06786    7.58693    0.03017    4.64736   68.52738    8.40417    8.50000 88000.00000
 1070.60000    8.57605 10577.18382 10515.33961 10530.56752    2.06797    7.65281    0.02919    4.65033   68.43862    8.48772    8.50000 88000.00000
 1070.70000    8.57611 10609.36842 10572.26692 10586.51900    2.06877    7.35995    0.03072    4.65751   68.48845    8.35953    8.50000 88000.00000
 1070.80000    8.57615 10229.81013 10110.15572 10119.86838    2.06993    7.40328    0.03162    4.65921   67.91785    8.19033    8.50000 88000.00000
 1070.90000    8.57474 10216.11724 10123.08212 10137.41673    2.07039    7.50570    0.03171    4.64831   67.76399    8.15790    8.50000 88000.00000
 1071.00000    8.57697 6299.16334 6417.44087 6369.02098    2.06916    7.50962    0.03129    4.64736   67.48799    8.16835    8.50000 88000.00000
 1071.10000    8.57426 7065.61393 7388.07956 7364.85910    2.07112    7.57030    0.03088    4.65961   67.36494    8.14034    8.50000 88000.00000
 1071.20000    8.57271 7423.76369 7802.91317 7789.48354    2.07270    7.62464    0.03171    4.65046   67.26748    8.04690    8.50000 88000.00000
 1071.30000    8.57229 6649.40737 7190.50039 7194.70025    2.07468    7.73270    0.03175    4.65775   67.13740    8.17383    8.50000 88000.00000
 1071.40000    8.57761 6409.20855 6977.19437 6974.96303    2.07123    7.50968    0.03124    4.65076   66.90020    8.18473    8.50000 88000.00000
 1071.50000    8.57632 6516.12066 7091.51440 7084.01890    2.07212    7.43439    0.03095    4.64944   66.93869    8.14267    8.50000 88000.00000
 1071.60000    8.57652 6657.62427 7278.22413 7281.63348    2.07389    7.38913    0.03038    4.64446   66.79717    8.10954    8.50000 88000.00000
 1071.70000    8.57683 7708.82064 8201.84084 8257.51198    2.07382    7.36390    0.03019    4.63207   66.79603    8.14861    8.50000 88000.00000
 1071.80000    8.57465 7682.69436 8180.42618 8232.63965    2.07236    7.34755    0.02997    4.63067   66.76720    8.28519    8.50000 88000.00000
 1071.90000    8.57744 7734.70465 8239.15564 8291.22745    2.07628    7.29148    0.02980    4.62152   66.31642    8.30486    8.50000 88000.00000
 1072.00000    8.57462 7844.41577 8369.24128 8404.88291    2.08134    7.25761    0.02931    4.61059   65.81945    8.33770    8.50000 88000.00000
 1072.10000    8.57589 8172.86521 8593.53335 8621.74925    2.08190    7.47734    0.02925    4.61325   65.49548    8.39041    8.50000 88000.00000
 1072.20000    8.57221 7200.65575 7406.34084 7477.57279    2.08097    7.62649    0.02841    4.62232   65.34422    8.38657    8.50000 88000.00000
 1072.30000    8.57158 7660.93079 7932.14112 7968.33739    2.08159    7.55085    0.02962    4.62472   65.57611    8.26251    8.50000 88000.00000
 1072.40000    8.57333 7520.30787 7773.54885 7824.36166    2.08070    7.52296    0.02997    4.62402   65.70294    8.13129    8.50000 88000.00000
