~Version ---------------------------------------------------
VERS.   2.0 : CWLS log ASCII Standard -VERSION 2.0
WRAP.    NO : One line per depth step
DLM . SPACE : Column Data Section Delimiter
~Well ------------------------------------------------------
STRT.m          1000.00000 : START DEPTH
STOP.m          2000.00000 : STOP DEPTH
STEP.m             0.10000 : STEP
NULL.             -9999.25 : NULL VALUE
COMP. FORCE 2020 Recreator : 
WELL.   WELL_FORCE_2020_09 : 
FLD .                      : FIELD
LOC .                      : LOCATION
PROV.                      : PROVINCE
CNTY.                      : COUNTY
STAT.                      : STATE
CTRY.                      : COUNTRY
SRVC.                      : SERVICE COMPANY
DATE.                      : DATE
UWI .                      : UNIQUE WELL ID
API .                      : API NUMBER
~Curve Information -----------------------------------------
DEPT                            .m      : 
CALI                            .in     : 
RSHA                            .ohm.m  : 
RMED                            .ohm.m  : 
RDEP                            .ohm.m  : 
RHOB                            .g/cm3  : 
GR                              .gAPI   : 
NPHI                            .v/v    : 
PEF                             .b/e    : 
DTC                             .us/ft  : 
SP                              .mV     : 
BS                              .in     : 
FORCE_2020_LITHOFACIES_LITHOLOGY.code   : 
~Params ----------------------------------------------------
~Other -----------------------------------------------------
~ASCII -----------------------------------------------------
# ...
 1464.80000    9.82716    2.74017    2.59355    2.62604    2.48188  115.37287    0.33589    3.39149  108.88124    5.54437    8.50000 65000.00000
 1464.90000    9.87168    2.69285    2.55807    2.58836    2.48305  113.06209    0.33522    3.38349  108.82955    5.63999    8.50000 65000.00000
 1465.00000    9.90298    2.66028    2.52378    2.55023    2.48255  112.70489    0.34005    3.40177  108.91792    5.70729    8.50000 65000.00000
 1465.10000    9.91417    2.74015    2.60518    2.62319    2.47932  114.01714    0.33832    3.39283  108.30929    5.91221    8.50000 65000.00000
 1465.20000    9.94576    2.69179    2.56842    2.59319    2.47230  114.81248    0.34063    3.38328  108.15071    5.76250    8.50000 65000.00000
 1465.30000    9.91776    2.61376    2.49013    2.52791    2.47311  114.83597    0.33954    3.38404  107.38346    5.74681    8.50000 65000.00000
 1465.40000    9.90100    2.55400    2.45407    2.48913    2.47387  114.51456    0.34475    3.35637  108.37649    5.51158    8.50000 65000.00000
 1465.50000    9.88262    2.60121    2.52459    2.55203    2.47409  114.59248    0.34779    3.38155  109.56227    5.24278    8.50000 65000.00000
 1465.60000    9.85727    2.47299    2.38337    2.41575    2.47123  113.24986    0.35135    3.38530  108.62991    5.75971    8.50000 65000.00000
 1465.70000    9.87141    2.39244    2.34356    2.36225    2.46712  114.11621    0.35449    3.39811  108.36237    5.90642    8.50000 65000.00000
 1465.80000    9.89914    2.38299    2.33519    2.33982    2.46582  114.73257    0.35317    3.40947  109.26761    6.10545    8.50000 65000.00000
 1465.90000    9.89568    2.36283    2.34403    2.33371    2.46212  115.65901    0.35403    3.42746  109.64788    5.94174    8.50000 65000.00000
 1466.00000    9.87192    2.33381    2.33508    2.31861    2.46490  115.30928    0.35532    3.44226  109.27282    5.80215    8.50000 65000.00000
 1466.10000    9.88933    2.33855    2.30178    2.29302    2.46528  113.72437    0.35676    3.43619  109.22314    5.84480    8.50000 65000.00000
 1466.20000    9.89920    2.35648    2.34402    2.33656    2.46466  112.23067    0.35903    3.42600  109.06224    5.39251    8.50000 65000.00000
 1466.30000    9.87440    2.44555    2.42003    2.41375    2.47033  111.98301    0.35694    3.39871  108.87238    5.45526    8.50000 65000.00000
 1466.40000    9.88971    2.46426    2.46086    2.43908    2.47575  111.35505    0.36039    3.37476  108.49375    5.58826    8.50000 65000.00000
 1466.50000    9.90115    2.40081    2.42259    2.38249    2.47968  111.21438    0.35994    3.38549  109.32715    5.44101    8.50000 65000.00000
 1466.60000    9.92743    2.26799    2.30833    2.26635    2.48302  111.51373    0.36436    3.38167  108.89586    5.19068    8.50000 65000.00000
 1466.70000    9.92037    2.23901    2.27165    2.23873    2.48415  112.90672    0.36686    3.36283  109.66865    5.15759    8.50000 65000.00000
 1466.80000    9.91663    2.27622    2.31134    2.27081    2.48547  114.61888    0.36322    3.35500  109.26928    5.10120    8.50000 65000.00000
 1466.90000    9.90592    2.33581    2.35677    2.32061    2.48681  114.80156    0.36024    3.33062  108.45822    4.95796    8.50000 65000.00000
 1467.00000    9.89251    2.36288    2.39886    2.36136    2.49175  115.01507    0.35779    3.33060  108.48668    4.77709    8.50000 65000.00000
 1467.10000    9.87032    2.40421    2.42007    2.38041    2.49650  114.57499    0.35490    3.32162  108.92185    4.59014    8.50000 65000.00000
 1467.20000    9.87879    2.34293    2.34651    2.31864    2.50069  113.95693    0.35365    3.31299  109.80956    4.72092    8.50000 65000.00000
 1467.30000    9.89960    2.29238    2.29557    2.26887    2.50263  112.98589    0.35339    3.30523  110.22074    4.76633    8.50000 65000.00000
 1467.40000    9.89658    2.35109    2.38606    2.33759    2.50474  113.55553    0.35660    3.30297  110.22705    4.99060    8.50000 65000.00000
 1467.50000    9.89567    2.31753    2.34929    2.31038    2.50356  113.50378    0.35242    3.32014  109.92626    5.26724    8.50000 65000.00000
 1467.60000    9.94414    2.23243    2.25689    2.21912    2.50296  113.22966    0.35405    3.30887  109.46007    5.18776    8.50000 65000.00000
 1467.70000    9.95414    2.28797    2.30960    2.27141    2.50318  115.36415    0.35544    3.29485  109.98326    4.89963    8.50000 65000.00000
 1467.80000    9.93976    2.30046    2.30870    2.27223    2.50708  114.24588    0.35732    3.28870  109.11982    4.79262    8.50000 65000.00000
 1467.90000    9.94679    2.27645    2.28465    2.26157    2.50881  112.44317    0.35664    3.25574  108.08327    4.49465    8.50000 65000.00000
 1468.00000    9.95385    2.29334    2.29148    2.27867    2.50863  112.08835    0.35798    3.25006  107.91885    4.64075    8.50000 65000.00000
 1468.10000    9.97868    2.31965    2.29810    2.29596    2.51020  112.73691    0.35928    3.24053  108.23607    4.78821    8.50000 65000.00000
 1468.20000    9.97177    2.33715    2.33111    2.32106    2.51092  112.71994    0.36094    3.26208  108.58882    4.75353    8.50000 65000.00000
 1468.30000    9.94968    2.26955    2.25022    2.24627    2.50574  113.98375    0.35923    3.28123  109.08371    4.66935    8.50000 65000.00000
 1468.40000    9.96510    2.30212    2.27940    2.27258    2.50168  114.07328    0.35843    3.26807  109.28162    4.46948    8.50000 65000.00000
 1468.50000    9.95306    2.24557    2.20790    2.20647    2.49930  114.57573    0.36116    3.27997  109.59281    4.43322    8.50000 65000.00000
 1468.60000    9.93859    2.26288    2.22186    2.21465    2.49349  115.75690    0.36236    3.26933  110.05623    4.73325    8.50000 65000.00000
 1468.70000    9.92954    2.32928    2.28738    2.27643    2.48813  116.03507    0.36309    3.28298  110.60925    4.91868    8.50000 65000.00000
 1468.80000    9.95289    2.39417    2.35992    2.34149    2.48935  114.49579    0.36431    3.30393  109.93762    4.89988    8.50000 65000.00000
 1468.90000    9.99505    2.49025    2.39896    2.39073    2.48456  113.76993    0.36662    3.30998  109.49780    4.71066    8.50000 65000.00000
 1469.00000    9.98676    2.42553    2.36911    2.36301    2.47640  113.53189    0.36928    3.32912  109.11777    4.28010    8.50000 65000.00000
 1469.10000    9.97174    2.46809    2.36748    2.36133    2.47335  114.57612    0.37490    3.33452  109.60226    4.51736    8.50000 65000.00000
 1469.20000    9.98652    2.43979    2.34902    2.34539    2.46696  114.78520    0.37572    3.32203  110.09099    4.44852    8.50000 65000.00000
 1469.30000    9.98369    2.52193    2.43120    2.42297    2.46382  114.60980    0.37904    3.34208  109.94545    4.19704    8.50000 65000.00000
 1469.40000    9.95376    2.55704    2.46671    2.45976    2.46791  114.95580    0.38037    3.32412  110.22918    3.87494    8.50000 65000.00000
 1469.50000    9.95436    2.54464    2.44456    2.45224    2.46962  116.08183    0.37992    3.32463  110.09888    3.73256    8.50000 65000.00000
 1469.60000    9.94977    2.56758    2.47829    2.47618    2.47293  115.87310    0.38092    3.32069  110.76704    3.37225    8.50000 65000.00000
 1469.70000    9.90485    2.62818    2.51930    2.51308    2.47306  114.56972    0.37753    3.31553  110.66516    3.48423    8.50000 65000.00000
 1469.80000    9.88448    2.56868    2.46428    2.45854    2.47425  113.60190    0.37368    3.32439  110.40474    3.45811    8.50000 65000.00000
 1469.90000    9.89879    2.64195    2.53094    2.52717    2.47339  113.86310    0.36699    3.33630  111.20616    3.40823    8.50000 65000.00000
 1470.00000    9.89280    2.60154    2.48624    2.47897    2.47024  116.45608    0.36769    3.35538  111.63179    3.39122    8.50000 65000.00000
 1470.10000    9.87488    2.60133    2.49357    2.47056    2.47225  117.24983    0.36393    3.33865  111.00834    3.49013    8.50000 65000.00000
 1470.20000    9.86254    2.54800    2.47338    2.44106    2.46519  116.54672    0.36330    3.34349  111.00015    3.53056    8.50000 65000.00000
 1470.30000    9.88247    2.57638    2.47910    2.45675    2.46679  117.87917    0.36174    3.33877  110.87444    3.57257    8.50000 65000.00000
