~Version ---------------------------------------------------
VERS.   2.0 : CWLS log ASCII Standard -VERSION 2.0
WRAP.    NO : One line per depth step
DLM . SPACE : Column Data Section Delimiter
~Well ------------------------------------------------------
STRT.m          1000.00000 : START DEPTH
STOP.m          2000.00000 : STOP DEPTH
STEP.m             0.10000 : STEP
NULL.             -9999.25 : NULL VALUE
COMP. FORCE 2020 Recreator : 
WELL.   WELL_FORCE_2020_03 : 
FLD .                      : FIELD
LOC .                      : LOCATION
PROV.                      : PROVINCE
CNTY.                      : COUNTY
STAT.                      : STATE
CTRY.                      : COUNTRY
SRVC.                      : SERVICE COMPANY
DATE.                      : DATE
UWI .                      : UNIQUE WELL ID
API .                      : API NUMBER
~Curve Information -----------------------------------------
DEPT                            .m      : 
CALI                            .in     : 
RSHA                            .ohm.m  : 
RMED                            .ohm.m  : 
RDEP                            .ohm.m  : 
RHOB                            .g/cm3  : 
GR                              .gAPI   : 
NPHI                            .v/v    : 
PEF                             .b/e    : 
DTC                             .us/ft  : 
SP                              .mV     : 
BS                              .in     : 
FORCE_2020_LITHOFACIES_LITHOLOGY.code   : 
~Params ----------------------------------------------------
~Other -----------------------------------------------------
~ASCII -----------------------------------------------------
# ...
 1330.10000    9.82221    2.39581    2.45964    2.44665    2.47227  119.98846    0.36149    3.39720  109.25550    4.77999    8.50000 65000.00000
 1330.20000    9.80442    2.46211    2.51210    2.50358    2.47222  120.49464    0.36354    3.41953  110.34435    4.88419    8.50000 65000.00000
 1330.30000    9.81296    2.51070    2.54957    2.54837    2.47448  118.90346    0.36155    3.42086  111.02124    4.88199    8.50000 65000.00000
 1330.40000    9.83259    2.55033    2.60266    2.61054    2.47170  117.77373    0.35863    3.39593  111.58981    5.17463    8.50000 65000.00000
 1330.50000    9.83710    2.58576    2.59410    2.60778    2.47630  116.99264    0.35740    3.40892  111.56435    5.36491    8.50000 65000.00000
 1330.60000    9.81501    2.64944    2.68381    2.68543    2.47463  115.91336    0.36301    3.39958  111.42770    5.37045    8.50000 65000.00000
 1330.70000    9.79570    2.63979    2.68907    2.68630    2.47299  116.89103    0.36524    3.39507  111.66544    5.51419    8.50000 65000.00000
 1330.80000    9.81236    2.45488    2.54756    2.54082    2.47057  115.56793    0.36324    3.38392  111.37569    5.76372    8.50000 65000.00000
 1330.90000    9.80980    2.43712    2.52958    2.52235    2.46705  116.43460    0.36171    3.36679  111.26464    5.77531    8.50000 65000.00000
 1331.00000    9.79147    2.38869    2.49891    2.47992    2.47576  115.76202    0.35878    3.39381  111.05812    5.86057    8.50000 65000.00000
 1331.10000    9.79832    2.37224    2.49692    2.47797    2.48317  114.95135    0.35595    3.39611  111.21931    6.00787    8.50000 65000.00000
 1331.20000    9.80887    2.45139    2.55593    2.52656    2.48721  114.43203    0.35604    3.44113  110.63080    6.20347    8.50000 65000.00000
 1331.30000    9.77676    2.43110    2.54072    2.52522    2.48589  114.95597    0.36149    3.46200  110.02673    6.40144    8.50000 65000.00000
 1331.40000    9.77679    2.39151    2.47371    2.47711    2.48720  113.78440    0.36825    3.45543  110.00535    6.56249    8.50000 65000.00000
 1331.50000    9.75227    2.38949    2.50988    2.50452    2.48676  115.29329    0.36659    3.48332  109.28447    6.37644    8.50000 65000.00000
 1331.60000    9.75430    2.38862    2.52631    2.50554    2.48648  115.72863    0.36771    3.46808  108.93768    6.38335    8.50000 65000.00000
 1331.70000    9.78439    2.51282    2.57383    2.53503    2.48256  115.30480    0.36365    3.47467  108.81925    6.58023    8.50000 65000.00000
 1331.80000    9.78405    2.53884    2.58833    2.55178    2.48578  115.84801    0.36051    3.48313  109.33340    6.66171    8.50000 65000.00000
 1331.90000    9.78105    2.54293    2.58746    2.56525    2.48443  117.17507    0.36042    3.46628  110.04098    6.58605    8.50000 65000.00000
 1332.00000    9.77172    2.59922    2.61926    2.60606    2.48049  115.98296    0.36452    3.47343  109.05023    6.76367    8.50000 65000.00000
 1332.10000    9.77968    2.68948    2.70575    2.69513    2.48254  115.70868    0.36457    3.48819  109.31106    6.74487    8.50000 65000.00000
 1332.20000    9.73182    2.82032    2.84022    2.82084    2.48645  114.93900    0.36120    3.48684  109.29362    6.70532    8.50000 65000.00000
 1332.30000    9.74963    2.75420    2.78432    2.76271    2.48768  115.22484    0.35988    3.48195  108.42990    6.84309    8.50000 65000.00000
 1332.40000    9.74729    2.70875    2.72579    2.70434    2.48646  116.49377    0.36094    3.49701  106.94302    7.11465    8.50000 65000.00000
 1332.50000    9.73729    2.62105    2.62677    2.60098    2.48693  116.35105    0.36051    3.50187  106.37630    7.07713    8.50000 65000.00000
 1332.60000    9.74419    2.60091    2.61374    2.58526    2.48198  117.46273    0.36022    3.48671  106.21142    6.74707    8.50000 65000.00000
 1332.70000    9.74956    2.61643    2.56856    2.56623    2.47698  117.86092    0.35811    3.49683  106.40529    6.55279    8.50000 65000.00000
 1332.80000   -9999.25    2.65117    2.60544    2.60564    2.47341  116.31468    0.35840    3.49120  107.01804    6.22100    8.50000 65000.00000
 1332.90000    9.78260    2.62535    2.55360    2.55833    2.47551  117.05045    0.36048    3.50146  107.07712    6.18813    8.50000 65000.00000
 1333.00000    9.81392    2.61130    2.53814    2.54617    2.47467  115.92504    0.36163    3.50577  107.24003    5.81425    8.50000 65000.00000
 1333.10000    9.82246    2.62528    2.54971    2.56076    2.47557  117.71655    0.36470    3.48921  107.00596    5.82015    8.50000 65000.00000
 1333.20000    9.80825    2.62940    2.58991    2.60052    2.47051  116.77726    0.36476    3.46248  106.15540    5.68210    8.50000 65000.00000
 1333.30000    9.82442    2.60224    2.58632    2.60963    2.47464  115.68119    0.35958    3.44140  107.51331    5.50792    8.50000 65000.00000
 1333.40000    9.85126    2.62784    2.61507    2.64442    2.47676  115.10212    0.36044    3.44069  107.93597    5.25943    8.50000 65000.00000
 1333.50000    9.87253    2.60515    2.59432    2.61884    2.47519  114.91069    0.35683    3.44435  107.60701    5.34192    8.50000 65000.00000
 1333.60000    9.91414    2.54464    2.49917    2.53787    2.47790  113.82389    0.35466    3.42720  107.92008    5.47970    8.50000 65000.00000
 1333.70000    9.91507    2.56430    2.48123    2.54127    2.47803  112.99402    0.35665    3.43472  108.26307    5.45454    8.50000 65000.00000
 1333.80000    9.91438    2.32284    2.31424    2.37546    2.47591  111.93902    0.36066    3.42910  108.27566    5.61396    8.50000 65000.00000
 1333.90000    9.92871    2.48867    2.51759    2.56678    2.47659  113.33919    0.36315    3.43233  108.27243    5.47358    8.50000 65000.00000
 1334.00000    9.91496    2.46706    2.49375    2.54827    2.47672  113.19965    0.36089    3.44765  108.04913    4.98489    8.50000 65000.00000
 1334.10000    9.90760    2.43186    2.48708    2.53434    2.48196  113.82548    0.36168    3.46154  107.23042    4.89752    8.50000 65000.00000
 1334.20000    9.93791    2.37052    2.40625    2.45803    2.47531  113.97720    0.36406    3.43546  107.28820    4.91861    8.50000 65000.00000
 1334.30000    9.98579    2.35522    2.38950    2.44238    2.47128  114.26747    0.36354    3.42397  107.83238    4.96647    8.50000 65000.00000
 1334.40000    9.97802    2.39200    2.40389    2.45975    2.47078  114.70917    0.36754    3.41943  106.95565   -9999.25    8.50000 65000.00000
 1334.50000    9.96499    2.45412    2.49796    2.53697    2.47424  114.32561    0.36677    3.42249  107.70663    4.57051    8.50000 65000.00000
 1334.60000    9.93539    2.52062    2.57125    2.60691    2.47800  115.03805    0.36386    3.43418  108.40572    4.36833    8.50000 65000.00000
 1334.70000    9.95896    2.58682    2.63137    2.66174    2.47861  113.85423    0.36057    3.43497  108.02780    4.39852    8.50000 65000.00000
 1334.80000    9.94046    2.49996    2.56630    2.58499    2.48138  113.22899    0.35788    3.43112  108.52251    4.40679    8.50000 65000.00000
 1334.90000    9.95449    2.52559    2.58850    2.60350    2.48381  115.50219    0.35790    3.44609  108.28194    4.57254    8.50000 65000.00000
 1335.00000    9.95002    2.58423    2.67536    2.67758    2.47926  114.86790    0.35970    3.45018  107.50888    4.58854    8.50000 65000.00000
 1335.10000    9.92436    2.62435    2.70893    2.70664    2.48180  115.59574    0.36116    3.45885  107.69938    5.06337    8.50000 65000.00000
 1335.20000    9.92995    2.63778    2.70876    2.71385    2.47803  113.48535    0.36011    3.44991  107.56397    5.17565    8.50000 65000.00000
 1335.30000    9.92373    2.71028    2.74005    2.74455    2.48160  113.94495    0.36054    3.45955  108.12962    5.12484    8.50000 65000.00000
 1335.40000    9.90300    2.73909    2.79287    2.77718    2.47655  114.09074    0.35977    3.44318  108.49804    4.88802    8.50000 65000.00000
 1335.50000    9.88838    2.67360    2.72674    2.70995    2.47650  114.65121    0.35242    3.44803  108.79388    5.12498    8.50000 65000.00000
 1335.60000    9.86236    2.71983    2.76730    2.75192    2.47775  114.64811    0.34572    3.43005  110.17417    4.68453    8.50000 65000.00000
