~Version ---------------------------------------------------
VERS.   2.0 : CWLS log ASCII Standard -VERSION 2.0
WRAP.    NO : One line per depth step
DLM . SPACE : Column Data Section Delimiter
~Well ------------------------------------------------------
STRT.m          1000.00000 : START DEPTH
STOP.m          2000.00000 : STOP DEPTH
STEP.m             0.10000 : STEP
NULL.             -9999.25 : NULL VALUE
COMP. FORCE 2020 Recreator : 
WELL.   WELL_FORCE_2020_09 : 
FLD .                      : FIELD
LOC .                      : LOCATION
PROV.                      : PROVINCE
CNTY.                      : COUNTY
STAT.                      : STATE
CTRY.                      : COUNTRY
SRVC.                      : SERVICE COMPANY
DATE.                      : DATE
UWI .                      : UNIQUE WELL ID
API .                      : API NUMBER
~Curve Information -----------------------------------------
DEPT                            .m      : 
CALI                            .in     : 
RSHA                            .ohm.m  : 
RMED                            .ohm.m  : 
RDEP                            .ohm.m  : 
RHOB                            .g/cm3  : 
GR                              .gAPI   : 
NPHI                            .v/v    : 
PEF                             .b/e    : 
DTC                             .us/ft  : 
SP                              .mV     : 
BS                              .in     : 
FORCE_2020_LITHOFACIES_LITHOLOGY.code   : 
~Params ----------------------------------------------------
~Other -----------------------------------------------------
~ASCII -----------------------------------------------------
# ...
 1862.40000    8.32059   29.74194   31.00879   31.12587    2.35158   42.30726    0.20060    1.86623   81.64510  -35.15312    8.50000 30000.00000
 1862.50000    8.32044   29.59405   30.73946   30.83930    2.35380   42.68349    0.19931    1.87044   81.19524  -35.51600    8.50000 30000.00000
 1862.60000    8.31650   28.81985   29.85825   30.10256    2.35153   43.11023    0.19883    1.86780   81.48390  -35.88503    8.50000 30000.00000
 1862.70000    8.31469   28.69923   29.61290   29.93241    2.35579   42.76226    0.19799    1.85832   81.56368  -35.84024    8.50000 30000.00000
 1862.80000    8.31374   28.52871   29.32986   29.68514    2.35215   43.01945    0.19921    1.86002   81.40145  -35.62061    8.50000 30000.00000
 1862.90000    8.30889   30.16486   30.90885   30.96890    2.34774   43.11430    0.20089    1.86104   81.54944  -35.43659    8.50000 30000.00000
 1863.00000    8.30743   28.71754   29.50699   29.29573    2.34771   43.56374    0.20193    1.85659   81.49882  -34.91501    8.50000 30000.00000
 1863.10000    8.30964   28.81766   29.57986   29.37594    2.34811   44.41422    0.20089    1.84460   82.10598  -35.02781    8.50000 30000.00000
 1863.20000    8.30703   27.47758   28.04258   27.74251    2.35082   45.47226    0.20126    1.84772   82.65400  -34.78322    8.50000 30000.00000
 1863.30000    8.31075   26.82258   27.56002   27.27443    2.34854   45.13201    0.20292    1.85009   82.82330  -34.84572    8.50000 30000.00000
 1863.40000    8.31499   26.95969   27.81648   27.47479    2.34797   44.87181    0.20000    1.84752   83.11021  -35.03667    8.50000 30000.00000
 1863.50000    8.31484   25.61555   26.48127   26.13914    2.34949   43.92854    0.20359    1.84866   82.57479  -34.96709    8.50000 30000.00000
 1863.60000    8.31136   25.67265   26.58484   26.28517    2.34823   43.39930    0.20174    1.84641   81.76605  -34.95446    8.50000 30000.00000
 1863.70000    8.31623   23.55351   23.60733   23.56078    2.35686   44.22513    0.20227    1.85615   81.53233  -35.07289    8.50000 30000.00000
 1863.80000    8.31403   23.16288   23.09927   23.06633    2.36129   43.89193    0.20000    1.83226   81.01894  -35.20052    8.50000 30000.00000
 1863.90000    8.31538   22.43837   22.20918   22.09334    2.36581   43.88260    0.20049    1.83557   81.18733  -35.35711    8.50000 30000.00000
 1864.00000    8.31536   23.93640   24.32777   23.93048    2.36466   44.18081    0.19939    1.83295   81.28548  -35.36172    8.50000 30000.00000
 1864.10000    8.31588   24.51989   24.89159   24.49270    2.37043   43.75960    0.19671    1.82137   80.81928  -35.73666    8.50000 30000.00000
 1864.20000    8.31704   23.56757   24.24614   23.79320    2.37025   43.25102    0.19489    1.82648   81.07738  -35.96162    8.50000 30000.00000
 1864.30000    8.32428   22.71809   23.39093   22.89277    2.36751   43.63537    0.19492    1.82233   81.10870  -36.62460    8.50000 30000.00000
 1864.40000    8.32308   22.78104   23.38399   22.94059    2.36556   43.44875    0.19344    1.83022   81.86478  -36.43403    8.50000 30000.00000
 1864.50000    8.32282   22.66577   22.69983   22.38692    2.36521   43.53410    0.19136    1.82223   81.87119  -36.67185    8.50000 30000.00000
 1864.60000    8.32721   23.47260   23.67371   23.40496    2.36399   44.02750    0.19255    1.82686   82.05555  -36.49023    8.50000 30000.00000
 1864.70000    8.32545   23.58239   23.81652   23.53108    2.36724   44.99425    0.19514    1.82338   81.95541  -36.15959    8.50000 30000.00000
 1864.80000    8.33050   24.04439   24.25640   23.94095    2.36492   44.58232    0.19550    1.83137   81.95224  -36.11062    8.50000 30000.00000
 1864.90000    8.33153   24.75392   24.95399   24.69203    2.36272   44.89086    0.19488    1.83516   82.01412  -35.75356    8.50000 30000.00000
 1865.00000    8.33327   22.68860   22.76765   22.61940    2.36782   45.12400    0.19471    1.82529   82.20492  -35.84537    8.50000 30000.00000
 1865.10000    8.33397   23.38057   23.60648   23.36311    2.37287   45.31268    0.19500    1.82033   82.24286  -35.97490    8.50000 30000.00000
 1865.20000    8.33299   23.32255   23.49386   23.26189    2.37281   45.28415    0.19692    1.83402   82.58236  -35.99569    8.50000 30000.00000
 1865.30000    8.33141   23.48933   23.91967   23.64499    2.37243   44.52650    0.19838    1.84210   82.31144  -36.67257    8.50000 30000.00000
 1865.40000    8.32906   24.06228   24.53120   24.23367    2.37517   45.01032    0.19444    1.83705   82.31108  -36.75021    8.50000 30000.00000
 1865.50000    8.32307   23.02052   23.45196   23.23959    2.37188   45.16455    0.19664    1.83970   82.03721  -36.11573    8.50000 30000.00000
 1865.60000    8.32160   23.41480   23.56108   23.36803    2.36361   45.41196    0.19808    1.83993   82.37118  -35.65896    8.50000 30000.00000
 1865.70000    8.32469   22.83995   22.83420   22.62475    2.36200   45.90917    0.20109    1.85139   83.68013  -35.76246    8.50000 30000.00000
 1865.80000    8.32096   23.56284   23.35489   23.15638    2.35219   46.37165    0.20275    1.84846   83.80211  -35.49012    8.50000 30000.00000
 1865.90000    8.32025   23.04502   22.97441   22.75452    2.34809   47.67966    0.20176    1.85525   84.03707  -35.37092    8.50000 30000.00000
 1866.00000    8.31669   21.93126   22.00348   21.81766    2.34358   47.29399    0.20264    1.84715   84.29638  -35.25707    8.50000 30000.00000
 1866.10000    8.31361   21.68499   21.11574   21.06971    2.34427   47.59771    0.20403    1.84894   83.84607  -35.35944    8.50000 30000.00000
 1866.20000    8.31531   21.31564   20.77237   20.72197    2.33872   48.19170    0.20435    1.86195   84.01376  -34.68082    8.50000 30000.00000
 1866.30000    8.31395   20.70018   20.34048   20.30463    2.34045   48.00809    0.20472    1.84979   83.90919  -33.87034    8.50000 30000.00000
 1866.40000    8.30880   21.01506   20.95995   20.89319    2.33758   46.79571    0.20342    1.85159   83.93901  -33.66633    8.50000 30000.00000
 1866.50000    8.31186   21.29821   21.01574   20.96086    2.33668   47.01685    0.20690    1.85468   83.46410  -34.04753    8.50000 30000.00000
 1866.60000    8.31201   18.78457   19.34295   19.05779    2.33253   47.45069    0.20833    1.85666   83.77504  -33.55356    8.50000 30000.00000
 1866.70000    8.30659   18.08985   18.43834   18.18845    2.33071   46.27483    0.20637    1.84808   83.58251  -32.89237    8.50000 30000.00000
 1866.80000    8.30763   17.79499   18.10678   17.84903    2.32963   44.85980    0.20487    1.84969   83.43012  -32.41993    8.50000 30000.00000
 1866.90000    8.30255   17.80357   18.17419   17.97290    2.32925   44.72154    0.20295    1.84501   83.51207  -32.44706    8.50000 30000.00000
 1867.00000    8.30520   17.93955   18.24230   17.97242    2.33277   44.21724    0.20544    1.83621   83.40877  -32.82925    8.50000 30000.00000
 1867.10000    8.30536   19.16558   19.48757   19.09060    2.33113   43.71460    0.20561    1.83623   83.27019  -33.07969    8.50000 30000.00000
 1867.20000    8.30047   19.16028   19.22786   19.07277    2.32824   42.95300    0.20486    1.83964   83.27090  -33.23724    8.50000 30000.00000
 1867.30000    8.29611   20.04951   20.15998   20.08293    2.33053   42.63290    0.20486    1.82840   82.99571  -33.62195    8.50000 30000.00000
 1867.40000    8.30069   22.66391   22.30049   22.29351    2.33102   43.25805    0.20569    1.82396   82.88755  -33.43122    8.50000 30000.00000
 1867.50000    8.30150   21.82993   21.32160   21.35886    2.33059   42.65202    0.20859    1.82071   82.88801  -33.91776    8.50000 30000.00000
 1867.60000    8.30424   22.69187   22.08000   22.14496    2.32893   43.36812    0.20500    1.81576   83.07275  -34.14629    8.50000 30000.00000
 1867.70000    8.30638   22.76112   22.44069   22.51064    2.32808   43.19580    0.20026    1.82579   82.73015  -34.57963    8.50000 30000.00000
 1867.80000    8.30693   23.34021   23.22756   23.26735    2.33425   43.03255    0.20004    1.81475   82.10687  -34.05027    8.50000 30000.00000
 1867.90000    8.30839   23.50864   23.80660   23.75436    2.33136   42.95469    0.20016    1.80981   82.09200  -33.67733    8.50000 30000.00000
