~Version ---------------------------------------------------
VERS.   2.0 : CWLS log ASCII Standard -VERSION 2.0
WRAP.    NO : One line per depth step
DLM . SPACE : Column Data Section Delimiter
~Well ------------------------------------------------------
STRT.m          1000.00000 : START DEPTH
STOP.m          2000.00000 : STOP DEPTH
STEP.m             0.10000 : STEP
NULL.             -9999.25 : NULL VALUE
COMP. FORCE 2020 Recreator : 
WELL.   WELL_FORCE_2020_06 : 
FLD .                      : FIELD
LOC .                      : LOCATION
PROV.                      : PROVINCE
CNTY.                      : COUNTY
STAT.                      : STATE
CTRY.                      : COUNTRY
SRVC.                      : SERVICE COMPANY
DATE.                      : DATE
UWI .                      : UNIQUE WELL ID
API .                      : API NUMBER
~Curve Information -----------------------------------------
DEPT                            .m      : 
CALI                            .in     : 
RSHA                            .ohm.m  : 
RMED                            .ohm.m  : 
RDEP                            .ohm.m  : 
RHOB                            .g/cm3  : 
GR                              .gAPI   : 
NPHI                            .v/v    : 
PEF                             .b/e    : 
DTC                             .us/ft  : 
SP                              .mV     : 
BS                              .in     : 
FORCE_2020_LITHOFACIES_LITHOLOGY.code   : 
~Params ----------------------------------------------------
~Other -----------------------------------------------------
~ASCII -----------------------------------------------------
# ...
 1666.30000    8.57624   45.71937   44.85434   44.03586    2.66510   20.42929    0.09961    5.03464   59.23422   -5.73998    8.50000 70000.00000
 1666.40000    8.57539   45.27366   44.90991   44.18801    2.66797   20.25624    0.09807    5.04074   59.01585   -5.59782    8.50000 70000.00000
 1666.50000    8.57375   46.73902   45.89921   45.30119    2.66934   20.04061    0.10004    5.05294   58.82908   -5.80662    8.50000 70000.00000
 1666.60000    8.57471   47.46050   46.76958   46.14925    2.67091   19.76336    0.10181    5.07249   59.01389   -6.16452    8.50000 70000.00000
 1666.70000    8.57710   45.56148   45.01162   44.38200    2.67276   20.15159    0.10256    5.07243   59.18019   -5.96700    8.50000 70000.00000
 1666.80000    8.57707   46.76597   46.08944   45.39293    2.67511   20.20558    0.10445    5.09458   59.35266   -5.97599    8.50000 70000.00000
 1666.90000    8.57846   42.97904   42.52777   41.83557    2.67734   20.63643    0.10479    5.09598   59.14121   -6.31257    8.50000 70000.00000
 1667.00000    8.57882   41.36787   40.72856   40.08920    2.67930   19.85082    0.10559    5.10588   59.12202   -6.34517    8.50000 70000.00000
 1667.10000    8.57798   39.77931   38.85037   38.40309    2.68028   20.02490    0.10630    5.11371   58.70862   -6.05124    8.50000 70000.00000
 1667.20000    8.57795   38.85790   38.03920   37.59741    2.68338   19.62116    0.10766    5.10607   58.42493   -5.59974    8.50000 70000.00000
 1667.30000    8.57770   37.86129   36.99555   36.70543    2.68355   19.41270    0.10547    5.09439   58.33937   -5.47667    8.50000 70000.00000
 1667.40000    8.58108   37.68878   36.84878   36.57452    2.68662   19.26894    0.10336    5.07829   58.01583   -5.81922    8.50000 70000.00000
 1667.50000    8.58174   38.11080   36.86769   36.72311    2.68862   19.22928    0.10220    5.08772   57.79190   -5.55370    8.50000 70000.00000
 1667.60000    8.58295   36.79298   35.74106   35.50669    2.68909   19.35351    0.10123    5.09019   57.34720   -5.43084    8.50000 70000.00000
 1667.70000    8.58124   38.62599   37.60941   37.50728    2.69121   19.26642    0.10216    5.09801   57.42866   -5.77547    8.50000 70000.00000
 1667.80000    8.58063   38.36331   37.50575   37.41522    2.68668   19.21504    0.10289    5.09513   56.79474   -5.85644    8.50000 70000.00000
 1667.90000    8.57864   38.14646   36.80325   36.55871    2.68813   19.61422    0.10341    5.11444   56.22226   -5.62798    8.50000 70000.00000
 1668.00000    8.58189   43.82373   42.29819   42.41230    2.68707   20.05239    0.10325    5.10637   56.37852   -5.23556    8.50000 70000.00000
 1668.10000    8.57806   41.34490   40.53251   40.61072    2.68652   19.76684    0.10289    5.10053   56.52386   -5.12793    8.50000 70000.00000
 1668.20000    8.58085   41.52158   40.80916   40.88054    2.68623   19.66191    0.10261    5.11856   56.90170   -4.64415    8.50000 70000.00000
 1668.30000    8.58317   41.72431   41.26249   41.43985    2.68638   19.89870    0.10138    5.12776   56.93203   -4.94886    8.50000 70000.00000
 1668.40000    8.58374   42.78144   42.42055   42.56199    2.68505   19.48627    0.09890    5.12400   56.96413   -5.19259    8.50000 70000.00000
 1668.50000    8.58568   47.22921   46.51055   46.57789    2.68314   19.36337    0.10002    5.12712   57.00500   -5.17812    8.50000 70000.00000
 1668.60000    8.58707   44.57748   44.28294   44.27242    2.68150   19.96978    0.09990    5.11455   57.64709   -5.32167    8.50000 70000.00000
 1668.70000    8.58523   43.53666   43.09531   43.05581    2.68487   20.51303    0.09782    5.10542   57.43041   -4.89048    8.50000 70000.00000
 1668.80000    8.58551   44.23748   44.06652   43.98293    2.68308   20.10548    0.09831    5.09444   57.61007   -4.90149    8.50000 70000.00000
 1668.90000    8.58500   43.40104   43.06789   43.10209    2.68249   19.68957    0.09684    5.06938   57.59394   -5.01774    8.50000 70000.00000
 1669.00000    8.58343   45.66783   45.82804   45.99511    2.68121   19.45673    0.09809    5.06945   57.60281   -4.89485    8.50000 70000.00000
 1669.10000    8.58434   46.82170   47.24353   47.25278    2.68023   19.75171    0.09624    5.06935   57.47179   -4.71926    8.50000 70000.00000
 1669.20000    8.58344   47.87202   48.07566   48.10416    2.68260   19.55646    0.09743    5.08020   57.69765   -4.91796    8.50000 70000.00000
 1669.30000    8.57974   47.46276   47.68654   47.76233    2.68334   20.07555    0.09431    5.07549   57.73794   -5.09112    8.50000 70000.00000
 1669.40000    8.58258   49.08096   49.09335   49.18279    2.68165   19.74840    0.09908    5.08962   57.99780   -4.71298    8.50000 70000.00000
 1669.50000    8.58089   53.81831   54.77439   54.92952    2.67911   19.81760    0.09979    5.10101   58.22411   -4.58096    8.50000 70000.00000
 1669.60000    8.57982   54.51504   55.76811   56.07142    2.67864   19.63904    0.10112    5.09838   58.45248   -5.11306    8.50000 70000.00000
 1669.70000    8.57827   55.17152   56.32829   56.54286    2.67986   19.88164    0.10136    5.10972   58.23362   -5.17053    8.50000 70000.00000
 1669.80000    8.57659   54.36414   55.14955   55.57783    2.68140   20.33252    0.10157    5.10871   58.37259   -5.23777    8.50000 70000.00000
 1669.90000    8.57599   53.72250   54.14254   54.68594    2.68450   20.46660    0.10215    5.10349   58.30553   -4.92277    8.50000 70000.00000
 1670.00000    8.57597   52.04427   52.47797   53.15642    2.68388   20.09809    0.10129    5.09653   58.90093   -4.99859    8.50000 70000.00000
 1670.10000    8.57521   46.68146   47.66719   47.78782    2.68338   20.08761    0.10098    5.10379   58.82308   -5.31097    8.50000 70000.00000
 1670.20000    8.57688   48.82079   49.29579   49.55516    2.68746   20.08899    0.09982    5.11252   58.90491   -5.33058    8.50000 70000.00000
 1670.30000    8.57627   49.27602   49.48015   49.80315    2.69035   20.44231    0.10248    5.10018   58.66195   -5.68642    8.50000 70000.00000
 1670.40000    8.57698   46.85129   47.38132   47.63978    2.69431   20.13741    0.09880    5.10112   58.40096   -5.33199    8.50000 70000.00000
 1670.50000    8.57290   46.50707   46.79420   47.14863    2.69358   20.57541    0.10261    5.10372   58.43347   -4.70334    8.50000 70000.00000
 1670.60000    8.57309   41.09396   41.61607   41.98074    2.69538   20.89804    0.10318    5.09529   58.29045   -5.02512    8.50000 70000.00000
 1670.70000    8.57761   42.51429   43.07131   43.40369    2.69615   20.59195    0.10555    5.08597   58.03503   -4.76663    8.50000 70000.00000
 1670.80000    8.57572   46.75784   48.09348   48.26053    2.69036   20.35850    0.10808    5.09554   58.11766   -4.89442    8.50000 70000.00000
 1670.90000    8.57359   51.12935   51.31351   51.65256    2.69241   20.82737    0.10620    5.09265   57.93579   -5.08758    8.50000 70000.00000
 1671.00000    8.57180   51.91061   52.39879   52.83506    2.68924   21.15256    0.10556    5.09242   57.81431   -4.90475    8.50000 70000.00000
 1671.10000    8.57431   48.62418   48.50599   48.81782    2.68896   20.84404    0.10335    5.09604   57.83202   -4.93584    8.50000 70000.00000
 1671.20000    8.57415   48.16091   48.33238   48.66010    2.68868   20.60040    0.10254    5.10549   58.02887   -4.75448    8.50000 70000.00000
 1671.30000    8.57324   49.80115   50.00896   50.12418    2.68880   19.85109    0.10270    5.09273   57.78526   -4.18744    8.50000 70000.00000
 1671.40000    8.57630   53.99612   53.01834   53.71621    2.68964   19.47212    0.10416    5.09469   57.65505   -4.36276    8.50000 70000.00000
 1671.50000    8.57184   52.62517   51.72350   52.36348    2.68960   19.88468    0.10008    5.08881   57.67960   -4.29296    8.50000 70000.00000
 1671.60000    8.57050   48.02755   46.78722   47.10228    2.68728   19.99045    0.09963    5.10050   57.58632   -4.20101    8.50000 70000.00000
 1671.70000    8.57006   47.63925   46.50888   46.77440    2.69071   20.16827    0.09897    5.10225   57.84577   -4.03572    8.50000 70000.00000
 1671.80000    8.56719   48.12430   47.29050   47.51748    2.69075   19.39218    0.09611    5.08662   57.66229   -4.54748    8.50000 70000.00000
