~Version ---------------------------------------------------
VERS.   2.0 : CWLS log ASCII Standard -VERSION 2.0
WRAP.    NO : One line per depth step
DLM . SPACE : Column Data Section Delimiter
~Well ------------------------------------------------------
STRT.m          1000.00000 : START DEPTH
STOP.m          2000.00000 : STOP DEPTH
STEP.m             0.10000 : STEP
NULL.             -9999.25 : NULL VALUE
COMP. FORCE 2020 Recreator : 
WELL.   WELL_FORCE_2020_08 : 
FLD .                      : FIELD
LOC .                      : LOCATION
PROV.                      : PROVINCE
CNTY.                      : COUNTY
STAT.                      : STATE
CTRY.                      : COUNTRY
SRVC.                      : SERVICE COMPANY
DATE.                      : DATE
UWI .                      : UNIQUE WELL ID
API .                      : API NUMBER
~Curve Information -----------------------------------------
DEPT                            .m      : 
CALI                            .in     : 
RSHA                            .ohm.m  : 
RMED                            .ohm.m  : 
RDEP                            .ohm.m  : 
RHOB                            .g/cm3  : 
GR                              .gAPI   : 
NPHI                            .v/v    : 
PEF                             .b/e    : 
DTC                             .us/ft  : 
SP                              .mV     : 
BS                              .in     : 
FORCE_2020_LITHOFACIES_LITHOLOGY.code   : 
~Params ----------------------------------------------------
~Other -----------------------------------------------------
~ASCII -----------------------------------------------------
# ...
 1862.40000    8.56761 2470.59248 2452.72162 2421.21152    2.96453   11.95947    0.01950    4.98737   50.29769    6.36870    8.50000 86000.00000
 1862.50000    8.56956 2324.42313 2288.75724 2263.98774    2.96449   11.56012    0.01807    5.00427   50.04214    6.32007    8.50000 86000.00000
 1862.60000    8.56843 2414.09500 2402.23807 2362.48293    2.96327   11.70721    0.01822    5.00626   49.85734    6.28397    8.50000 86000.00000
 1862.70000    8.57064 2302.27745 2278.35647 2248.41490    2.96317   11.38764    0.01877    4.99789   49.80636    6.19107    8.50000 86000.00000
 1862.80000    8.56923 2047.63700 2021.41900 2003.78304    2.96581   11.34252    0.01939    4.99374   49.68541    6.41136    8.50000 86000.00000
 1862.90000    8.56882 2097.23662 2056.52289 2040.38743    2.96258   11.10346    0.01917    4.99858   49.77704    6.45856    8.50000 86000.00000
 1863.00000    8.57290   -9999.25 1936.26613 1916.46399    2.96083   10.89475    0.01865    5.02878   49.89458    6.57054    8.50000 86000.00000
 1863.10000    8.57336 2016.39190 1998.53474 1989.19930    2.96343   10.71646    0.01834    5.01644   49.91946    6.27259    8.50000 86000.00000
 1863.20000    8.57610 2047.74429 2025.46109 2016.61861    2.96232   10.24581    0.01885    5.03666   49.82107    6.18714    8.50000 86000.00000
 1863.30000    8.57156 2024.23021 2006.17488 1996.73967    2.95922   10.10636    0.01852    5.02957   49.86097    6.11516    8.50000 86000.00000
 1863.40000    8.57506 1982.95877 1993.75759 1971.55143    2.95908   10.10981    0.01863    5.03183   49.91074    6.09931    8.50000 86000.00000
 1863.50000    8.57910 1988.83603 2000.67630 1979.08368    2.95703   10.27916    0.01859    5.02626   50.22676    6.22536    8.50000 86000.00000
 1863.60000    8.57702 1940.79084 1933.47552 1928.32065    2.95870   10.17397    0.01810    5.03862   50.32909    6.07884    8.50000 86000.00000
 1863.70000    8.58064 1987.76188 2070.89106 2058.62888    2.95740    9.66964    0.01906    5.04725   50.49400    6.04342    8.50000 86000.00000
 1863.80000    8.57651 1938.10673 2022.84226 2009.00551    2.96104    9.79226    0.01961    5.04604   50.48484    5.85959    8.50000 86000.00000
 1863.90000    8.57511 1930.47421 2014.23642 2000.78173    2.96065    9.69562    0.01934    5.04223   50.58593    5.83163    8.50000 86000.00000
 1864.00000    8.57473 1863.91055 1947.88022 1932.70697    2.96170    9.62127    0.01960    5.05858   50.55806    5.78656    8.50000 86000.00000
 1864.10000    8.57404 1517.78976 1647.76481 1613.89597    2.95727    9.36679    0.01940    5.04391   50.34023    5.67641    8.50000 86000.00000
 1864.20000    8.57581 1521.86923 1670.91152 1632.09139    2.95606    9.32672    0.01952    5.02219   50.12278    5.46661    8.50000 86000.00000
 1864.30000    8.57632 1551.39204 1691.86213 1653.28046    2.95533    9.42074    0.02088    5.03353   50.02508    5.56009    8.50000 86000.00000
 1864.40000    8.57800 1388.47739 1527.02921 1500.78313    2.95413    9.75742    0.02070    5.03340   49.80269    5.50634    8.50000 86000.00000
 1864.50000    8.57670 1310.08549 1436.32653 1413.04609    2.95481    9.88545    0.01996    5.03187   49.81693    5.46340    8.50000 86000.00000
 1864.60000    8.57528 1381.11376 1523.31650 1497.35519    2.95395   10.23018    0.02118    5.01393   50.08222    5.62200    8.50000 86000.00000
 1864.70000    8.57434 1666.47474 1777.04735 1735.17605    2.95624   10.15047    0.02128    5.02861   50.09163    5.72037    8.50000 86000.00000
 1864.80000    8.57731 1750.51293 1844.78954 1811.95866    2.95647   10.44198    0.02077    5.01947   49.99231    5.53636    8.50000 86000.00000
 1864.90000    8.57507 1724.27236 1822.57325 1789.81074    2.95717   10.24173    0.02091    5.01749   50.11379    5.69793    8.50000 86000.00000
 1865.00000    8.57878 1710.90447 1809.01224 1776.68574    2.96007   10.62956    0.02146    5.02208   50.07595    5.73924    8.50000 86000.00000
 1865.10000    8.57850 1719.50373 1813.13380 1783.04921    2.96409   10.71339    0.02235    5.01481   49.92203    5.83459    8.50000 86000.00000
 1865.20000    8.57968 1779.85755 1892.32174 1836.77669    2.96033   10.98365    0.02189    5.01152   49.90893    5.87715    8.50000 86000.00000
 1865.30000    8.57879 2046.55729 2217.38607 2138.42402    2.96037   11.30387    0.02168    5.00783   50.06275    5.84975    8.50000 86000.00000
 1865.40000    8.57878 2218.67445 2416.54161 2336.27496    2.96458   11.36604    0.02149    5.01513   50.09006    5.88530    8.50000 86000.00000
 1865.50000    8.57708 2256.16137 2464.10790 2378.78448    2.96496   11.50366    0.02215    5.01302   50.12334    5.87851    8.50000 86000.00000
 1865.60000    8.57758 2260.56258 2480.80668 2391.33115    2.96839   11.77336    0.02178    5.00930   50.02568    5.78144    8.50000 86000.00000
 1865.70000    8.57610 2341.60126 2560.87488 2454.61858    2.96802   11.88675    0.02187    5.00368   49.86605    5.81804    8.50000 86000.00000
 1865.80000    8.57658 2259.06424 2402.52579 2300.24366    2.96562   12.12189    0.02135    4.99178   49.61359    6.14275    8.50000 86000.00000
 1865.90000    8.57801 2340.03845 2461.04250 2371.10372    2.96394   11.94821    0.02078    5.00018   49.77772    6.06929    8.50000 86000.00000
 1866.00000    8.57858 2337.98645 2460.25453 2370.51597    2.96557   12.13548    0.02070    5.00750   49.74519    5.91205    8.50000 86000.00000
 1866.10000    8.57535 2618.79409 2708.35560 2640.36212    2.96551   12.23749    0.02080    4.97943   49.90063    5.89137    8.50000 86000.00000
 1866.20000    8.57541 2596.14823 2682.61803 2615.64999    2.96740   12.37824    0.02083    4.97477   50.14909    5.94075    8.50000 86000.00000
 1866.30000    8.57717 2638.34953 2709.34195 2647.33050    2.96910   12.49486    0.02111    4.99403   50.31829    6.14485    8.50000 86000.00000
 1866.40000    8.58009 2677.89818 2760.08971 2691.80821    2.96965   12.57412    0.02032    4.98326   50.16191    6.09481    8.50000 86000.00000
 1866.50000    8.58277 2626.44729 2699.88926 2634.99723    2.96830   12.16992    0.02053    4.96983   50.57054    6.12508    8.50000 86000.00000
 1866.60000    8.58276 2644.45476 2721.74525 2657.50430    2.96906   12.31252    0.01968    4.96747   50.55558    6.21356    8.50000 86000.00000
 1866.70000    8.58339 2745.63306 2817.21511 2741.94675    2.96993   12.19244    0.01956    4.98415   50.32730    6.11020    8.50000 86000.00000
 1866.80000    8.58565 2446.83449 2506.32478 2466.59405    2.96990   12.07945    0.01926    4.97976   50.51810    6.17601    8.50000 86000.00000
 1866.90000    8.58530 2390.86808 2450.78297 2405.21490    2.96832   12.06575    0.01921    4.99481   50.44667    6.12331    8.50000 86000.00000
 1867.00000    8.58683 2472.38669 2540.01260 2492.73109    2.96724   12.16238    0.01806    4.98004   50.51253    5.96881    8.50000 86000.00000
 1867.10000    8.58309 2507.89334 2593.06718 2540.82629    2.96853   11.92484    0.01815    4.97598   50.41109    6.06022    8.50000 86000.00000
 1867.20000    8.58161 2655.93760 2760.06094 2705.86432    2.96369   11.64304    0.01841    4.97110   50.48095    6.00684    8.50000 86000.00000
 1867.30000    8.58015 2595.69056 2725.93620 2684.23201    2.96509   11.60782    0.01975    4.97251   50.55364    6.06604    8.50000 86000.00000
 1867.40000    8.57800 2311.71669 2388.10359 2368.31091    2.96590   11.76903    0.01988    4.96682   50.56353    6.23804    8.50000 86000.00000
 1867.50000    8.58031 2237.62442 2276.99130 2269.79383    2.96324   11.73980    0.02015    4.97111   50.58252    6.05541    8.50000 86000.00000
 1867.60000    8.57856 2433.86660 2430.12309 2438.50512    2.96349   11.75121    0.01976    4.97039   50.56007    5.90838    8.50000 86000.00000
 1867.70000    8.57854 2440.09186 2421.62273 2430.66776    2.96489   11.42421    0.01951    4.96401   50.53419    5.90129    8.50000 86000.00000
 1867.80000    8.58180 2400.64846 2388.91555 2411.87630    2.96377   11.76185    0.01974    4.96382   50.41081    6.10128    8.50000 86000.00000
 1867.90000    8.57983 2415.36687 2407.83526 2423.18659    2.96457   11.64363    0.02055    4.97649   50.46807    5.72829    8.50000 86000.00000
