~Version ---------------------------------------------------
VERS.   2.0 : CWLS log ASCII Standard -VERSION 2.0
WRAP.    NO : One line per depth step
DLM . SPACE : Column Data Section Delimiter
~Well ------------------------------------------------------
STRT.m          1000.00000 : START DEPTH
STOP.m          2000.00000 : STOP DEPTH
STEP.m             0.10000 : STEP
NULL.             -9999.25 : NULL VALUE
COMP. FORCE 2020 Recreator : 
WELL.   WELL_FORCE_2020_05 : 
FLD .                      : FIELD
LOC .                      : LOCATION
PROV.                      : PROVINCE
CNTY.                      : COUNTY
STAT.                      : STATE
CTRY.                      : COUNTRY
SRVC.                      : SERVICE COMPANY
DATE.                      : DATE
UWI .                      : UNIQUE WELL ID
API .                      : API NUMBER
~Curve Information -----------------------------------------
DEPT                            .m      : 
CALI                            .in     : 
RSHA                            .ohm.m  : 
RMED                            .ohm.m  : 
RDEP                            .ohm.m  : 
RHOB                            .g/cm3  : 
GR                              .gAPI   : 
NPHI                            .v/v    : 
PEF                             .b/e    : 
DTC                             .us/ft  : 
SP                              .mV     : 
BS                              .in     : 
FORCE_2020_LITHOFACIES_LITHOLOGY.code   : 
~Params ----------------------------------------------------
~Other -----------------------------------------------------
~ASCII -----------------------------------------------------
# ...
 1397.50000    8.58519   11.67892   11.47748   11.49008    2.18250   87.89260    0.33291   -9999.25   98.45529    3.05740    8.50000 99000.00000
 1397.60000    8.58393    9.59002    9.42851    9.35673    2.18595   88.35363    0.33385   -9999.25   98.23917    2.85847    8.50000 99000.00000
 1397.70000    8.58343    9.78767    9.56678    9.51545    2.18832   86.94964    0.33449   -9999.25   98.17589    2.93507    8.50000 99000.00000
 1397.80000    8.57995    9.61762    9.36250    9.35145    2.18153   87.88991    0.33396   -9999.25   97.87285    3.09323    8.50000 99000.00000
 1397.90000    8.57920    9.57540    9.25206    9.25247    2.18359   88.08614    0.32837   -9999.25   98.06839    2.90282    8.50000 99000.00000
 1398.00000    8.57560    9.65340    9.48858    9.49032    2.18131   88.67393    0.32935   -9999.25   98.54888    2.88808    8.50000 99000.00000
 1398.10000    8.57626   10.36835   10.30153   10.29957    2.18433   89.44192    0.33026   -9999.25   98.44999    2.79953    8.50000 99000.00000
 1398.20000    8.57583   10.01762   10.11733   10.12474    2.18431   90.05956    0.32757   -9999.25   97.69618    3.30126    8.50000 99000.00000
 1398.30000    8.57291    9.92293    9.99633   10.01617    2.18671   89.83787    0.33815   -9999.25   97.72448    3.53486    8.50000 99000.00000
 1398.40000    8.57580   10.20226   10.26182   10.28171    2.18462   89.13919    0.33564   -9999.25   97.64111    3.80280    8.50000 99000.00000
 1398.50000    8.57499   10.27459   10.34831   10.33277    2.18862   89.28792    0.33249   -9999.25   97.67067    3.44046    8.50000 99000.00000
 1398.60000    8.57588   10.08685   10.20141   10.15527    2.17474   89.94887    0.33098   -9999.25   97.23613    3.40382    8.50000 99000.00000
 1398.70000    8.57416    9.94738   10.03528    9.95687    2.17812   90.00449    0.33316   -9999.25   96.73012    3.34185    8.50000 99000.00000
 1398.80000    8.57150   10.10195   10.13318   10.04893    2.17518   90.24866    0.33637   -9999.25   96.25244    3.56446    8.50000 99000.00000
 1398.90000    8.57341   10.48590   10.50530   10.39236    2.17197   91.34928    0.34145   -9999.25   96.73980    3.84848    8.50000 99000.00000
 1399.00000    8.57582   11.39324   11.43024   11.30643    2.17329   91.59268    0.34577   -9999.25   96.38623    3.61799    8.50000 99000.00000
 1399.10000    8.57545   11.18109   11.24274   11.13655    2.17522   91.63580    0.34345   -9999.25   96.96635    2.94316    8.50000 99000.00000
 1399.20000    8.57430   11.21660   11.39497   11.30900    2.18215   90.78404    0.33717   -9999.25   96.87582    2.98941    8.50000 99000.00000
 1399.30000    8.57618   11.17746   11.39355   11.29430    2.18174   91.35124    0.33490   -9999.25   98.26654    2.94595    8.50000 99000.00000
 1399.40000    8.57694   10.97378   11.24339   11.10461    2.17626   91.89001    0.33254   -9999.25   97.86888    3.00937    8.50000 99000.00000
 1399.50000    8.57598   10.78583   11.04457   10.91728    2.18099   92.95823    0.33032   -9999.25   97.46671    2.83684    8.50000 99000.00000
 1399.60000    8.57407    9.27604    9.56453    9.48922    2.17751   92.82360    0.32597   -9999.25   96.52558    2.86398    8.50000 99000.00000
 1399.70000    8.57635    9.57780    9.84329    9.79571    2.18028   91.81000    0.32124   -9999.25   96.00676    3.10964    8.50000 99000.00000
 1399.80000    8.57702    9.01233    9.34690    9.30199    2.18319   91.49550    0.31968   -9999.25   96.43091    3.07895    8.50000 99000.00000
 1399.90000    8.58206    8.96790    9.37095    9.30376    2.18030   91.58315    0.31804   -9999.25   96.46554    2.95303    8.50000 99000.00000
 1400.00000    8.57868    9.09765    9.52905    9.42155    2.18240   90.99377    0.32249   -9999.25   96.30442    3.02452    8.50000 99000.00000
 1400.10000    8.57944    8.88450    9.22354    9.11388    2.18214   90.91171    0.32073   -9999.25   95.89919    3.30089    8.50000 99000.00000
 1400.20000    8.57622    8.95432    9.10582    9.05453    2.17622   91.72992    0.32344   -9999.25   95.74040    3.24298    8.50000 99000.00000
 1400.30000    8.57583    8.67273    8.82902    8.76711    2.17618   91.72099    0.32505   -9999.25   96.90063    3.26683    8.50000 99000.00000
 1400.40000    8.57843    8.77772    8.95390    8.88283    2.17479   91.24890    0.32378   -9999.25   96.91507    3.35571    8.50000 99000.00000
 1400.50000    8.58134    9.04298    9.07563    9.04133    2.16760   91.07109    0.32203   -9999.25   96.80812    3.24270    8.50000 99000.00000
 1400.60000    8.58070    9.32524    9.20676    9.26675    2.17021   91.94153    0.32300   -9999.25   96.75960    3.53369    8.50000 99000.00000
 1400.70000    8.57892    9.60884    9.54447    9.55278    2.17684   91.54407    0.32504   -9999.25   96.87400    3.58853    8.50000 99000.00000
 1400.80000    8.57942    9.44115    9.38741    9.40047    2.16699   90.70000    0.32546   -9999.25   96.00804    3.19577    8.50000 99000.00000
 1400.90000    8.58145    9.29111    9.35262    9.36646    2.16567   89.93828    0.31816   -9999.25   95.78765    3.34185    8.50000 99000.00000
 1401.00000    8.58417    9.00794    9.07176    9.08918    2.17308   88.75945    0.31860   -9999.25   95.09451    3.15321    8.50000 99000.00000
 1401.10000    8.58279    7.91483    7.89777    7.92006    2.17528   88.26883    0.31649   -9999.25   94.78415    2.97758    8.50000 99000.00000
 1401.20000    8.58447    7.70863    7.65341    7.70989    2.17483   89.50006    0.32252   -9999.25   95.07976    3.34645    8.50000 99000.00000
 1401.30000    8.58392    7.17142    7.18264    7.23484    2.17379   88.39770    0.32415   -9999.25   96.21768    3.46917    8.50000 99000.00000
 1401.40000    8.58087    7.47008    7.36242    7.39149    2.17341   87.07811    0.32119   -9999.25   94.88992    3.59717    8.50000 99000.00000
 1401.50000    8.58338    8.38884    8.20490    8.28317    2.17316   86.71724    0.32341   -9999.25   95.38291    3.66422    8.50000 99000.00000
 1401.60000    8.58390    8.65301    8.42699    8.51267    2.16633   86.88694    0.32214   -9999.25   96.03286    3.63588    8.50000 99000.00000
 1401.70000    8.58802    9.07048    8.80504    8.93075    2.16264   87.26616    0.31744   -9999.25   96.42351    3.70935    8.50000 99000.00000
 1401.80000    8.59057    8.82722    8.58882    8.70530    2.15551   86.52430    0.31975   -9999.25   96.50803    3.61016    8.50000 99000.00000
 1401.90000    8.59207    9.11282    8.90595    9.02542    2.15512   87.71301    0.32110   -9999.25   96.72464    3.45891    8.50000 99000.00000
 1402.00000    8.58832    9.41057    9.18155    9.29050    2.16030   88.30246    0.32208   -9999.25   96.69942    3.70895    8.50000 99000.00000
 1402.10000    8.59010   10.25367    9.76077    9.97721    2.15241   89.10595    0.32067   -9999.25   96.95298    3.61911    8.50000 99000.00000
 1402.20000    8.59138    9.92917    9.41694    9.62483    2.15092   88.48538    0.32345   -9999.25   97.82309    3.91581    8.50000 99000.00000
 1402.30000    8.59465    9.16110    8.77387    8.91561    2.15544   87.75212    0.32019   -9999.25   98.17317    3.89858    8.50000 99000.00000
 1402.40000    8.59784    9.79504    9.48819    9.58225    2.15376   86.85486    0.31937   -9999.25   97.64008    3.69851    8.50000 99000.00000
 1402.50000    8.59734   10.79545   10.35237   10.48118    2.15620   86.91805    0.32105   -9999.25   97.01197    3.63266    8.50000 99000.00000
 1402.60000    8.59248   10.02231    9.69571    9.78120    2.15678   87.60529    0.32147   -9999.25   96.84779    3.10883    8.50000 99000.00000
 1402.70000    8.59309   10.00188    9.80443    9.81220    2.15563   88.23747    0.32578   -9999.25   95.63085    3.03381    8.50000 99000.00000
 1402.80000    8.59479    9.78605    9.57907    9.61413    2.15648   88.94152    0.32663   -9999.25   95.96348    3.30665    8.50000 99000.00000
 1402.90000    8.59416   10.76470   10.60001   10.68145    2.16722   90.76708    0.32591   -9999.25   96.66497    3.66429    8.50000 99000.00000
 1403.00000    8.59387   11.33392   11.04565   11.17133    2.16431   91.19345    0.32930   -9999.25   96.76197    3.02591    8.50000 99000.00000
