~Version ---------------------------------------------------
VERS.   2.0 : CWLS log ASCII Standard -VERSION 2.0
WRAP.    NO : One line per depth step
DLM . SPACE : Column Data Section Delimiter
~Well ------------------------------------------------------
STRT.m          1000.00000 : START DEPTH
STOP.m          2000.00000 : STOP DEPTH
STEP.m             0.10000 : STEP
NULL.             -9999.25 : NULL VALUE
COMP. FORCE 2020 Recreator : 
WELL.   WELL_FORCE_2020_10 : 
FLD .                      : FIELD
LOC .                      : LOCATION
PROV.                      : PROVINCE
CNTY.                      : COUNTY
STAT.                      : STATE
CTRY.                      : COUNTRY
SRVC.                      : SERVICE COMPANY
DATE.                      : DATE
UWI .                      : UNIQUE WELL ID
API .                      : API NUMBER
~Curve Information -----------------------------------------
DEPT                            .m      : 
CALI                            .in     : 
RSHA                            .ohm.m  : 
RMED                            .ohm.m  : 
RDEP                            .ohm.m  : 
RHOB                            .g/cm3  : 
GR                              .gAPI   : 
NPHI                            .v/v    : 
PEF                             .b/e    : 
DTC                             .us/ft  : 
SP                              .mV     : 
BS                              .in     : 
FORCE_2020_LITHOFACIES_LITHOLOGY.code   : 
~Params ----------------------------------------------------
~Other -----------------------------------------------------
~ASCII -----------------------------------------------------
# ...
 1532.00000    8.57978  140.74803  144.38257  143.06628    1.44824   31.65945    0.51095    1.57926  122.46742   -7.84312    8.50000 90000.00000
 1532.10000    8.58456  144.92912  148.53053  147.31196    1.45089   31.40172    0.50989    1.59104  123.33919   -8.03218    8.50000 90000.00000
 1532.20000    8.58204  141.24250  145.42109  144.17131    1.45083   30.90760    0.51154    1.57270  125.07295   -7.54007    8.50000 90000.00000
 1532.30000    8.58403  134.08872  139.21672  137.48303    1.44560   30.64079    0.51069    1.57935  124.43385   -7.93521    8.50000 90000.00000
 1532.40000    8.58290  144.21749  148.06241  146.56273    1.44405   30.48904    0.51327    1.58709  124.84077   -8.26061    8.50000 90000.00000
 1532.50000    8.58148  141.46362  144.86527  143.30688    1.44686   30.29538    0.51843    1.57421  123.90667   -7.84007    8.50000 90000.00000
 1532.60000    8.58283  162.78193  164.73448  163.34592    1.45028   31.02037    0.52223    1.58437  124.70536   -8.00736    8.50000 90000.00000
 1532.70000    8.58439  151.17095  150.20687  148.81849    1.44986   29.89355    0.52926    1.57900  124.82080   -7.85360    8.50000 90000.00000
 1532.80000    8.58438  150.34755  148.96871  147.74761    1.44623   29.42244    0.53264    1.56945  124.60149   -7.61419    8.50000 90000.00000
 1532.90000    8.58687  160.72929  159.82413  158.74391    1.43976   29.23848    0.53047    1.56472  123.12398   -7.44377    8.50000 90000.00000
 1533.00000    8.58134  158.94428  158.81818  157.39139    1.43515   29.38721    0.53049    1.56585  123.12075   -7.36795    8.50000 90000.00000
 1533.10000    8.58016  158.35404  157.66733  156.42472    1.42986   28.71287    0.53074    1.55218  122.39553   -7.28702    8.50000 90000.00000
 1533.20000    8.57942  154.97138  154.16155  153.14174    1.42630   28.69009    0.52907    1.55971  123.63263   -7.47883    8.50000 90000.00000
 1533.30000    8.57912  163.33037  161.04321  160.33697    1.41858   28.93290    0.52950    1.55904  123.15759   -7.57747    8.50000 90000.00000
 1533.40000    8.58385  164.94118  162.33507  161.66187    1.42438   28.80581    0.53129    1.56838  123.28913   -7.82090    8.50000 90000.00000
 1533.50000    8.58627  155.01419  155.21398  154.86890    1.42200   28.72527    0.52951    1.56710  122.30440   -6.73696    8.50000 90000.00000
 1533.60000    8.58620  162.07049  161.33179  161.59667    1.42155   28.90759    0.52303    1.59107  123.59946   -6.19654    8.50000 90000.00000
 1533.70000    8.58895  160.72979  158.52682  158.90446    1.43153   28.51703    0.51854    1.58443  123.81649   -6.66426    8.50000 90000.00000
 1533.80000    8.58829  162.85538  160.88922  161.35133    1.43144   30.29062    0.51504    1.57821  123.64917   -7.05279    8.50000 90000.00000
 1533.90000    8.59071  180.98318  174.11242  175.38065    1.43298   30.64626    0.51760    1.58214  123.18208   -6.88355    8.50000 90000.00000
 1534.00000    8.58998  178.58305  171.74792  173.39432    1.42965   31.21699    0.52041    1.58239  125.01832   -7.18693    8.50000 90000.00000
 1534.10000    8.58890  174.18043  166.35068  168.27565    1.42148   31.31872    0.52123    1.59107  124.78429   -7.64875    8.50000 90000.00000
 1534.20000    8.58571  171.48386  163.79451  165.62413    1.41563   31.30822    0.51862    1.59624  124.20111   -7.10603    8.50000 90000.00000
 1534.30000    8.58759  185.75664  177.50400  180.33199    1.41976   30.69968    0.52077    1.61332  122.94172   -7.79753    8.50000 90000.00000
 1534.40000    8.58623  201.10972  191.96204  194.40696    1.42584   30.83279    0.52292    1.61099  122.04575   -7.43099    8.50000 90000.00000
 1534.50000    8.58512  190.65973  182.59342  184.89247    1.42784   30.84613    0.52050    1.60120  122.32093   -7.75240    8.50000 90000.00000
 1534.60000    8.59031  192.93562  185.22218  187.83267    1.42861   30.99360    0.51617    1.61459  122.36081   -8.00850    8.50000 90000.00000
 1534.70000    8.59199  179.52226  174.61082  176.91070    1.42316   30.47972    0.51140    1.59325  122.29582   -7.72318    8.50000 90000.00000
 1534.80000    8.58852  188.81851  183.23790  185.13205    1.42512   31.10193    0.50650    1.60123  121.36891   -7.72383    8.50000 90000.00000
 1534.90000    8.58904  191.14235  185.04412  187.03245    1.42207   31.83436    0.50724    1.62141  121.41496   -8.03184    8.50000 90000.00000
 1535.00000    8.58521  189.39978  181.23773  183.44027    1.42396   31.77696    0.51174    1.63160  122.03027   -8.00989    8.50000 90000.00000
 1535.10000    8.58785  193.35032  183.81344  186.36184    1.42292   31.59500    0.51282    1.63633  122.07545   -7.88637    8.50000 90000.00000
 1535.20000    8.58726  200.67242  191.59122  194.34734    1.43340   31.96725    0.51413    1.65034  123.31033   -8.47382    8.50000 90000.00000
 1535.30000    8.58275  207.00643  197.60886  200.06834    1.44192   31.16963    0.51303    1.62637  122.68492   -8.31450    8.50000 90000.00000
 1535.40000    8.58074  210.36885  202.40712  203.40822    1.44311   31.10249    0.51484    1.63109  123.54256   -8.54396    8.50000 90000.00000
 1535.50000    8.57765  224.00616  217.75700  219.28100    1.44305   31.71580    0.51288    1.62110  122.81085   -8.55387    8.50000 90000.00000
 1535.60000    8.57535  235.82067  229.50238  232.20583    1.44323   31.03713    0.51049    1.60859  122.63207   -9.08652    8.50000 90000.00000
 1535.70000    8.57372  246.07976  243.03159  245.71466    1.44108   31.19981    0.51492    1.60244   -9999.25   -9.56912    8.50000 90000.00000
 1535.80000    8.57161  245.51240  242.59603  245.29236    1.43898   32.04166    0.51588    1.60855  121.56819   -9.44391    8.50000 90000.00000
 1535.90000    8.57386  256.03941  250.47812  253.83970    1.43143   30.33042    0.51618    1.61276  121.67761   -9.18375    8.50000 90000.00000
 1536.00000    8.57136  230.38408  229.71475  232.63835    1.42546   29.75339    0.51559    1.59342  121.46932   -9.46312    8.50000 90000.00000
 1536.10000    8.57338  242.26359  241.25742  244.84373    1.41961   30.23411    0.51962    1.59139  121.74197   -9.41766    8.50000 90000.00000
 1536.20000    8.57089  249.33519  246.59013  250.53310    1.43014   30.00361    0.52020    1.57868  120.70942   -8.99168    8.50000 90000.00000
 1536.30000    8.57018  258.39049  253.56147  258.09183    1.43274   29.82926    0.52151    1.57252  120.64648   -9.42368    8.50000 90000.00000
 1536.40000    8.56649  245.01980  239.61743  243.98139    1.42848   30.60333    0.51463    1.56315  121.35831   -9.11342    8.50000 90000.00000
 1536.50000    8.56729  240.21993  233.66751  238.88754    1.41968   30.35908    0.51614    1.54416  122.53017   -8.98120    8.50000 90000.00000
 1536.60000    8.56891  249.33628  243.92239  248.99245    1.41195   30.78349    0.52259    1.54778  121.56397   -8.51260    8.50000 90000.00000
 1536.70000    8.56581  248.94225  243.12149  247.81042    1.40771   30.86601    0.52338    1.54450  121.41729   -8.38493    8.50000 90000.00000
 1536.80000    8.56528  253.70159  246.10580  251.72235    1.41399   31.35486    0.52764    1.54856  120.35209   -8.22216    8.50000 90000.00000
 1536.90000    8.56742  243.29513  236.74826  242.10248    1.41339   30.22344    0.52850    1.54405  121.22184   -8.35121    8.50000 90000.00000
 1537.00000    8.56618  255.38537  250.20407  255.07975    1.40788   29.90259    0.52471    1.53959  120.66519   -7.99078    8.50000 90000.00000
 1537.10000    8.56830  237.57139  233.08935  238.17921    1.41506   30.64401    0.51953    1.52928  121.32896   -8.22149    8.50000 90000.00000
 1537.20000    8.56755  229.81270  225.66658  230.74599    1.41685   30.98618    0.52130    1.51501  121.47865   -8.28154    8.50000 90000.00000
 1537.30000    8.56831  232.85379  228.81513  233.77340    1.41041   30.96301    0.52105    1.50373  121.22863   -8.08474    8.50000 90000.00000
 1537.40000    8.56979  227.95081  224.72514  229.85334    1.41033   31.93104    0.51727    1.50934  120.85582   -8.16383    8.50000 90000.00000
 1537.50000    8.57215  222.58082  220.04658  225.44956    1.41989   31.98095    0.51498    1.51289  119.36207   -8.41547    8.50000 90000.00000
