~Version ---------------------------------------------------
VERS.   2.0 : CWLS log ASCII Standard -VERSION 2.0
WRAP.    NO : One line per depth step
DLM . SPACE : Column Data Section Delimiter
~Well ------------------------------------------------------
STRT.m          1000.00000 : START DEPTH
STOP.m          2000.00000 : STOP DEPTH
STEP.m             0.10000 : STEP
NULL.             -9999.25 : NULL VALUE
COMP. FORCE 2020 Recreator : 
WELL.   WELL_FORCE_2020_10 : 
FLD .                      : FIELD
LOC .                      : LOCATION
PROV.                      : PROVINCE
CNTY.                      : COUNTY
STAT.                      : STATE
CTRY.                      : COUNTRY
SRVC.                      : SERVICE COMPANY
DATE.                      : DATE
UWI .                      : UNIQUE WELL ID
API .                      : API NUMBER
~Curve Information -----------------------------------------
DEPT                            .m      : 
CALI                            .in     : 
RSHA                            .ohm.m  : 
RMED                            .ohm.m  : 
RDEP                            .ohm.m  : 
RHOB                            .g/cm3  : 
GR                              .gAPI   : 
NPHI                            .v/v    : 
PEF                             .b/e    : 
DTC                             .us/ft  : 
SP                              .mV     : 
BS                              .in     : 
FORCE_2020_LITHOFACIES_LITHOLOGY.code   : 
~Params ----------------------------------------------------
~Other -----------------------------------------------------
~ASCII -----------------------------------------------------
# ...
 1464.80000    8.57605   13.60049   13.21060   13.21735    2.29056   15.84251    0.28484    4.81511   73.73026   -1.68113    8.50000 70032.00000
 1464.90000    8.57645   14.29711   14.01083   14.05367    2.28995   16.02428    0.28188    4.79938   73.79049   -1.69261    8.50000 70032.00000
 1465.00000    8.57778   12.93205   12.84574   12.87249    2.28795   15.53073    0.28180    4.79526   74.10470   -1.71286    8.50000 70032.00000
 1465.10000    8.57848   12.69205   12.65073   12.72822    2.29134   15.12968    0.28133    4.81616   73.72176   -1.79644    8.50000 70032.00000
 1465.20000    8.57814   12.35883   12.32943   12.44580    2.29694   15.02180    0.28015    4.80302   73.96350   -2.14260    8.50000 70032.00000
 1465.30000    8.57654   13.20332   13.37631   13.39977    2.30302   15.38306    0.27870    4.80632   74.01809   -2.07425    8.50000 70032.00000
 1465.40000    8.57274   13.35851   13.32487   13.44741    2.30194   15.23420    0.27518    4.79012   73.75058   -1.80429    8.50000 70032.00000
 1465.50000    8.57437   13.29138   13.50519   13.48801    2.30077   15.48812    0.27247    4.79258   73.71558   -1.65727    8.50000 70032.00000
 1465.60000    8.57903   12.92680   13.18653   13.13124    2.30212   16.01677    0.27424    4.79415   73.65606   -1.40176    8.50000 70032.00000
 1465.70000    8.57874   13.74333   13.88586   13.83707    2.30624   15.56418    0.27383    4.78335   73.13779   -1.25360    8.50000 70032.00000
 1465.80000    8.57577   13.62357   13.70578   13.66257    2.30245   15.31313    0.27194    4.79716   72.16349   -1.33222    8.50000 70032.00000
 1465.90000    8.57366   13.36088   13.41519   13.41387    2.29995   15.00134    0.27200    4.80164   73.11359   -1.41079    8.50000 70032.00000
 1466.00000    8.57137   13.09601   13.19383   13.24699    2.30222   14.90341    0.27452    4.81881   73.19131   -1.79585    8.50000 70032.00000
 1466.10000    8.57218   13.03717   13.08615   13.16784    2.30691   15.04022    0.27458    4.79607   72.53538   -1.39980    8.50000 70032.00000
 1466.20000    8.57389   13.02673   13.11493   13.14717    2.30285   15.11040    0.27170    4.79265   72.95369   -1.70595    8.50000 70032.00000
 1466.30000    8.57444   12.69713   12.84504   12.87795    2.30213   15.19325    0.27055    4.79570   72.95166   -1.94960    8.50000 70032.00000
 1466.40000    8.57451   12.93756   13.09010   13.09377    2.30035   14.67170    0.27213    4.77655   72.91914   -1.95433    8.50000 70032.00000
 1466.50000    8.57497   12.77527   12.82848   12.84804    2.29929   15.18400    0.27332    4.79331   73.13022   -1.95273    8.50000 70032.00000
 1466.60000    8.57419   13.41401   13.54800   13.55661    2.29883   15.16598    0.27375    4.79554   72.83602   -1.94226    8.50000 70032.00000
 1466.70000    8.57714   13.45795   13.62387   13.65033    2.29803   15.48155    0.27602    4.79273   72.80174   -2.02783    8.50000 70032.00000
 1466.80000    8.58139   14.21442   14.72530   14.67314    2.29737   15.28079    0.27439    4.78764   73.14485   -1.95023    8.50000 70032.00000
 1466.90000    8.58194   14.18279   14.64058   14.52582    2.29577   15.30826    0.27308    4.78660   73.02078   -1.89038    8.50000 70032.00000
 1467.00000    8.58333   13.66876   14.14218   13.96239    2.29675   15.05803    0.27390    4.79322   73.67401   -2.13658    8.50000 70032.00000
 1467.10000    8.58433   14.21300   14.59229   14.44609    2.29822   15.24617    0.27629    4.80278   73.66244   -2.33592    8.50000 70032.00000
 1467.20000    8.58203   14.19135   14.49375   14.35566    2.29444   15.66254    0.27299    4.78482   73.75810   -2.24800    8.50000 70032.00000
 1467.30000    8.58235   14.40095   14.73249   14.56976    2.29358   15.53412    0.27286    4.78795   74.00052   -2.01771    8.50000 70032.00000
 1467.40000    8.58278   13.58501   14.03082   13.93300    2.29507   15.34540    0.27160    4.78875   73.66258   -2.12924    8.50000 70032.00000
 1467.50000    8.58488   13.09611   13.64697   13.55034    2.29243   15.30840    0.28014    4.80037   73.45437   -2.00979    8.50000 70032.00000
 1467.60000    8.58616   13.16058   13.73400   13.73897    2.29421   14.99302    0.28207    4.79868   74.09664   -2.08403    8.50000 70032.00000
 1467.70000    8.58735   13.23185   13.87317   13.85116    2.29259   14.47929    0.28211    4.80838   73.97601   -2.02805    8.50000 70032.00000
 1467.80000    8.58652   12.45787   13.21992   13.26037    2.28485   14.84793    0.28343    4.81933   73.93468   -2.04057    8.50000 70032.00000
 1467.90000    8.59044   13.23274   14.16889   14.12085    2.28625   15.09174    0.28267    4.79684   74.19408   -1.93856    8.50000 70032.00000
 1468.00000    8.59234   13.60930   14.62526   14.52278    2.28371   15.24233    0.28206    4.78601   74.09987   -1.94583    8.50000 70032.00000
 1468.10000    8.59317   13.76840   14.89937   14.81077    2.28125   15.40286    0.27742    4.79641   74.07202   -1.57644    8.50000 70032.00000
 1468.20000    8.59354   13.52176   14.69416   14.58994    2.27694   14.82468    0.28065    4.80321   74.43144   -1.74810    8.50000 70032.00000
 1468.30000    8.58895   13.70407   14.77887   14.70681    2.27942   14.66964    0.28054    4.81224   73.94230   -1.71378    8.50000 70032.00000
 1468.40000    8.58913   13.93460   15.04585   14.94747    2.28040   14.47091    0.28091    4.81422   73.49180   -1.82693    8.50000 70032.00000
 1468.50000    8.58984   13.81825   14.91655   14.85177    2.27848   14.65732    0.28071    4.80033   73.32440   -1.94986    8.50000 70032.00000
 1468.60000    8.58849   13.58650   14.71971   14.63250    2.27943   14.83504    0.27937    4.79736   72.79665   -2.23013    8.50000 70032.00000
 1468.70000    8.59167   13.04288   14.06064   13.97831    2.27753   15.07631    0.28102    4.79765   72.78364   -2.40444    8.50000 70032.00000
 1468.80000    8.59099   13.17493   14.18312   14.08873    2.27499   14.61215    0.27905    4.79859   72.76850   -2.32903    8.50000 70032.00000
 1468.90000    8.58754   12.43095   13.14433   13.15990    2.27113   14.50182    0.28178    4.80089   72.75565   -2.14982    8.50000 70032.00000
 1469.00000    8.58635   12.51276   13.13768   13.23702    2.27820   14.32028    0.28161    4.80282   72.86442   -2.35106    8.50000 70032.00000
 1469.10000    8.58507   12.87586   13.50781   13.53088    2.27633   14.67796    0.28073    4.79420   72.76152   -2.18357    8.50000 70032.00000
 1469.20000    8.58430   12.34676   13.03986   13.05377    2.27342   15.25278    0.28009    4.78972   73.50048   -2.06644    8.50000 70032.00000
 1469.30000    8.58723   12.47836   13.18254   13.21098    2.26980   15.27758    0.28375    4.80210   73.83192   -1.93755    8.50000 70032.00000
 1469.40000    8.58960   12.57556   13.35273   13.35077    2.26697   15.62933    0.28229    4.79357   73.23133   -2.09362    8.50000 70032.00000
 1469.50000    8.59050   12.21482   12.87576   12.84639    2.26192   15.71784    0.28368    4.79135   73.91820   -1.84393    8.50000 70032.00000
 1469.60000    8.59091   12.56869   13.16968   13.14576    2.26143   15.64435    0.27868    4.77879   74.47895   -1.72810    8.50000 70032.00000
 1469.70000    8.58831   12.38662   12.88934   12.86263    2.25985   15.64989    0.28053    4.78965   73.81135   -1.71143    8.50000 70032.00000
 1469.80000    8.58548   11.91288   12.47263   12.50142    2.25584   16.32555    0.28268    4.78859   74.48615   -2.01949    8.50000 70032.00000
 1469.90000    8.58801   11.67998   12.27818   12.23050    2.26301   16.55103    0.28167    4.78637   74.90433   -2.33368    8.50000 70032.00000
 1470.00000    8.58944   12.12299   12.16662   12.23228    2.26694   16.48044    0.27984    4.78891   75.18829   -2.21063    8.50000 70032.00000
 1470.10000    8.58959   11.65061   11.69234   11.77999    2.26906   16.39022    0.27785    4.80430   75.07648   -2.18187    8.50000 70032.00000
 1470.20000    8.58862   11.50808   11.52796   11.59286    2.26799   16.04216    0.28077    4.78860   75.08628   -2.23465    8.50000 70032.00000
 1470.30000    8.58721   11.54412   11.62782   11.65268    2.26828   16.54798    0.27956    4.78752   74.83425   -2.34084    8.50000 70032.00000
