~Version ---------------------------------------------------
VERS.   2.0 : CWLS log ASCII Standard -VERSION 2.0
WRAP.    NO : One line per depth step
DLM . SPACE : Column Data Section Delimiter
~Well ------------------------------------------------------
STRT.m          1000.00000 : START DEPTH
STOP.m          2000.00000 : STOP DEPTH
STEP.m             0.10000 : STEP
NULL.             -9999.25 : NULL VALUE
COMP. FORCE 2020 Recreator : 
WELL.   WELL_FORCE_2020_10 : 
FLD .                      : FIELD
LOC .                      : LOCATION
PROV.                      : PROVINCE
CNTY.                      : COUNTY
STAT.                      : STATE
CTRY.                      : COUNTRY
SRVC.                      : SERVICE COMPANY
DATE.                      : DATE
UWI .                      : UNIQUE WELL ID
API .                      : API NUMBER
~Curve Information -----------------------------------------
DEPT                            .m      : 
CALI                            .in     : 
RSHA                            .ohm.m  : 
RMED                            .ohm.m  : 
RDEP                            .ohm.m  : 
RHOB                            .g/cm3  : 
GR                              .gAPI   : 
NPHI                            .v/v    : 
PEF                             .b/e    : 
DTC                             .us/ft  : 
SP                              .mV     : 
BS                              .in     : 
FORCE_2020_LITHOFACIES_LITHOLOGY.code   : 
~Params ----------------------------------------------------
~Other -----------------------------------------------------
~ASCII -----------------------------------------------------
# ...
 1263.20000    8.31857   25.85456   26.29074   26.37460    2.35314   48.81201    0.19705    1.90140   82.24848  -33.87306    8.50000 30000.00000
 1263.30000    8.31501   23.93909   24.02674   24.17403    2.35151   47.75151    0.19261    1.89444   82.90027  -33.80451    8.50000 30000.00000
 1263.40000    8.31106   23.73601   23.96619   24.11868    2.35358   47.65444    0.19266    1.89706   83.55132  -33.48933    8.50000 30000.00000
 1263.50000    8.30996   23.48863   23.68379   23.82649    2.34974   46.87730    0.19463    1.89369   83.09045  -33.31052    8.50000 30000.00000
 1263.60000    8.31448   23.50832   23.66813   23.89560    2.35389   46.53234    0.19419    1.87621   82.48155  -33.98244    8.50000 30000.00000
 1263.70000    8.31589   21.25307   21.35499   21.72138    2.35318   45.72189    0.19233    1.87465   82.50098  -33.23154    8.50000 30000.00000
 1263.80000    8.31677   21.21569   21.30894   21.70848    2.34763   44.93657    0.18959    1.87885   82.25920  -33.73613    8.50000 30000.00000
 1263.90000    8.31922   20.71995   20.80893   20.98979    2.34728   44.95677    0.18940    1.88162   82.83384  -33.53846    8.50000 30000.00000
 1264.00000    8.31477   19.68722   19.58266   19.85690    2.34890   43.43397    0.19383    1.88167   82.90771  -33.50261    8.50000 30000.00000
 1264.10000    8.31647   17.78108   17.91696   18.24509    2.35255   42.25827    0.19259    1.88394   82.86395  -33.19027    8.50000 30000.00000
 1264.20000    8.31844   17.56606   17.61982   17.77564    2.35450   41.59053    0.19350    1.88245   82.67331  -33.51426    8.50000 30000.00000
 1264.30000    8.31519   18.91555   18.84151   19.07805    2.35532   41.82839    0.19367    1.88668   82.95968  -33.53109    8.50000 30000.00000
 1264.40000    8.31991   20.80523   20.48766   20.65082    2.35767   42.10864    0.19501    1.88519   83.57078  -33.71710    8.50000 30000.00000
 1264.50000    8.31799   22.02449   21.21370   21.52561    2.36575   41.60430    0.19244    1.89065   83.52509  -33.69069    8.50000 30000.00000
 1264.60000    8.31674   22.43763   21.59140   22.05743    2.36063   42.32656    0.19217    1.88329   83.71628  -34.07124    8.50000 30000.00000
 1264.70000    8.32216   22.29157   21.00162   21.58424    2.36473   41.90080    0.19300    1.88941   84.05594  -33.66599    8.50000 30000.00000
 1264.80000    8.31807   26.02947   24.75266   25.46824    2.36513   42.28308    0.19450    1.88750   84.07409  -33.38866    8.50000 30000.00000
 1264.90000    8.32168   26.96913   25.61116   26.33307    2.36866   42.58088    0.19332    1.88545   84.08010  -33.35515    8.50000 30000.00000
 1265.00000    8.32684   27.04292   25.96566   26.62027    2.36765   43.19619    0.19391    1.88357   83.88184  -33.16520    8.50000 30000.00000
 1265.10000    8.32595   26.37242   25.24803   25.90239    2.37254   42.56166    0.19324    1.87817   83.84021  -33.45020    8.50000 30000.00000
 1265.20000    8.32632   26.07015   24.95805   25.62996    2.37063   41.80740    0.19478    1.87597   83.38751  -33.69104    8.50000 30000.00000
 1265.30000    8.32205   25.11660   23.88727   24.52963    2.37201   40.77002    0.19271    1.85209   83.55959  -33.67521    8.50000 30000.00000
 1265.40000    8.32456   25.73436   24.33404   24.99566    2.37393   41.70641    0.19448    1.85271   83.60332  -33.41157    8.50000 30000.00000
 1265.50000    8.32897   25.56541   24.00253   24.70597    2.37371   42.69757    0.19557    1.84177   82.44400  -33.45600    8.50000 30000.00000
 1265.60000    8.32555   25.91521   24.35044   25.06615    2.37195   42.38907    0.19445    1.83253   82.75117  -33.22278    8.50000 30000.00000
 1265.70000    8.32519   25.94047   24.40800   25.09204    2.36909   42.35692    0.19400    1.84846   83.41698  -33.49824    8.50000 30000.00000
 1265.80000    8.32606   25.70430   24.30333   24.90229    2.37668   43.76892    0.19788    1.84236   83.64428  -33.98047    8.50000 30000.00000
 1265.90000    8.32646   26.44682   24.96192   25.50728    2.38298   44.61409    0.19621    1.83690   83.70295  -33.75307    8.50000 30000.00000
 1266.00000    8.32446   25.17881   23.71095   24.34148    2.38346   45.36082    0.19655    1.83364   83.64921  -34.05560    8.50000 30000.00000
 1266.10000    8.32517   26.86757   25.53177   26.18804    2.37981   45.63262    0.19369    1.82715   83.25598  -33.77472    8.50000 30000.00000
 1266.20000    8.32376   31.66425   29.38137   30.12590    2.37840   46.17639    0.19490    1.83049   83.26865  -33.69903    8.50000 30000.00000
 1266.30000    8.32523   30.51250   28.36219   29.08731    2.37529   46.66580    0.19246    1.82817   82.99020  -33.62261    8.50000 30000.00000
 1266.40000    8.32522   29.07715   26.96923   27.60300    2.37785   46.31380    0.19536    1.83239   82.26904  -33.84686    8.50000 30000.00000
 1266.50000    8.32050   28.07045   26.11890   26.76934    2.37719   46.24603    0.19331    1.83151   81.90052  -33.59852    8.50000 30000.00000
 1266.60000    8.32739   26.79889   25.31371   25.78761    2.36794   46.14982    0.19316    1.82375   82.08097  -33.25242    8.50000 30000.00000
 1266.70000    8.32944   26.95882   25.60479   25.97862    2.37207   45.36926    0.19338    1.82554   81.85383  -33.27672    8.50000 30000.00000
 1266.80000    8.32803   26.37686   25.20837   25.43052    2.36755   45.60100    0.19433    1.82445   81.97761  -33.41258    8.50000 30000.00000
 1266.90000    8.33161   22.59267   21.46073   21.54841    2.36260   45.59990    0.19197    1.82065   81.97786  -33.58866    8.50000 30000.00000
 1267.00000    8.32929   22.75032   21.41383   21.63091    2.35940   45.23710    0.19104    1.82802   82.60112  -34.10199    8.50000 30000.00000
 1267.10000    8.33042   22.11140   20.75586   20.90514    2.36444   45.25400    0.18837    1.82231   82.96217  -34.62930    8.50000 30000.00000
 1267.20000    8.32928   21.68327   20.31541   20.49937    2.36059   45.15702    0.18816    1.83474   83.08861  -34.16164    8.50000 30000.00000
 1267.30000    8.32908   21.33298   19.95037   20.14614    2.36567   45.24775    0.19097    1.83160   83.14847  -34.11365    8.50000 30000.00000
 1267.40000    8.33231   21.48536   20.04946   20.30802    2.36127   45.76375    0.19154    1.83734   82.98972  -33.70086    8.50000 30000.00000
 1267.50000    8.33093   21.28917   19.98201   20.22124    2.35743   45.00907    0.19244    1.83263   82.94711  -33.79310    8.50000 30000.00000
 1267.60000    8.33046   21.86901   20.68669   20.94003    2.35440   44.48440    0.19313    1.83750   83.18895  -33.76675    8.50000 30000.00000
 1267.70000    8.33486   21.62382   20.45661   20.71876    2.35333   43.90763    0.19542    1.84500   82.74667  -33.97980    8.50000 30000.00000
 1267.80000    8.33566   21.50869   20.19105   20.48036    2.35550   45.15195    0.19418    1.83907   82.25315  -33.36442    8.50000 30000.00000
 1267.90000    8.33366   23.07782   21.99039   22.25186    2.35056   44.86609    0.19559    1.84360   81.89779  -32.98885    8.50000 30000.00000
 1268.00000    8.33290   22.44781   21.37279   21.71013    2.35037   45.17806    0.19547    1.85087   82.36472  -33.23833    8.50000 30000.00000
 1268.10000    8.33402   22.24646   21.15716   21.52724    2.34924   44.65928    0.19738    1.85549   81.68407  -33.54286    8.50000 30000.00000
 1268.20000    8.33414   20.43562   19.25701   19.58535    2.34244   45.66427    0.19868    1.86226   82.05532  -33.90942    8.50000 30000.00000
 1268.30000    8.33393   21.25102   20.21577   20.67469    2.34643   46.03818    0.19896    1.85835   82.17606  -34.34214    8.50000 30000.00000
 1268.40000    8.33406   24.42647   23.36328   23.68069    2.34140   45.86365    0.20242    1.86751   82.31597  -34.28261    8.50000 30000.00000
 1268.50000    8.33126   24.53714   23.48062   23.84015    2.33630   46.48522    0.20110    1.87058   82.84144  -33.96238    8.50000 30000.00000
 1268.60000    8.33286   23.90200   22.86914   23.35222    2.33339   47.28181    0.20237    1.88378   82.12663  -33.94773    8.50000 30000.00000
 1268.70000    8.32877   24.53340   23.58377   24.07617    2.33579   47.69878    0.20481    1.87660   81.96133  -34.47476    8.50000 30000.00000
