~Version ---------------------------------------------------
VERS.   2.0 : CWLS log ASCII Standard -VERSION 2.0
WRAP.    NO : One line per depth step
DLM . SPACE : Column Data Section Delimiter
~Well ------------------------------------------------------
STRT.m          1000.00000 : START DEPTH
STOP.m          2000.00000 : STOP DEPTH
STEP.m             0.10000 : STEP
NULL.             -9999.25 : NULL VALUE
COMP. FORCE 2020 Recreator : 
WELL.   WELL_FORCE_2020_02 : 
FLD .                      : FIELD
LOC .                      : LOCATION
PROV.                      : PROVINCE
CNTY.                      : COUNTY
STAT.                      : STATE
CTRY.                      : COUNTRY
SRVC.                      : SERVICE COMPANY
DATE.                      : DATE
UWI .                      : UNIQUE WELL ID
API .                      : API NUMBER
~Curve Information -----------------------------------------
DEPT                            .m      : 
CALI                            .in     : 
RSHA                            .ohm.m  : 
RMED                            .ohm.m  : 
RDEP                            .ohm.m  : 
RHOB                            .g/cm3  : 
GR                              .gAPI   : 
NPHI                            .v/v    : 
PEF                             .b/e    : 
DTC                             .us/ft  : 
SP                              .mV     : 
BS                              .in     : 
FORCE_2020_LITHOFACIES_LITHOLOGY.code   : 
~Params ----------------------------------------------------
~Other -----------------------------------------------------
~ASCII -----------------------------------------------------
# ...
 1067.20000    8.58095 2588.87839 2663.28221 2626.24797    2.96662   11.86509    0.02048    4.95168   49.83323    5.37794    8.50000 86000.00000
 1067.30000    8.57982 2537.90996 2601.79710 2576.41492    2.96505   11.79657    0.02110    4.95311   49.85649    5.42364    8.50000 86000.00000
 1067.40000    8.58267 2420.46571 2475.56108 2450.07307    2.96802   11.75535    0.02106    4.94568   49.79469    5.87895    8.50000 86000.00000
 1067.50000    8.58296 2394.58198 2459.04989 2437.70294    2.96744   11.71643    0.02005    4.96235   49.97311    5.76847    8.50000 86000.00000
 1067.60000    8.58287 2255.22578 2331.52683 2311.31085    2.96964   11.87863    0.01955    4.96926   50.05989    5.61486    8.50000 86000.00000
 1067.70000    8.58243 2245.61165 2324.42571 2303.31567    2.97001   11.63102    0.02046    4.97174   50.11459    5.74026    8.50000 86000.00000
 1067.80000    8.57807 2326.34796 2421.04111 2383.55036    2.96849   11.60183    0.02055    4.95586   50.02534    5.76031    8.50000 86000.00000
 1067.90000    8.57934 2141.85693 2259.82313 2227.82664    2.96825   11.56145    0.02078    4.96999   50.11276    5.65884    8.50000 86000.00000
 1068.00000    8.57957 2741.99482 2851.68751 2831.27051    2.96592   11.60537    0.02125    4.96951   50.07285    5.61089    8.50000 86000.00000
 1068.10000    8.58116 2640.77366 2777.29881 2752.17370    2.96634   11.82303    0.02154    4.96788   49.93914    5.57176    8.50000 86000.00000
 1068.20000    8.58166 2520.58468 2655.18864 2631.30340    2.96632   11.89747    0.02096    4.97286   49.76489    5.77436    8.50000 86000.00000
 1068.30000    8.58230 2500.72259 2631.90235 2594.36783    2.96555   11.79037    0.02042    4.98590   49.63031    5.77804    8.50000 86000.00000
 1068.40000    8.58208 2306.61680 2424.19149 2383.28297    2.96706   11.92590    0.02021    4.99616   49.57610    5.69158    8.50000 86000.00000
 1068.50000    8.57667 2224.37174 2337.08560 2301.46179    2.96505   12.23247    0.01980    5.00223   49.73040    5.72178    8.50000 86000.00000
 1068.60000    8.57826 2465.62631 2570.33004 2520.80211    2.96550   12.33491    0.02038    4.99717   49.68809    5.79327    8.50000 86000.00000
 1068.70000    8.57974 2459.32049 2557.07976 2504.95663    2.96531   12.33734    0.02105    5.00602   49.76755    5.67463    8.50000 86000.00000
 1068.80000    8.57868 2224.73467 2192.14979 2181.78491    2.96676   12.49756    0.02043    5.01388   49.87012    5.79399    8.50000 86000.00000
 1068.90000    8.57939 2290.36340 2258.20231 2248.04476    2.96452   12.24650    0.01953    5.00833   50.02267    5.67824    8.50000 86000.00000
 1069.00000    8.58044 2375.18460 2336.62040 2328.83767    2.96300   12.06166    0.02027    5.00848   49.89769    5.61859    8.50000 86000.00000
 1069.10000    8.57836 2303.63173 2281.00479 2270.53143    2.96304   11.92989    0.02061    5.00243   49.96815    5.54896    8.50000 86000.00000
 1069.20000    8.57984 2238.07458 2229.94022 2208.56913    2.95994   12.19196    0.01975    4.99979   49.88785    5.64246    8.50000 86000.00000
 1069.30000    8.58246 2326.55794 2317.33797 2299.82605    2.95947   12.52461    0.02012    4.99711   49.94178    5.47196    8.50000 86000.00000
 1069.40000    8.58391 2238.95382 2243.04349 2222.76480    2.95904   12.35504    0.01959    5.01873   49.90961    5.38528    8.50000 86000.00000
 1069.50000    8.58279 2314.10225 2306.87370 2286.03267    2.95807   12.67176    0.02037    5.04168   49.93723    5.27980    8.50000 86000.00000
 1069.60000    8.58265 2300.47117 2283.96006 2260.56994    2.95919   12.66461    0.02141    5.03709   49.79365    5.36773    8.50000 86000.00000
 1069.70000    8.58385 2315.91380 2298.25570 2274.22498    2.95874   12.76045    0.02167    5.02831   49.78854    5.40221    8.50000 86000.00000
 1069.80000    8.58372 2288.59869 2278.91483 2252.17612    2.95662   12.73298    0.02132    5.02199   49.82100    5.38259    8.50000 86000.00000
 1069.90000    8.58452 2156.42806 2141.97264 2129.50121    2.95639   12.90835    0.02135    5.02866   49.92751    5.31784    8.50000 86000.00000
 1070.00000    8.58584 2217.94835 2209.33890 2201.49976    2.95407   13.08797    0.02261    5.02723   49.91325    5.48885    8.50000 86000.00000
 1070.10000    8.58648 1627.30127 1619.87812 1603.37039    2.95359   13.23294    0.02276    5.03818   50.07780    5.44291    8.50000 86000.00000
 1070.20000    8.58533 1671.30403 1658.46779 1642.76141    2.95161   13.22571    0.02330    5.04868   50.05272    5.41510    8.50000 86000.00000
 1070.30000    8.58629 1691.37466 1685.09921 1661.46243    2.95249   13.08189    0.02365    5.04375   50.20275    5.34496    8.50000 86000.00000
 1070.40000    8.58422 1789.05528 1769.04755 1739.61080    2.95431   12.75141    0.02318    5.04628   50.29340    5.42948    8.50000 86000.00000
 1070.50000    8.58325 1838.94673 1812.40056 1782.59186    2.95125   13.19884    0.02340    5.04472   50.54231    5.50948    8.50000 86000.00000
 1070.60000    8.58921 1896.45214 1880.75860 1839.31278    2.95339   13.07359    0.02295    5.03561   50.63894    5.55577    8.50000 86000.00000
 1070.70000    8.58793 1770.41368 1793.69212 1745.17364    2.95389   12.94714    0.02379    5.03745   50.69101    5.54544    8.50000 86000.00000
 1070.80000    8.58371 2191.12993 2230.93848 2180.26438    2.95521   12.90468    0.02361    5.03865   50.60351    5.65030    8.50000 86000.00000
 1070.90000    8.58452 2014.02048 2050.71234 1999.51016    2.95560   12.63987    0.02404    5.03542   50.54788    5.74075    8.50000 86000.00000
 1071.00000    8.58525 2009.40625 2054.61727 2003.40499    2.95873   13.07338    0.02561    5.03340   50.52532    5.74724    8.50000 86000.00000
 1071.10000    8.58494 1917.36665 1972.04527 1918.17555    2.96212   13.20717    0.02427    5.02570   50.46335    5.78100    8.50000 86000.00000
 1071.20000    8.58890 2503.20531 2506.78450 2456.65095    2.95976   13.21379    0.02474    5.02923   50.64149    5.87510    8.50000 86000.00000
 1071.30000    8.58942 2733.81347 2776.91877 2723.81835    2.95901   12.93995    0.02518    5.02591   50.64606    5.65158    8.50000 86000.00000
 1071.40000    8.59180 2753.35585 2820.67818 2765.10752    2.95976   12.64771    0.02510    5.02954   50.68510    5.63375    8.50000 86000.00000
 1071.50000    8.59127 2736.37802 2807.19094 2749.32548    2.96306   12.90295    0.02481    5.01603   50.73493    5.73142    8.50000 86000.00000
 1071.60000    8.59095 2642.04443 2722.38112 2663.94353    2.96073   12.84464    0.02439    4.99590   50.78250    5.54084    8.50000 86000.00000
 1071.70000    8.59369 2687.42799 2763.81629 2699.29188    2.96178   13.06651    0.02349    4.99915   50.86381    5.48977    8.50000 86000.00000
 1071.80000    8.59037 2726.84281 2816.71642 2746.00748    2.95908   12.69106    0.02281    5.00396   50.74828    5.62574    8.50000 86000.00000
 1071.90000    8.58880 2736.19381 2825.60993 2755.24495    2.95773   12.81918    0.02241    5.00639   50.66083    5.75072    8.50000 86000.00000
 1072.00000    8.58936 2804.47812 2895.85591 2824.81303    2.95828   12.89582    0.02083    5.01261   50.70718    5.72843    8.50000 86000.00000
 1072.10000    8.58508 2763.25445 2853.27817 2776.45961    2.96056   13.02863    0.02077    5.01808   50.78639    5.40238    8.50000 86000.00000
 1072.20000    8.58468 2796.92908 2890.21177 2813.39687    2.96094   12.97797    0.02073    5.01761   50.67955    5.56646    8.50000 86000.00000
 1072.30000    8.58448 2938.37403 3016.97899 2940.57927    2.96106   13.06062    0.02090    5.00906   50.67472    5.46779    8.50000 86000.00000
 1072.40000    8.58547 2917.98757 3005.31196 2933.16819    2.96088   13.55110    0.02070    5.00668   50.71929    5.61637    8.50000 86000.00000
 1072.50000    8.58461 2847.56192 2944.79530 2893.91173    2.96159   13.75249    0.02159    5.00784   50.67109    5.65835    8.50000 86000.00000
 1072.60000    8.58643 2859.24627 2979.12256 2933.66899    2.96592   13.35149    0.02162    5.02021   50.48822    5.77157    8.50000 86000.00000
 1072.70000    8.58121 2847.87141 2961.28339 2928.34646    2.96561   13.19626    0.02194    5.01791   50.38435    5.62548    8.50000 86000.00000
