~Version ---------------------------------------------------
VERS.   2.0 : CWLS log ASCII Standard -VERSION 2.0
WRAP.    NO : One line per depth step
DLM . SPACE : Column Data Section Delimiter
~Well ------------------------------------------------------
STRT.m          1000.00000 : START DEPTH
STOP.m          2000.00000 : STOP DEPTH
STEP.m             0.10000 : STEP
NULL.             -9999.25 : NULL VALUE
COMP. FORCE 2020 Recreator : 
WELL.   WELL_FORCE_2020_06 : 
FLD .                      : FIELD
LOC .                      : LOCATION
PROV.                      : PROVINCE
CNTY.                      : COUNTY
STAT.                      : STATE
CTRY.                      : COUNTRY
SRVC.                      : SERVICE COMPANY
DATE.                      : DATE
UWI .                      : UNIQUE WELL ID
API .                      : API NUMBER
~Curve Information -----------------------------------------
DEPT                            .m      : 
CALI                            .in     : 
RSHA                            .ohm.m  : 
RMED                            .ohm.m  : 
RDEP                            .ohm.m  : 
RHOB                            .g/cm3  : 
GR                              .gAPI   : 
NPHI                            .v/v    : 
PEF                             .b/e    : 
DTC                             .us/ft  : 
SP                              .mV     : 
BS                              .in     : 
FORCE_2020_LITHOFACIES_LITHOLOGY.code   : 
~Params ----------------------------------------------------
~Other -----------------------------------------------------
~ASCII -----------------------------------------------------
# ...
 1134.40000    8.33766   26.37634   26.15446   26.88988    2.35693   46.00711    0.20769    1.82734   81.45819  -34.52923    8.50000 30000.00000
 1134.50000    8.33463   25.29208   25.17823   25.93861    2.35276   46.05479    0.20979    1.83205   81.89879  -34.71713    8.50000 30000.00000
 1134.60000    8.33681   25.26805   25.28870   26.01649    2.35046   45.70997    0.21061    1.83360   81.44761  -35.24438    8.50000 30000.00000
 1134.70000    8.33750   25.65376   25.94962   26.50418    2.35139   44.66018    0.21260    1.84400   80.61510  -35.16586    8.50000 30000.00000
 1134.80000    8.33338   26.23319   26.43402   26.98997   -9999.25   44.65985    0.21154    1.85026   80.30459  -34.86901    8.50000 30000.00000
 1134.90000    8.32928   25.82772   25.96877   26.39178    2.35194   45.02219    0.21339    1.84993   80.39172  -35.20815    8.50000 30000.00000
 1135.00000    8.32945   25.84536   26.14602   26.47055    2.35307   44.95356    0.21464    1.84771   80.07248  -35.41452    8.50000 30000.00000
 1135.10000    8.32925   22.39357   22.92183   22.95390    2.35716   44.41483    0.21607    1.85706   80.22575  -35.75977    8.50000 30000.00000
 1135.20000    8.33462   22.34860   22.83588   22.87353    2.36409   44.80518    0.21424    1.86014   80.79441  -35.31109    8.50000 30000.00000
 1135.30000    8.33399   22.23141   22.55209   22.65274    2.36050   45.34347    0.21864    1.85225   81.11173  -35.01146    8.50000 30000.00000
 1135.40000    8.33412   22.07747   22.56161   22.66380    2.35668   45.39309    0.21640    1.85387   81.20103  -34.92174    8.50000 30000.00000
 1135.50000    8.32853   26.11302   27.65804   27.58470    2.36073   44.97673    0.21494    1.86084   80.81216  -34.90353    8.50000 30000.00000
 1135.60000    8.32313   25.46109   27.10840   26.84832    2.36195   44.37638    0.21524    1.85818   80.75562  -35.30036    8.50000 30000.00000
 1135.70000    8.32027   24.83346   26.05110   25.91889    2.36261   44.14146    0.21352    1.86443   80.77507  -34.97985    8.50000 30000.00000
 1135.80000    8.32419   25.17032   26.48027   26.14920    2.36191   44.07137    0.21453    1.86412   80.37701  -34.77046    8.50000 30000.00000
 1135.90000    8.32254   25.36579   26.72970   26.37106    2.36391   44.36575    0.21639    1.84672   80.72717  -34.60757    8.50000 30000.00000
 1136.00000    8.32160   25.03568   27.19561   26.61818    2.36263   44.31955    0.21460    1.84441   81.26417  -34.81327    8.50000 30000.00000
 1136.10000    8.31860   24.48986   26.80665   26.20161    2.36006   44.86443    0.21408    1.83895   81.33170  -35.80168    8.50000 30000.00000
 1136.20000    8.32104   25.14005   27.68845   26.91686    2.35521   45.68375    0.21479    1.85143   81.97336  -35.24048    8.50000 30000.00000
 1136.30000    8.32497   24.59576   -9999.25   26.45018    2.34908   45.39250    0.21350    1.85565   81.81622  -34.61600    8.50000 30000.00000
 1136.40000    8.32057   25.30464   -9999.25   27.19732    2.34963   44.68183    0.20980    1.85482   82.06866  -34.88637    8.50000 30000.00000
 1136.50000    8.31951   25.64470   -9999.25   27.55546    2.34833   44.62695    0.20888    1.84971   82.28578  -35.38003    8.50000 30000.00000
 1136.60000    8.31769   25.86907   28.34497   27.75392    2.35090   45.22039    0.20749    1.84690   81.40827  -34.99514    8.50000 30000.00000
 1136.70000    8.31739   25.50752   27.93742   27.39587    2.35248   43.94592    0.20599    1.84376   82.04859  -34.79028    8.50000 30000.00000
 1136.80000    8.31680   24.23246   26.48031   25.96325    2.35265   43.16633    0.20487    1.83479   82.52166  -34.39740    8.50000 30000.00000
 1136.90000    8.31959   24.00991   26.25013   25.82614    2.35592   42.45722    0.20444    1.82852   82.79351  -34.84312    8.50000 30000.00000
 1137.00000    8.32067   23.61933   25.82128   25.44986    2.35770   41.84018    0.20509    1.82739   82.18876  -34.32749    8.50000 30000.00000
 1137.10000    8.32449   23.94857   26.01895   25.57496    2.35560   41.53890    0.20299    1.83414   82.48479  -34.89650    8.50000 30000.00000
 1137.20000    8.32165   23.82147   25.82786   25.39829    2.35582   41.78172    0.20325    1.83850   81.90892  -34.58272    8.50000 30000.00000
 1137.30000    8.31663   23.35594   25.39397   24.98361    2.35496   40.93188    0.20233    1.83741   82.13851  -34.54618    8.50000 30000.00000
 1137.40000    8.31608   23.69215   25.89397   25.44319    2.35326   40.27033    0.19855    1.84515   82.02371  -34.84191    8.50000 30000.00000
 1137.50000    8.31589   24.10091   26.47502   26.05810    2.35702   40.18895    0.20091    1.85150   82.23767  -34.90920    8.50000 30000.00000
 1137.60000    8.31971   20.68665   21.97245   21.68041    2.35177   40.44261    0.20123    1.85288   82.70236  -35.15154    8.50000 30000.00000
 1137.70000    8.32399   21.12636   22.22098   21.96334    2.35041   41.23992    0.20111    1.85964   82.33912  -35.03331    8.50000 30000.00000
 1137.80000    8.32411   19.67739   20.85629   20.55061    2.35306   40.71063    0.19796    1.84852   82.59297  -35.19034    8.50000 30000.00000
 1137.90000    8.32352   18.96698   19.97813   19.75486    2.35782   41.60293    0.19765    1.85082   83.07359  -35.52320    8.50000 30000.00000
 1138.00000    8.32297   19.11676   20.09055   19.89410    2.35791   41.83695    0.19634    1.85830   82.78467  -35.77116    8.50000 30000.00000
 1138.10000    8.32888   18.85518   19.33423   19.40116    2.35370   42.71547    0.20024    1.85660   82.62560  -35.91551    8.50000 30000.00000
 1138.20000    8.33079   19.91319   20.35444   20.38626    2.34818   42.92922    0.20000    1.84888   82.27763  -35.58776    8.50000 30000.00000
 1138.30000    8.32994   18.88999   19.10155   19.31075    2.35414   42.45940    0.20061    1.83388   81.76042  -36.12245    8.50000 30000.00000
 1138.40000    8.32763   20.70485   21.11107   21.18306    2.35883   43.05466    0.20181    1.82614   81.99936  -36.49402    8.50000 30000.00000
 1138.50000    8.32794   20.55797   20.90122   21.02126    2.35972   43.83239    0.20256    1.82974   81.76822  -36.15863    8.50000 30000.00000
 1138.60000    8.32686   20.61511   20.99169   21.08301    2.35778   43.24859    0.20086    1.82097   81.66253  -36.27594    8.50000 30000.00000
 1138.70000    8.33095   21.51189   22.02105   21.90602    2.35733   42.87694    0.20054    1.82251   81.94667  -36.46612    8.50000 30000.00000
 1138.80000    8.32894   22.06491   22.45792   22.35083    2.35419   43.89954    0.20225    1.82629   81.82287  -36.39792    8.50000 30000.00000
 1138.90000    8.32527   21.75282   22.04909   21.97476    2.35204   45.36180    0.20337    1.83915   82.12286  -36.58297    8.50000 30000.00000
 1139.00000    8.32243   21.61203   21.89691   21.71976    2.34612   46.06335    0.20289    1.83631   81.85904  -36.47854    8.50000 30000.00000
 1139.10000    8.32418   21.57202   22.03191   21.83770    2.34380   45.96357    0.20179    1.83973   82.30725  -36.62685    8.50000 30000.00000
 1139.20000    8.31947   20.94615   21.32600   21.25754    2.34493   45.86900    0.20133    1.83740   81.92022  -36.17624    8.50000 30000.00000
 1139.30000    8.32565   22.47687   22.88344   22.80544    2.34350   46.53255    0.20174    1.82609   82.40858  -36.62816    8.50000 30000.00000
 1139.40000    8.32769   23.36438   24.00270   23.82379    2.34229   46.27861    0.20004    1.82818   82.02823  -37.25258    8.50000 30000.00000
 1139.50000    8.32739   23.71355   24.40526   24.27944    2.34238   47.04394    0.20325    1.82885   82.22029  -36.97234    8.50000 30000.00000
 1139.60000    8.32805   23.11180   23.51901   23.37112    2.33722   46.85914    0.20313    1.82875   82.07818  -37.18528    8.50000 30000.00000
 1139.70000    8.33114   22.86939   23.42270   23.25520    2.34000   46.62898    0.20261    1.81953   81.90153  -36.54401    8.50000 30000.00000
 1139.80000    8.32967   23.03186   23.88610   23.69985    2.34493   45.49947    0.20260    1.81596   82.26584  -36.61917    8.50000 30000.00000
 1139.90000    8.33067   22.76077   23.67435   23.51097    2.34368   46.46104    0.20326    1.82050   82.54651  -36.92105    8.50000 30000.00000
