~Version ---------------------------------------------------
VERS.   2.0 : CWLS log ASCII Standard -VERSION 2.0
WRAP.    NO : One line per depth step
DLM . SPACE : Column Data Section Delimiter
~Well ------------------------------------------------------
STRT.m          1000.00000 : START DEPTH
STOP.m          2000.00000 : STOP DEPTH
STEP.m             0.10000 : STEP
NULL.             -9999.25 : NULL VALUE
COMP. FORCE 2020 Recreator : 
WELL.   WELL_FORCE_2020_06 : 
FLD .                      : FIELD
LOC .                      : LOCATION
PROV.                      : PROVINCE
CNTY.                      : COUNTY
STAT.                      : STATE
CTRY.                      : COUNTRY
SRVC.                      : SERVICE COMPANY
DATE.                      : DATE
UWI .                      : UNIQUE WELL ID
API .                      : API NUMBER
~Curve Information -----------------------------------------
DEPT                            .m      : 
CALI                            .in     : 
RSHA                            .ohm.m  : 
RMED                            .ohm.m  : 
RDEP                            .ohm.m  : 
RHOB                            .g/cm3  : 
GR                              .gAPI   : 
NPHI                            .v/v    : 
PEF                             .b/e    : 
DTC                             .us/ft  : 
SP                              .mV     : 
BS                              .in     : 
FORCE_2020_LITHOFACIES_LITHOLOGY.code   : 
~Params ----------------------------------------------------
~Other -----------------------------------------------------
~ASCII -----------------------------------------------------
# ...
 1862.30000    8.58314 1795.75346 1823.10769 1826.87291    2.96500   12.53589    0.02018    4.95729   49.63046    5.79605    8.50000 86000.00000
 1862.40000    8.58091 1826.16893 1852.25309 1843.31699    2.96762   12.49726    0.02037    4.95023   49.49669    5.71499    8.50000 86000.00000
 1862.50000    8.57667 1965.86298 2041.24192 2003.76570    2.96600   12.41156    0.02037    4.95892   49.65181    5.67945    8.50000 86000.00000
 1862.60000    8.57654 1965.09307 2024.08164 1996.27311    2.96502   12.28416    0.01991    4.96574   49.44655    5.42822    8.50000 86000.00000
 1862.70000    8.57933 2322.75017 2389.20761 2358.26645    2.96613   12.45297    0.01963    4.97610   49.35999    5.55365    8.50000 86000.00000
 1862.80000    8.58144 3127.08552 3173.24463 3136.36847    2.96641   12.66665    0.01962    4.97068   49.41950    5.54636    8.50000 86000.00000
 1862.90000    8.58074 3117.84556 3164.17012 3129.81735    2.96245   12.97452    0.01974    4.97358   49.48470    5.46670    8.50000 86000.00000
 1863.00000    8.58141 3161.42382 3213.36808 3174.36947    2.96368   12.86004    0.01910    4.96667   49.39459    5.36798    8.50000 86000.00000
 1863.10000    8.57913 3146.70843 3233.95393 3179.63330    2.96367   12.76894    0.01839    4.97939   49.50954    5.16424    8.50000 86000.00000
 1863.20000    8.57947 3281.91758 3402.78969 3334.39567    2.96288   13.13581    0.01789    4.97211   49.51567    5.20147    8.50000 86000.00000
 1863.30000    8.57801 3270.84888 3417.36988 3340.77126    2.96584   13.32268    0.01923    4.96723   49.55776    5.10713    8.50000 86000.00000
 1863.40000    8.57458 3544.85802 3724.55947 3653.17612    2.96840   12.94781    0.01851    4.96067   49.65759    5.13112    8.50000 86000.00000
 1863.50000    8.57507 3575.93343 3749.42682 3682.05645    2.96634   12.89260    0.01858    4.95852   49.67695    5.08801    8.50000 86000.00000
 1863.60000    8.57331 3437.13983 3562.61389 3500.84043    2.96504   12.98695    0.01881    4.94903   49.78015    5.00329    8.50000 86000.00000
 1863.70000    8.57458 3329.67378 3478.08244 3417.10735    2.96635   13.02240    0.01856    4.94309   49.57645    4.81560    8.50000 86000.00000
 1863.80000    8.57324 3356.86810 3509.40715 3448.53391    2.96506   12.91843    0.01821    4.94356   49.47779    5.02095    8.50000 86000.00000
 1863.90000    8.56960 3614.76261 3767.77306 3703.19167    2.96805   13.07932    0.01705    4.94020   49.52094    5.10566    8.50000 86000.00000
 1864.00000    8.57190 3620.68393 3751.72281 3696.91695    2.96743   13.14125    0.01697    4.93504   49.57754    5.23315    8.50000 86000.00000
 1864.10000    8.57378 3725.93825 3875.28362 3819.44641    2.96580   13.09599    0.01689    4.93363   49.57694    5.26570    8.50000 86000.00000
 1864.20000    8.57586 3756.63781 3907.43409 3848.29046    2.96164   13.11758    0.01609    4.92251   49.34985    5.31597    8.50000 86000.00000
 1864.30000    8.57816 3656.86623 3781.55909 3718.39773    2.96245   13.00672    0.01675    4.94579   49.22855    5.40630    8.50000 86000.00000
 1864.40000    8.57885 3584.22594 3706.38933 3647.62106    2.96319   12.55970    0.01757    4.94414   49.23042    5.53237    8.50000 86000.00000
 1864.50000    8.57984 3549.68489 3675.25721 3622.00877    2.96255   12.64973    0.01744    4.93560   49.32149    5.78428    8.50000 86000.00000
 1864.60000    8.58132 3299.30752 3379.96899 3339.41234    2.96189   12.39743    0.01722    4.92819   49.20718    5.85356    8.50000 86000.00000
 1864.70000    8.58295 3608.09271 3668.82892 3621.70458    2.96296   12.58918    0.01621    4.93408   49.46931    6.04260    8.50000 86000.00000
 1864.80000    8.58121 3264.06038 3318.27096 3272.88071    2.96494   12.52830    0.01641    4.92255   49.42687    6.04738    8.50000 86000.00000
 1864.90000    8.58007 2453.59013 2539.90372 2498.90828    2.96323   12.45710    0.01666    4.92652   49.62040    6.35705    8.50000 86000.00000
 1865.00000    8.57776 2465.52743 2554.46579 2509.66554    2.96410   12.12216    0.01681    4.91711   49.71572    6.26450    8.50000 86000.00000
 1865.10000    8.58015 2502.62651 2587.26000 2540.89841    2.96300   12.34021    0.01628    4.93397   49.71903    6.38581    8.50000 86000.00000
 1865.20000    8.58515 2642.36727 2681.66404 2655.43118    2.96290   12.06254    0.01718    4.94820   49.77967    6.48775    8.50000 86000.00000
 1865.30000    8.58299 2562.63125 2551.67083 2533.15890    2.96429   12.05835    0.01816    4.95960   49.86670    6.59504    8.50000 86000.00000
 1865.40000    8.58525 2483.67130 2441.09547 2434.18101    2.96242   11.95891    0.01762    4.96068   49.83870    6.55874    8.50000 86000.00000
 1865.50000    8.58872 2209.17178 2130.46625 2119.41763    2.96348   12.04115    0.01784    4.96241   49.83968    6.34681    8.50000 86000.00000
 1865.60000    8.58911 2210.86666 2130.37076 2121.45684    2.96496   11.91411    0.01778    4.95615   49.82380    6.46665    8.50000 86000.00000
 1865.70000    8.59189 2220.67316 2144.30209 2138.76555    2.96890   12.09798    0.01684    4.96744   50.07314    6.64601    8.50000 86000.00000
 1865.80000    8.59107 2226.42289 2144.65638 2142.57853    2.96656   11.88780    0.01727    4.96447   50.24595    6.80744    8.50000 86000.00000
 1865.90000    8.59039 2659.75891 2584.45269 2584.40440    2.96500   12.09207    0.01761    4.95942   50.51720    6.71725    8.50000 86000.00000
 1866.00000    8.59076 2416.98780 2345.44326 2350.04548    2.96282   11.95232    0.01860    4.95087   50.31236    6.40010    8.50000 86000.00000
 1866.10000    8.58800 2358.67269 2295.66557 2296.47376    2.96165   11.78191    0.01851    4.94779   50.25569    6.24252    8.50000 86000.00000
 1866.20000    8.58775 2337.28981 2240.72838 2251.19254    2.96125   11.75811    0.01835    4.96350   50.08711    6.27382    8.50000 86000.00000
 1866.30000    8.58669 3442.80550 3342.90085 3422.40217    2.96518   11.75426    0.01906    4.97439   50.31614    6.28740    8.50000 86000.00000
 1866.40000    8.58613 3448.45516 3344.08927 3426.26954    2.96627   11.36111    0.01947    4.96844   50.38276    6.15673    8.50000 86000.00000
 1866.50000    8.58388 3511.79913 3411.18715 3488.00025    2.96853   12.04480    0.01860    4.96694   50.60985    6.14276    8.50000 86000.00000
 1866.60000    8.58373 3614.48450 3512.68299 3581.84197    2.96797   12.01820    0.01929    4.98308   50.37510    5.88702    8.50000 86000.00000
 1866.70000    8.58471 3605.90169 3505.07850 3577.43633    2.96910   12.17497    0.01962    4.98555   50.15881    5.60046    8.50000 86000.00000
 1866.80000    8.58724 3244.14160 3181.08033 3252.49695    2.96928   12.05895    0.02024    4.98124   50.04249    5.53312    8.50000 86000.00000
 1866.90000    8.58893 3330.20604 3265.60545 3347.13143    2.96882   12.33711    0.02002    4.97990   50.03566    5.76748    8.50000 86000.00000
 1867.00000    8.58500 3365.97831 3288.29272 3368.41883    2.96917   12.64874    0.02099    4.98286   49.97539    5.63040    8.50000 86000.00000
 1867.10000    8.58534 3348.24514 3268.47114 3351.08948    2.97166   12.80870    0.02081    4.98716   50.00551    5.61492    8.50000 86000.00000
 1867.20000    8.58266 3358.76286 3259.60679 3353.63467    2.96845   12.74746    0.02120    4.97747   49.96287    5.39786    8.50000 86000.00000
 1867.30000    8.58057 3151.42838 3073.16952 3163.31154    2.96926   12.71859    0.02060    4.96558   49.94433    5.57968    8.50000 86000.00000
 1867.40000    8.58212 3014.71808 2946.92706 3043.01307    2.96812   12.45590    0.02074    4.95892   50.02692    5.51644    8.50000 86000.00000
 1867.50000    8.58027 3036.92523 2971.27415 3069.59374    2.96715   12.48520    0.02000    4.95137   50.09512    5.34115    8.50000 86000.00000
 1867.60000    8.58270 3195.99632 3151.62547 3247.27495    2.96611   12.73535    0.02004    4.95437   50.10124    5.69338    8.50000 86000.00000
 1867.70000    8.58189 3135.70034 3106.97433 3191.64487    2.96694   12.83832    0.01998    4.95928   50.10315    5.72132    8.50000 86000.00000
 1867.80000    8.58063 3182.36358 3172.07676 3252.57288    2.96786   12.55058    0.01999    4.94857   50.07595    5.48297    8.50000 86000.00000
