~Version ---------------------------------------------------
VERS.   2.0 : CWLS log ASCII Standard -VERSION 2.0
WRAP.    NO : One line per depth step
DLM . SPACE : Column Data Section Delimiter
~Well ------------------------------------------------------
STRT.m          1000.00000 : START DEPTH
STOP.m          2000.00000 : STOP DEPTH
STEP.m             0.10000 : STEP
NULL.             -9999.25 : NULL VALUE
COMP. FORCE 2020 Recreator : 
WELL.   WELL_FORCE_2020_06 : 
FLD .                      : FIELD
LOC .                      : LOCATION
PROV.                      : PROVINCE
CNTY.                      : COUNTY
STAT.                      : STATE
CTRY.                      : COUNTRY
SRVC.                      : SERVICE COMPANY
DATE.                      : DATE
UWI .                      : UNIQUE WELL ID
API .                      : API NUMBER
~Curve Information -----------------------------------------
DEPT                            .m      : 
CALI                            .in     : 
RSHA                            .ohm.m  : 
RMED                            .ohm.m  : 
RDEP                            .ohm.m  : 
RHOB                            .g/cm3  : 
GR                              .gAPI   : 
NPHI                            .v/v    : 
PEF                             .b/e    : 
DTC                             .us/ft  : 
SP                              .mV     : 
BS                              .in     : 
FORCE_2020_LITHOFACIES_LITHOLOGY.code   : 
~Params ----------------------------------------------------
~Other -----------------------------------------------------
~ASCII -----------------------------------------------------
# ...
 1330.40000    8.58609   12.19946   12.06995   12.19239    2.27895   15.17591    0.27725    4.83748   74.51656   -2.67132    8.50000 70032.00000
 1330.50000    8.58399   12.27737   12.04826   12.26641    2.28072   15.14054    0.27713    4.83623   75.14851   -2.39374    8.50000 70032.00000
 1330.60000    8.58607   12.53679   12.28370   12.44746    2.28382   15.14171    0.27740    4.84747   75.26891   -2.10040    8.50000 70032.00000
 1330.70000    8.58939   12.79556   12.48933   12.59874    2.29102   15.03711    0.27672    4.84989   74.84859   -2.06825    8.50000 70032.00000
 1330.80000    8.59080   12.80685   12.77288   12.83642    2.29244   15.38325    0.27298    4.84878   74.94761   -2.13368    8.50000 70032.00000
 1330.90000    8.58629   12.64955   12.65061   12.69642    2.29424   15.12153    0.27245    4.83839   74.88285   -2.17692    8.50000 70032.00000
 1331.00000    8.58683   12.37128   12.49117   12.54821    2.29475   15.12872    0.27315    4.83778   75.01596   -2.08114    8.50000 70032.00000
 1331.10000    8.58752   12.39981   12.48226   12.56581    2.29686   15.13465    0.27313    4.83419   75.05377   -1.75707    8.50000 70032.00000
 1331.20000    8.58527   11.72573   11.81487   11.96706    2.29338   14.64441    0.27581    4.83574   75.49863   -1.50839    8.50000 70032.00000
 1331.30000    8.58449   11.76801   11.84425   11.99547    2.29402   14.28190    0.27557    4.82392   76.06791   -1.36948    8.50000 70032.00000
 1331.40000    8.58401   11.33558   11.29953   11.44611    2.29770   14.53201    0.27521    4.80569   75.69631   -1.65263    8.50000 70032.00000
 1331.50000    8.58706   11.26108   11.18972   11.33829    2.29539   14.70136    0.27552    4.81092   76.04364   -1.40510    8.50000 70032.00000
 1331.60000    8.58767   11.75196   11.76584   11.98961    2.30033   14.63198    0.27690    4.81305   75.95117   -1.37175    8.50000 70032.00000
 1331.70000    8.58462   11.73590   11.66904   11.92522    2.29810   14.87087    0.28039    4.80409   75.79980   -1.64886    8.50000 70032.00000
 1331.80000    8.58250   11.96778   11.88478   12.21199    2.29879   14.88192    0.27384    4.80440   76.17566   -1.50873    8.50000 70032.00000
 1331.90000    8.58211   12.34271   12.24604   12.52828    2.29238   15.22562    0.27925    4.81388   76.62065   -1.36333    8.50000 70032.00000
 1332.00000    8.57904   12.35188   12.27236   12.51938    2.29444   15.03217    0.28002    4.81808   75.48366   -1.30153    8.50000 70032.00000
 1332.10000    8.57748   12.61537   12.62111   12.82155    2.29372   15.03317    0.27772    4.81513   75.22828   -1.42997    8.50000 70032.00000
 1332.20000    8.57757   12.59885   12.61097   12.80110    2.29417   15.05268    0.27499    4.81296   75.16470   -1.37555    8.50000 70032.00000
 1332.30000    8.57943   12.15951   12.39311   12.44184    2.29097   15.57375    0.27682    4.80271   75.07334   -1.74356    8.50000 70032.00000
 1332.40000    8.57954   13.20612   13.14421   13.26690    2.29083   15.34644    0.27516    4.81515   74.63994   -1.90599    8.50000 70032.00000
 1332.50000    8.58090   13.27087   13.32170   13.32283    2.29087   15.51180    0.27332    4.79692   74.00294   -1.69649    8.50000 70032.00000
 1332.60000    8.58231   13.36069   13.50230   13.40606    2.29163   15.47166    0.26991    4.80440   73.55793   -1.68663    8.50000 70032.00000
 1332.70000    8.58089   13.61374   13.78215   13.71776    2.28744   15.75697    0.26871    4.79127   73.71962   -1.69683    8.50000 70032.00000
 1332.80000    8.57750   13.01791   13.30699   13.24680    2.28017   15.79465    0.27193    4.77545   73.76025   -1.66649    8.50000 70032.00000
 1332.90000    8.57601   12.89802   13.01819   13.00671    2.27774   15.51501    0.27154    4.77013   73.59327   -1.68895    8.50000 70032.00000
 1333.00000    8.57834   13.26999   13.34292   13.30777    2.28271   15.59727    0.27302    4.77005   73.17200   -1.53301    8.50000 70032.00000
 1333.10000    8.57759   13.96291   14.03771   13.96656    2.28292   15.70767    0.26738    4.76359   73.34417   -1.64940    8.50000 70032.00000
 1333.20000    8.57749   14.14171   14.16098   14.10612    2.28642   15.75108    0.26820    4.74966   73.49880   -1.85990    8.50000 70032.00000
 1333.30000    8.57787   14.77300   14.72754   14.67650    2.28562   15.54499    0.26753    4.75206   73.07382   -2.14425    8.50000 70032.00000
 1333.40000    8.57712   14.69693   14.85241   14.74281    2.28717   15.53229    0.27133    4.75983   72.61199   -1.84870    8.50000 70032.00000
 1333.50000    8.57573   15.08151   15.07624   15.07348    2.28258   15.24811    0.26942    4.76939   72.96199   -1.65090    8.50000 70032.00000
 1333.60000    8.57234   15.32413   15.24496   15.21837    2.28688   14.82651    0.26766    4.76320   72.88537   -1.81854    8.50000 70032.00000
 1333.70000    8.57375   14.69686   14.46203   14.38208    2.28680   14.53407    0.26876    4.77517   72.73256   -1.57089    8.50000 70032.00000
 1333.80000    8.57593   15.00340   14.70473   14.62718    2.28674   14.34384    0.26779    4.78055   72.76595   -1.48787    8.50000 70032.00000
 1333.90000    8.58072   14.82488   14.73192   14.57609    2.29047   14.26469    0.26983    4.79186   72.59329   -1.42793    8.50000 70032.00000
 1334.00000    8.58236   14.51025   14.54799   14.37643    2.29476   14.61434    0.27011    4.78094   72.22675   -1.84653    8.50000 70032.00000
 1334.10000    8.58179   14.59249   14.69603   14.53716    2.29158   14.94813    0.26973    4.77127   72.34776   -1.67869    8.50000 70032.00000
 1334.20000    8.58313   14.71447   14.81469   14.67765    2.29727   14.21888    0.27189    4.77909   73.05148   -1.20074    8.50000 70032.00000
 1334.30000    8.58274   14.62599   14.79988   14.64357    2.29883   14.37716    0.27531    4.77733   73.51402   -1.22289    8.50000 70032.00000
 1334.40000    8.58045   14.75133   14.86122   14.68341    2.30031   14.08173    0.26998    4.76621   73.68472   -0.87360    8.50000 70032.00000
 1334.50000    8.58124   13.61419   13.97664   13.75635    2.29837   14.22875    0.26932    4.75734   73.48016   -0.73430    8.50000 70032.00000
 1334.60000    8.58029   13.72063   14.21262   14.05533    2.30127   13.96925    0.27072    4.76121   73.59386   -0.58528    8.50000 70032.00000
 1334.70000    8.58056   13.47168   13.98740   13.88255    2.30485   13.99145    0.27445    4.75766   73.79519   -0.66037    8.50000 70032.00000
 1334.80000    8.57954   13.15719   13.61253   13.56656    2.30162   13.79637    0.27688    4.77111   73.98219   -0.62576    8.50000 70032.00000
 1334.90000    8.57967   13.45570   13.85026   13.84382    2.30210   14.00533    0.27400    4.77986   73.66808   -0.51220    8.50000 70032.00000
 1335.00000    8.57885   13.62584   13.94109   13.90115    2.30728   13.93189    0.27740    4.78648   73.79340   -0.92214    8.50000 70032.00000
 1335.10000    8.57868   13.54416   14.03978   13.94081    2.30733   14.38912    0.27822    4.81232   74.30306   -0.90043    8.50000 70032.00000
 1335.20000    8.57581   13.14166   13.49922   13.42678    2.30676   14.45425    0.27986    4.81873   74.77755   -0.78918    8.50000 70032.00000
 1335.30000    8.57363   13.04688   13.52898   13.40636    2.30580   14.01468    0.27964    4.82968   74.26757   -0.71456    8.50000 70032.00000
 1335.40000    8.57442   12.72793   13.19710   13.05065    2.30680   14.25749    0.28086    4.83830   74.46093   -0.72548    8.50000 70032.00000
 1335.50000    8.57557   12.56284   12.97481   12.83282    2.30950   14.14441    0.28049    4.84216   74.60948   -0.90785    8.50000 70032.00000
 1335.60000    8.57747   12.71560   13.08483   12.86218    2.31322   14.29813    0.28135    4.84598   74.41762   -1.14358    8.50000 70032.00000
 1335.70000    8.57858   13.61693   13.79192   13.60068    2.31009   14.92100    0.28441    4.84544   74.32558   -1.22432    8.50000 70032.00000
 1335.80000    8.57768   13.93813   14.11963   13.96749    2.30856   15.15700    0.28153    4.84627   74.01445   -1.29950    8.50000 70032.00000
 1335.90000    8.57859   13.99856   14.15171   14.04683    2.30953   15.20212    0.28227    4.82557   74.00109   -1.11695    8.50000 70032.00000
