~Version ---------------------------------------------------
VERS.   2.0 : CWLS log ASCII Standard -VERSION 2.0
WRAP.    NO : One line per depth step
DLM . SPACE : Column Data Section Delimiter
~Well ------------------------------------------------------
STRT.m          1000.00000 : START DEPTH
STOP.m          2000.00000 : STOP DEPTH
STEP.m             0.10000 : STEP
NULL.             -9999.25 : NULL VALUE
COMP. FORCE 2020 Recreator : 
WELL.   WELL_FORCE_2020_10 : 
FLD .                      : FIELD
LOC .                      : LOCATION
PROV.                      : PROVINCE
CNTY.                      : COUNTY
STAT.                      : STATE
CTRY.                      : COUNTRY
SRVC.                      : SERVICE COMPANY
DATE.                      : DATE
UWI .                      : UNIQUE WELL ID
API .                      : API NUMBER
~Curve Information -----------------------------------------
DEPT                            .m      : 
CALI                            .in     : 
RSHA                            .ohm.m  : 
RMED                            .ohm.m  : 
RDEP                            .ohm.m  : 
RHOB                            .g/cm3  : 
GR                              .gAPI   : 
NPHI                            .v/v    : 
PEF                             .b/e    : 
DTC                             .us/ft  : 
SP                              .mV     : 
BS                              .in     : 
FORCE_2020_LITHOFACIES_LITHOLOGY.code   : 
~Params ----------------------------------------------------
~Other -----------------------------------------------------
~ASCII -----------------------------------------------------
# ...
 1201.60000    8.58239   11.89193   11.72587   11.84769    2.18306   94.95985    0.32885    2.98620   98.65755    3.75703    8.50000 99000.00000
 1201.70000    8.58399   11.76956   11.57616   11.82046    2.17771   94.47444    0.33188    2.97884   99.03091    3.94530    8.50000 99000.00000
 1201.80000    8.58637   11.12034   10.93720   11.11814    2.17560   93.39149    0.32718    2.98427   99.52226    3.82767    8.50000 99000.00000
 1201.90000    8.58361   11.40878   11.29029   11.40914    2.17951   92.88206    0.32872    3.00577  100.06966    3.84459    8.50000 99000.00000
 1202.00000    8.58613   10.94548   11.00254   11.07920    2.17865   93.20341    0.32759    2.98891   99.63857    3.96208    8.50000 99000.00000
 1202.10000    8.58543   11.00171   11.06236   11.12477    2.17648   92.34902    0.32494    2.98092   99.74189    3.40880    8.50000 99000.00000
 1202.20000    8.58787   10.70309   10.77359   10.80247    2.17558   92.17323    0.32174    2.99484   99.50446    3.63337    8.50000 99000.00000
 1202.30000    8.58951   10.09736   10.20651   10.22317    2.18379   92.18745    0.32313    3.01442   98.87946    3.23842    8.50000 99000.00000
 1202.40000    8.59249   10.13317   10.20057   10.23937    2.18457   92.00900    0.32379    2.97767   97.98521    2.99622    8.50000 99000.00000
 1202.50000    8.59635   10.40412   10.45398   10.48819    2.18191   91.31112    0.32991    2.99354   98.75219    2.79967    8.50000 99000.00000
 1202.60000    8.59374   10.02625   10.07757   10.13586    2.18095   89.02613    0.32312    2.98765   99.07476    2.61532    8.50000 99000.00000
 1202.70000    8.59572    9.62894    9.62687    9.70148    2.18155   91.31212    0.32104    3.01278   98.34462    3.03683    8.50000 99000.00000
 1202.80000    8.59065    9.64144    9.58876    9.66414    2.18704   90.38003    0.31793    3.04455   98.16008    2.67720    8.50000 99000.00000
 1202.90000    8.59349    9.56230    9.51331    9.57245    2.19310   90.77887    0.32149    3.04806   97.38371    2.70211    8.50000 99000.00000
 1203.00000    8.59429    9.62660    9.51120    9.55411    2.19408   90.89171    0.32712    3.05597   96.58342    2.35303    8.50000 99000.00000
 1203.10000    8.59421    8.09108    8.24355    8.13873    2.19743   91.64616    0.33038    3.05873   96.18383    2.45967    8.50000 99000.00000
 1203.20000    8.59067    8.05800    8.24495    8.17733    2.19869   91.98498    0.33207    3.06544   95.86472    2.49229    8.50000 99000.00000
 1203.30000    8.58918    7.32426    7.64582    7.55039    2.20153   90.63947    0.33411    3.06350   95.87106    2.28435    8.50000 99000.00000
 1203.40000    8.58750    7.71408    8.05312    7.93300    2.20217   89.23298    0.32811    3.06617   96.19509    2.00595    8.50000 99000.00000
 1203.50000    8.58576    7.91666    8.14765    8.05326    2.20397   90.61607    0.33203    3.08511   96.50700    2.15959    8.50000 99000.00000
 1203.60000    8.58662    8.66839    8.80422    8.70970    2.20015   91.07283    0.32538    3.06727   95.78081    2.41382    8.50000 99000.00000
 1203.70000    8.58958    7.70044    7.59395    7.57896    2.19119   92.16400    0.32638    3.07877   95.74892    2.57982    8.50000 99000.00000
 1203.80000    8.58881    8.31331    8.09552    8.05817    2.19940   93.00748    0.32508    3.05579   95.61428    2.74259    8.50000 99000.00000
 1203.90000    8.58753    8.32887    8.12911    8.09573    2.20204   93.47370    0.32496    3.04930   95.54454    2.48908    8.50000 99000.00000
 1204.00000    8.58769    8.96538    8.51070    8.60349    2.20286   93.98199    0.32574    3.01877   95.32661    2.09622    8.50000 99000.00000
 1204.10000    8.58629    9.16171    8.47174    8.62310    2.20614   94.59613    0.32288    3.00834   95.19432    1.85117    8.50000 99000.00000
 1204.20000    8.58472    9.14925    8.44269    8.61697    2.20412   95.98256    0.32670    3.00800   95.19741    2.29203    8.50000 99000.00000
 1204.30000    8.58327   10.36062    9.63473    9.74026    2.21370   94.96405    0.32664    3.02642   95.32170    2.19958    8.50000 99000.00000
 1204.40000    8.58305   10.07712    9.38320    9.47750    2.21101   95.89401    0.32884    3.00532   96.10497    2.13569    8.50000 99000.00000
 1204.50000    8.58015   10.68234    9.97852   10.15872    2.20855   95.58994    0.32998    3.04621   96.96051    2.10689    8.50000 99000.00000
 1204.60000    8.57548   10.51686    9.86468   10.02590    2.20292   95.32126    0.32628    3.03414   97.17977    2.40684    8.50000 99000.00000
 1204.70000    8.57583   10.57170    9.93496   10.09487    2.20303   96.80384    0.33201    3.04395   96.94695    2.41295    8.50000 99000.00000
 1204.80000    8.57427   10.73623   10.00715   10.14733    2.20034   95.71272    0.33679    3.02064   96.85812    1.95762    8.50000 99000.00000
 1204.90000    8.57834   10.86092   10.25188   10.36066    2.19070   94.64210    0.33968    2.98867   97.05987    2.52991    8.50000 99000.00000
 1205.00000    8.57961   10.82839   10.20932   10.31724    2.18689   93.75727    0.33710    2.97400   96.91821    2.43694    8.50000 99000.00000
 1205.10000    8.58214   10.87231   10.22822   10.38172    2.18374   94.43679    0.33139    2.95502   97.40740    2.35108    8.50000 99000.00000
 1205.20000    8.58226   11.14503   10.47464   10.65278    2.18026   95.51834    0.33063    2.94112   97.47468    2.61376    8.50000 99000.00000
 1205.30000    8.58555   11.17519   10.50248   10.65734    2.18023   96.28307    0.32974    2.92220   97.46736    2.64623    8.50000 99000.00000
 1205.40000    8.58528   11.02233   10.35299   10.50785    2.18637   96.44424    0.33034    2.91451   98.22213    2.77165    8.50000 99000.00000
 1205.50000    8.58647   10.64374    9.96225   10.12799    2.18321   98.17434    0.32892    2.90082   97.71166    2.43090    8.50000 99000.00000
 1205.60000    8.58564   10.70309   10.07120   10.21720    2.17785   97.78557    0.32538    2.88647   98.01407    2.34618    8.50000 99000.00000
 1205.70000    8.58337   10.08016    9.47852    9.61993    2.17518   95.07168    0.32640    2.90980   97.72585    2.24489    8.50000 99000.00000
 1205.80000    8.58232   10.24534    9.70658    9.82345    2.17691   94.09916    0.32620    2.91570   98.13189    2.25418    8.50000 99000.00000
 1205.90000    8.57940    9.40565    8.97675    9.08148    2.17333   92.97057    0.32651    2.94811   98.00912    1.98041    8.50000 99000.00000
 1206.00000    8.58003    9.39079    9.00397    9.09955    2.17017   94.11172    0.33055    2.95298   97.69727    2.30012    8.50000 99000.00000
 1206.10000    8.58059    9.36325    9.10516    9.17257    2.17373   93.84999    0.33206    2.94059   97.62336    2.72297    8.50000 99000.00000
 1206.20000    8.58320    8.92976    8.83775    8.88416    2.17638   92.44375    0.33250    2.95691   98.15867    2.80404    8.50000 99000.00000
 1206.30000    8.58432    8.84065    8.76710    8.78985    2.17790   91.84387    0.33013    2.96065   98.48635    2.38040    8.50000 99000.00000
 1206.40000    8.58539    7.54950    7.51974    7.60820    2.17745   93.93258    0.33177    2.93950   98.28471    1.92495    8.50000 99000.00000
 1206.50000    8.58532    7.87230    7.82929    7.93352    2.17524   93.47344    0.32875    2.96254   98.19921    2.16190    8.50000 99000.00000
 1206.60000    8.58311    7.68141    7.67309    7.67046    2.17336   93.60161    0.32918    2.93020   99.01318    2.21073    8.50000 99000.00000
 1206.70000    8.58594    7.60829    7.59525    7.60732    2.17882   93.79926    0.32918    2.94691   98.34308    1.89281    8.50000 99000.00000
 1206.80000    8.58765    9.22483    9.02392    9.04964    2.18064   93.23834    0.33006    2.92982   99.15636    1.83455    8.50000 99000.00000
 1206.90000    8.58861    9.29187    9.13153    9.18803    2.18084   92.24904    0.32924    2.92831  100.41998    2.01628    8.50000 99000.00000
 1207.00000    8.58738    9.16814    8.86966    8.98927    2.18708   92.87673    0.32775    2.94755   99.74807    2.07237    8.50000 99000.00000
 1207.10000    8.58478    9.36220    9.05986    9.16582    2.18039   93.48034    0.32653    2.95871   99.56950    1.95523    8.50000 99000.00000
