~Version ---------------------------------------------------
VERS.   2.0 : CWLS log ASCII Standard -VERSION 2.0
WRAP.    NO : One line per depth step
DLM . SPACE : Column Data Section Delimiter
~Well ------------------------------------------------------
STRT.m          1000.00000 : START DEPTH
STOP.m          2000.00000 : STOP DEPTH
STEP.m             0.10000 : STEP
NULL.             -9999.25 : NULL VALUE
COMP. FORCE 2020 Recreator : 
WELL.   WELL_FORCE_2020_08 : 
FLD .                      : FIELD
LOC .                      : LOCATION
PROV.                      : PROVINCE
CNTY.                      : COUNTY
STAT.                      : STATE
CTRY.                      : COUNTRY
SRVC.                      : SERVICE COMPANY
DATE.                      : DATE
UWI .                      : UNIQUE WELL ID
API .                      : API NUMBER
~Curve Information -----------------------------------------
DEPT                            .m      : 
CALI                            .in     : 
RSHA                            .ohm.m  : 
RMED                            .ohm.m  : 
RDEP                            .ohm.m  : 
RHOB                            .g/cm3  : 
GR                              .gAPI   : 
NPHI                            .v/v    : 
PEF                             .b/e    : 
DTC                             .us/ft  : 
SP                              .mV     : 
BS                              .in     : 
FORCE_2020_LITHOFACIES_LITHOLOGY.code   : 
~Params ----------------------------------------------------
~Other -----------------------------------------------------
~ASCII -----------------------------------------------------
# ...
 1996.50000    8.57988 5575.98400 5150.59731 5269.12570    2.78635  138.52972    0.01532    3.66383   45.40170   11.96447    8.50000 93000.00000
 1996.60000    8.58101 6129.17964 5777.74678 5852.23694    2.80838  138.15797    0.01432    3.70464   45.66387   11.81770    8.50000 93000.00000
 1996.70000    8.57957 6008.21324 5661.41333 5734.65329    2.80091  138.58080    0.01464    3.69505   45.37630   12.23725    8.50000 93000.00000
 1996.80000    8.58087 6055.07842 5693.36040 5768.58838    2.80059  138.34052    0.01454    3.70887   45.33912   12.22529    8.50000 93000.00000
 1996.90000    8.58220 4538.26877 4496.34479 4499.24060    2.78802  139.69518    0.01498    3.73996   45.71151   12.02019    8.50000 93000.00000
 1997.00000    8.58054 4138.17858 4179.05155 4137.13329    2.78539  139.40719    0.01481    3.68434   45.63041   12.16652    8.50000 93000.00000
 1997.10000    8.58306 4012.15316 4054.94315 4016.02735    2.77504  137.37356    0.01405    3.68229   45.71305   11.50476    8.50000 93000.00000
 1997.20000    8.58147 3988.36697 4052.61815 4021.81984    2.79403  136.75688    0.01419    3.71148   45.46272   11.36786    8.50000 93000.00000
 1997.30000    8.58156 3984.32877 4039.02216 4012.52291    2.78370  137.51644    0.01438    3.69545   46.34030   12.16485    8.50000 93000.00000
 1997.40000    8.58048 3467.46489 3557.65408 3496.91021    2.80249  136.83839    0.01430    3.67871   46.06201   12.23831    8.50000 93000.00000
 1997.50000    8.58114 3461.28709 3555.31226 3491.28291    2.79161  135.88200    0.01473    3.67769   45.51868   12.62871    8.50000 93000.00000
 1997.60000    8.58198 3713.34159 3688.86756 3658.23462    2.81314  135.97440    0.01433    3.71042   45.74121   12.62885    8.50000 93000.00000
 1997.70000    8.58157 3355.96768 3322.45969 3291.09418    2.78911  134.69332    0.01447    3.73463   44.83835   12.06493    8.50000 93000.00000
 1997.80000    8.58278 3196.34826 3173.21360 3142.85581    2.77668  137.26664    0.01445    3.69477   45.23741   11.68535    8.50000 93000.00000
 1997.90000    8.58219 3201.88873 3178.90635 3147.87423    2.77528  139.07436    0.01388    3.65831   44.90028   11.51653    8.50000 93000.00000
 1998.00000    8.58154 3385.82120 3351.78164 3323.25179    2.77282  138.06163    0.01394    3.57500   44.54055   11.91265    8.50000 93000.00000
 1998.10000    8.57936 2259.96594 2280.37680 2260.24228    2.76119  137.17718    0.01354    3.62603   44.89996   11.58725    8.50000 93000.00000
 1998.20000    8.57816 2591.10837 2625.82679 2586.59726    2.75692  138.43662    0.01395    3.68038   45.14931   11.62028    8.50000 93000.00000
 1998.30000    8.57785 2544.54750 2582.94257 2545.20904    2.76272  139.82607    0.01397    3.69132   44.55484   11.13657    8.50000 93000.00000
 1998.40000    8.57694 2471.82464 2509.90378 2475.72451    2.74992  139.25292    0.01351    3.72161   44.11620   11.30435    8.50000 93000.00000
 1998.50000    8.57734 7894.20180 7929.06714 7490.31048    2.76094  138.42069    0.01326    3.69750   43.82744   11.76546    8.50000 93000.00000
 1998.60000    8.57869 8057.29005 8083.79475 7634.92178   -9999.25  139.20574    0.01324    3.68948   43.45102   11.48566    8.50000 93000.00000
 1998.70000    8.57714 7560.81852 7499.57500 7106.87882    2.74942  140.64757    0.01420    3.67956   43.07110   11.17262    8.50000 93000.00000
 1998.80000    8.57783 7574.04679 7516.44177 7122.27146    2.75230  142.25601    0.01469    3.67487   43.56880   11.51867    8.50000 93000.00000
 1998.90000    8.57706 8060.28073 8001.98041 7660.40773    2.75800  143.22379    0.01467    3.66290   44.34576   11.66330    8.50000 93000.00000
 1999.00000    8.56767 8019.38168 7966.13835 7622.14219    2.74654  138.96394    0.02351    3.55852   46.10878    9.46224    8.50000 93000.00000
 1999.10000    8.56709 8381.95006 8317.65920 7961.49040    2.75086  138.28838    0.02402    3.55776   46.27420    9.46987    8.50000 93000.00000
 1999.20000    8.56700 8796.35671 8729.53291 8356.12316    2.75261  139.13497    0.02512    3.56582   46.06039    9.65720    8.50000 93000.00000
 1999.30000    8.56606 9184.12216 9082.25139 8689.17834    2.73810  140.33827    0.02550    3.55313   46.29865    9.38224    8.50000 93000.00000
 1999.40000    8.56400 9648.02962 9550.80283 9132.23852    2.73542  138.77213    0.02610    3.53146   45.77095    8.45473    8.50000 93000.00000
 1999.50000    8.56222 10225.94807 10125.02403 9680.35423    2.72253  140.31945    0.02713    3.53081   46.46857    8.14625    8.50000 93000.00000
 1999.60000    8.56097 10788.16804 10673.61362 10203.08102    2.71858  140.74405    0.02814    3.49169   47.27951    8.09983    8.50000 93000.00000
 1999.70000    8.55968 10884.59190 10911.92366 10372.98782    2.68644  142.64547    0.02912    3.46847   47.36145    8.42292    8.50000 93000.00000
 1999.80000    8.55823 11707.88458 11735.96951 11153.72754    2.70851  142.93831    0.03003    3.39684   48.80589    8.33251    8.50000 93000.00000
 1999.90000    8.55663 12672.85924 12700.91907 12069.42844    2.71827  142.89788    0.03118    3.44870   48.96597    8.82968    8.50000 93000.00000
 2000.00000    8.55627 13810.78768 13841.13636 13153.31627    2.70870  143.00753    0.03323    3.49913   49.51786    9.08146    8.50000 30000.00000
