~Version ---------------------------------------------------
VERS.   2.0 : CWLS log ASCII Standard -VERSION 2.0
WRAP.    NO : One line per depth step
DLM . SPACE : Column Data Section Delimiter
~Well ------------------------------------------------------
STRT.m          1000.00000 : START DEPTH
STOP.m          2000.00000 : STOP DEPTH
STEP.m             0.10000 : STEP
NULL.             -9999.25 : NULL VALUE
COMP. FORCE 2020 Recreator : 
WELL.   WELL_FORCE_2020_04 : 
FLD .                      : FIELD
LOC .                      : LOCATION
PROV.                      : PROVINCE
CNTY.                      : COUNTY
STAT.                      : STATE
CTRY.                      : COUNTRY
SRVC.                      : SERVICE COMPANY
DATE.                      : DATE
UWI .                      : UNIQUE WELL ID
API .                      : API NUMBER
~Curve Information -----------------------------------------
DEPT                            .m      : 
CALI                            .in     : 
RSHA                            .ohm.m  : 
RMED                            .ohm.m  : 
RDEP                            .ohm.m  : 
RHOB                            .g/cm3  : 
GR                              .gAPI   : 
NPHI                            .v/v    : 
PEF                             .b/e    : 
DTC                             .us/ft  : 
SP                              .mV     : 
BS                              .in     : 
FORCE_2020_LITHOFACIES_LITHOLOGY.code   : 
~Params ----------------------------------------------------
~Other -----------------------------------------------------
~ASCII -----------------------------------------------------
# ...
 1666.30000    8.57055    3.96857    3.83502    3.89769    2.54498   84.44043    0.29709    3.23672   94.83127   -0.21159    8.50000 80000.00000
 1666.40000    8.57175    3.78465    3.70424    3.75233    2.54470   84.44348    0.29757    3.24231   95.47957    0.17879    8.50000 80000.00000
 1666.50000    8.57833    3.98491    3.86569    3.92187    2.54353   84.47189    0.29780    3.23219   95.73864    0.27330    8.50000 80000.00000
 1666.60000    8.57519    3.84505    3.73010    3.77748    2.54519   84.79549    0.30109    3.22372   95.51377    0.30728    8.50000 80000.00000
 1666.70000    8.57778    3.97438    3.96717    3.96735    2.54518   83.90516    0.29982    3.22178   96.54941    0.79847    8.50000 80000.00000
 1666.80000    8.57862    3.97136    3.95842    3.96451    2.54378   84.13426    0.29913    3.22758   95.88653    0.69829    8.50000 80000.00000
 1666.90000    8.57844    3.96096    3.96977    3.95162    2.53783   84.04052    0.29477    3.22406   96.02778    0.73944    8.50000 80000.00000
 1667.00000    8.58366    4.09835    4.12691    4.09343    2.53715   83.56100    0.29404    3.20934   95.99253    0.62170    8.50000 80000.00000
 1667.10000    8.58551    4.19459    4.21907    4.19274    2.53888   83.73617    0.29196    3.19646   96.68056    0.29604    8.50000 80000.00000
 1667.20000    8.58763    4.37739    4.41353    4.38095    2.53718   83.34468    0.29492    3.17488   95.76632    0.37130    8.50000 80000.00000
 1667.30000    8.58622    4.33896    4.36076    4.35342    2.53176   83.54690    0.29674    3.16066   95.91090   -0.11058    8.50000 80000.00000
 1667.40000    8.58802    4.19650    4.18636    4.20473    2.52578   82.71432    0.29744    3.16416   95.68558    0.15785    8.50000 80000.00000
 1667.50000    8.58728    4.09074    4.07741    4.08765    2.52131   80.76457    0.30099    3.15339   95.17197    0.20804    8.50000 80000.00000
 1667.60000    8.58892    4.30258    4.27542    4.30014    2.51825   80.91156    0.30169    3.16175   95.18258    0.13020    8.50000 80000.00000
 1667.70000    8.59178    4.54026    4.45616    4.46495    2.51311   81.23917    0.30134    3.15353   95.76107    0.42317    8.50000 80000.00000
 1667.80000    8.58989    4.48203    4.36175    4.33957    2.51475   80.59032    0.30283    3.15559   95.84439    0.14843    8.50000 80000.00000
 1667.90000    8.59204    4.53230    4.39429    4.37401    2.51563   79.97835    0.30515    3.16274   96.01080    0.39831    8.50000 80000.00000
 1668.00000    8.59295    4.33398    4.23855    4.20503    2.51205   79.32160    0.30893    3.14033   95.71115    0.87103    8.50000 80000.00000
 1668.10000    8.59502    4.69605    4.54281    4.51588    2.50872   79.16460    0.30709    3.13691   95.38307    1.09720    8.50000 80000.00000
 1668.20000    8.59292    4.71174    4.55532    4.54141    2.50809   78.06655    0.31040    3.13764   95.54991    1.11922    8.50000 80000.00000
 1668.30000    8.59527    4.79867    4.66028    4.63847    2.50926   78.77959    0.30870    3.12869   95.97314    0.89911    8.50000 80000.00000
 1668.40000    8.59354    4.94225    4.83185    4.79989    2.50672   79.67000    0.30728    3.12461   96.01724    0.91910    8.50000 80000.00000
 1668.50000    8.59035    5.06007    4.93994    4.93150    2.50620   79.66514    0.30689    3.12887   95.86754    0.78009    8.50000 80000.00000
 1668.60000    8.58790    4.88017    4.78844    4.77326    2.50782   79.52657    0.30573    3.12510   95.79095    0.64488    8.50000 80000.00000
 1668.70000    8.59165    4.84063    4.74354    4.72265    2.50762   78.69097    0.30204    3.12255   95.77496    0.56814    8.50000 80000.00000
 1668.80000    8.58879    4.76904    4.63475    4.62636    2.50798   79.51890    0.30332    3.12705   95.22670    0.36152    8.50000 80000.00000
 1668.90000    8.58789    4.87201    4.73096    4.72057    2.51278   80.19863    0.30189    3.12423   95.80861    0.14370    8.50000 80000.00000
 1669.00000    8.59015    4.86338    4.71543    4.71510    2.51036   80.41482    0.30131    3.13090   95.48730    0.08306    8.50000 80000.00000
 1669.10000    8.58579    4.71290    4.54073    4.55739    2.50722   81.30710    0.29966    3.13728   94.81644    0.50792    8.50000 80000.00000
 1669.20000    8.58653    4.62097    4.48552    4.51679    2.51108   80.36189    0.29816    3.15965   94.27167    0.70814    8.50000 80000.00000
 1669.30000    8.58679    4.61333    4.41584    4.45755    2.51130   80.30435    0.29574    3.18485   94.94499    0.88731    8.50000 80000.00000
 1669.40000    8.58721    4.76589    4.61906    4.67799    2.51443   79.76248    0.29206    3.18536   95.70010    1.05893    8.50000 80000.00000
 1669.50000    8.58667    4.81739    4.65644    4.68452    2.51859   79.64971    0.29344    3.19292   96.28316    1.09946    8.50000 80000.00000
 1669.60000    8.58877    4.77571    4.62602    4.66735    2.51688   80.62399    0.29333    3.20062   96.15192    1.00529    8.50000 80000.00000
 1669.70000    8.58864    4.49314    4.38046    4.38315    2.52476   80.63210    0.29103    3.18903   96.22249    0.98541    8.50000 80000.00000
 1669.80000    8.58734    4.25106    4.15607    4.18867    2.52093   80.71644    0.29111    3.20010   96.59777    0.28644    8.50000 80000.00000
 1669.90000    8.58534    4.03964    4.01086    4.05540    2.52456   79.56610    0.28704    3.20407   96.98804    0.98371    8.50000 80000.00000
 1670.00000    8.58248    4.08536    4.08334    4.12896    2.52402   79.88599    0.28698    3.21222   96.83835    0.73919    8.50000 80000.00000
 1670.10000    8.57960    4.31407   -9999.25    4.34057    2.52125   80.37523    0.28437    3.21099   96.81528    0.65377    8.50000 80000.00000
 1670.20000    8.57940    3.94228    3.94608    4.00985    2.52452   80.34936    0.28775    3.20754   96.77643    0.54927    8.50000 80000.00000
 1670.30000    8.58120    4.03184    4.06466    4.11937    2.52745   80.58080    0.28909    3.21851   96.88476    0.30380    8.50000 80000.00000
 1670.40000    8.57962    4.05227    4.11892    4.16369    2.52548   80.11705    0.29111    3.20289   97.26376   -0.15855    8.50000 80000.00000
 1670.50000    8.57924    3.96767    3.97912    4.04108    2.52527   79.41103    0.29252    3.21079   97.25063   -0.31748    8.50000 80000.00000
 1670.60000    8.57778    3.92500    3.90497    3.97367    2.52099   78.63841    0.29462    3.21181   97.51609   -0.55608    8.50000 80000.00000
 1670.70000    8.57696    4.12834    4.13632    4.20236    2.52283   77.59273    0.29428    3.22961   97.18268   -0.47800    8.50000 80000.00000
 1670.80000    8.57672    4.13978    4.15569    4.22586    2.52414   77.14538    0.29673    3.20802   97.04474   -0.45531    8.50000 80000.00000
 1670.90000    8.57435    4.09101    4.06760    4.14546    2.52799   76.73167    0.29981    3.20400   97.03695   -0.75696    8.50000 80000.00000
 1671.00000    8.57421    3.98776    3.99531    4.07041    2.52411   76.94521    0.30273    3.19562   96.55923   -0.55789    8.50000 80000.00000
 1671.10000    8.57337    4.21045    4.22361    4.28835    2.52580   77.29462   -9999.25    3.19053   97.49261   -0.32687    8.50000 80000.00000
 1671.20000    8.57447    4.39642    4.36263    4.44810    2.52584   76.08260    0.30734    3.19239   98.14261   -1.00736    8.50000 80000.00000
 1671.30000    8.57169    4.43700    4.40202    4.45315    2.52845   75.11143    0.30746    3.15992   98.33385   -0.92513    8.50000 80000.00000
 1671.40000    8.56994    4.39578    4.44228    4.49608    2.52815   74.89475    0.30631    3.14062   98.03680   -0.91381    8.50000 80000.00000
 1671.50000    8.57041    4.46522    4.50085    4.53162    2.53437   75.39911    0.30846    3.16000   97.89037   -1.10626    8.50000 80000.00000
 1671.60000    8.57107    4.32884    4.39058    4.43175    2.53152   75.97513    0.30933    3.15882   98.13596   -0.67678    8.50000 80000.00000
 1671.70000    8.57043    4.33831    4.39721    4.43620    2.53782   75.29182    0.31071    3.14369   98.20290   -0.74182    8.50000 80000.00000
 1671.80000    8.56821    4.65491    4.71505    4.76015    2.52836   76.64897    0.31086    3.14880   98.24410   -0.51632    8.50000 80000.00000
