~Version ---------------------------------------------------
VERS.   2.0 : CWLS log ASCII Standard -VERSION 2.0
WRAP.    NO : One line per depth step
DLM . SPACE : Column Data Section Delimiter
~Well ------------------------------------------------------
STRT.m          1000.00000 : START DEPTH
STOP.m          2000.00000 : STOP DEPTH
STEP.m             0.10000 : STEP
NULL.             -9999.25 : NULL VALUE
COMP. FORCE 2020 Recreator : 
WELL.   WELL_FORCE_2020_03 : 
FLD .                      : FIELD
LOC .                      : LOCATION
PROV.                      : PROVINCE
CNTY.                      : COUNTY
STAT.                      : STATE
CTRY.                      : COUNTRY
SRVC.                      : SERVICE COMPANY
DATE.                      : DATE
UWI .                      : UNIQUE WELL ID
API .                      : API NUMBER
~Curve Information -----------------------------------------
DEPT                            .m      : 
CALI                            .in     : 
RSHA                            .ohm.m  : 
RMED                            .ohm.m  : 
RDEP                            .ohm.m  : 
RHOB                            .g/cm3  : 
GR                              .gAPI   : 
NPHI                            .v/v    : 
PEF                             .b/e    : 
DTC                             .us/ft  : 
SP                              .mV     : 
BS                              .in     : 
FORCE_2020_LITHOFACIES_LITHOLOGY.code   : 
~Params ----------------------------------------------------
~Other -----------------------------------------------------
~ASCII -----------------------------------------------------
# ...
 1201.30000    9.85146    2.51018    2.54359    2.49794    2.46427  112.83554    0.36306    3.40225  108.06223    5.21014    8.50000 65000.00000
 1201.40000    9.85988    2.61701    2.64051    2.59494    2.46824  114.15769    0.36162    3.40985  107.59526    5.53263    8.50000 65000.00000
 1201.50000    9.84401    2.69086    2.70871    2.65601    2.46577  114.46604    0.35999    3.41306  106.50472    5.59713    8.50000 65000.00000
 1201.60000    9.82228    2.72328    2.72910    2.67819    2.47010  114.87716    0.36301    3.38960  106.43358    5.53371    8.50000 65000.00000
 1201.70000    9.83143    2.79595    2.82734    2.77850    2.47488  114.23735    0.36368    3.41301  106.58985    5.62942    8.50000 65000.00000
 1201.80000    9.83629    2.86499    2.88703    2.83816    2.47394  113.17187    0.36291    3.41078  106.92310    5.52357    8.50000 65000.00000
 1201.90000    9.82529    2.90161    2.93866    2.87074    2.47700  113.90719    0.35853    3.42092  107.09655    5.47147    8.50000 65000.00000
 1202.00000    9.82858    3.08728    3.12342    3.07542    2.47335  114.47307    0.36068    3.42427  107.50597    5.50047    8.50000 65000.00000
 1202.10000    9.86254    3.00334    3.03112    2.97587    2.47735  111.97050    0.36030    3.42573  107.59638    5.48701    8.50000 65000.00000
 1202.20000    9.86995    2.93868    2.96030    2.91095    2.47818  112.40475    0.36038    3.41837  108.07001    5.26571    8.50000 65000.00000
 1202.30000    9.87685    2.96958    3.00044    2.95001    2.47642  113.00552    0.35849    3.42929  109.24634    5.13379    8.50000 65000.00000
 1202.40000    9.84585    2.89582    2.92621    2.88460    2.47783  113.00840    0.35678    3.43804  108.57813    4.84349    8.50000 65000.00000
 1202.50000    9.84733    2.94766    2.96346    2.92209    2.47858  112.23063    0.35484    3.46365  108.23909    4.86030    8.50000 65000.00000
 1202.60000    9.85876    2.90801    2.92636    2.88095    2.48026  112.83722    0.35637    3.47437  108.01973    4.35808    8.50000 65000.00000
 1202.70000    9.85879    2.89055    2.90313    2.86798    2.47426  114.12542    0.35740    3.47223  108.48352    4.21793    8.50000 65000.00000
 1202.80000    9.88814    2.94147    2.94897    2.90366    2.47498  114.51796    0.35994    3.47915  108.73370    4.09013    8.50000 65000.00000
 1202.90000    9.94018    2.88491    2.84120    2.82565    2.47642  114.55955    0.36187    3.46885  109.74297    4.36047    8.50000 65000.00000
 1203.00000    9.96607    2.86786    2.84208    2.82052    2.47592  112.97503    0.36433    3.47285  109.54376    4.45316    8.50000 65000.00000
 1203.10000    9.96868    2.86673    2.82601    2.80728    2.47477  115.83952    0.36086    3.47019  108.57890    4.27933    8.50000 65000.00000
 1203.20000    9.97086    2.84480    2.81811    2.79843    2.47437  114.72340    0.35837    3.48995  108.83930    4.66884    8.50000 65000.00000
 1203.30000    9.96941    2.80421    2.77551    2.76633    2.47385  115.46236    0.35483    3.48538  107.95124    4.76894    8.50000 65000.00000
 1203.40000   10.00166    2.76729    2.77149    2.75839    2.47306  114.92065    0.35132    3.47693  107.69014    4.84629    8.50000 65000.00000
 1203.50000   10.00136    2.67185    2.67825    2.67145    2.47287  114.66641    0.35449    3.47031  108.29166    4.60979    8.50000 65000.00000
 1203.60000   10.03205    2.73744    2.74750    2.74044    2.47238  114.10970    0.35378    3.47290  108.62909    4.53428    8.50000 65000.00000
 1203.70000   10.04134    2.73489    2.75487    2.74933    2.47029  113.73057    0.35530    3.46345  107.98216    4.31049    8.50000 65000.00000
 1203.80000   10.03032    2.64832    2.63960    2.63733    2.46849  114.14322    0.35654    3.47517  107.70439    4.63522    8.50000 65000.00000
 1203.90000   10.02203    2.63944    2.63490    2.63373    2.47464  114.68483    0.35466    3.45961  107.28722    4.85053    8.50000 65000.00000
 1204.00000   10.01080    2.65633    2.61282    2.63152    2.46746  115.17999    0.35753    3.45841  107.31082    4.93378    8.50000 65000.00000
 1204.10000   10.01815    2.48834    2.42958    2.44657    2.46538  115.11453    0.35516    3.45375  107.62967    4.81670    8.50000 65000.00000
 1204.20000    9.97555    2.54801    2.50911    2.52783    2.46806  115.13011    0.35768    3.44525  106.63620    4.99650    8.50000 65000.00000
 1204.30000    9.97683    2.59512    2.55596    2.56731    2.46999  114.78475    0.36014    3.44390  106.07989    5.18004    8.50000 65000.00000
 1204.40000    9.98319    2.62807    2.58414    2.58040    2.47133  112.68213    0.35667    3.40998  105.15050    5.06425    8.50000 65000.00000
 1204.50000   10.01973    2.70477    2.63860    2.64452    2.47050  115.22508    0.35705    3.39168  105.16577    5.29580    8.50000 65000.00000
 1204.60000   10.02505    2.72539    2.66536    2.68051    2.46667  116.06162    0.36016    3.37148  105.33540    5.42979    8.50000 65000.00000
 1204.70000   10.03040    2.74601    2.67276    2.69605    2.46786  115.16164    0.35944    3.37856  106.01439    5.60608    8.50000 65000.00000
 1204.80000   10.04296    2.84804    2.78064    2.79865    2.47338  114.03320    0.36387    3.39072  104.85541    5.87617    8.50000 65000.00000
 1204.90000   10.04462    2.85873    2.77005    2.80550    2.47706  113.73572    0.36323    3.36372  103.76592    5.70481    8.50000 65000.00000
 1205.00000    9.99442    2.82734    2.76826    2.79392    2.47393  112.72113    0.36253    3.35181  103.38408    5.90971    8.50000 65000.00000
 1205.10000    9.98220    2.86439    2.82716    2.84148    2.47183  114.63031    0.35922    3.36001  103.83853    5.87822    8.50000 65000.00000
 1205.20000    9.98112    2.91417    2.86907    2.88713    2.46966  113.72457    0.35840    3.34322  105.06790    5.94170    8.50000 65000.00000
 1205.30000    9.98185    2.87919    2.83947    2.85689    2.46953  113.86632    0.36354    3.31348  104.90164    5.70546    8.50000 65000.00000
 1205.40000    9.95571    2.94221    2.88657    2.90988    2.47440  112.33134    0.36839    3.33949  105.92863    5.45539    8.50000 65000.00000
 1205.50000    9.93123    2.99031    2.88724    2.91643    2.47257  113.38456    0.37150    3.34570  106.02336    5.18936    8.50000 65000.00000
 1205.60000    9.94056    3.06477    2.97423    3.00655    2.46979  113.21757    0.36990    3.35734  105.15692    5.05528    8.50000 65000.00000
 1205.70000    9.92899    3.02075    2.92249    2.95296    2.46862  114.42266    0.37127    3.34428  104.75799    5.24599    8.50000 65000.00000
 1205.80000    9.94830    3.09051    3.00037    3.04621    2.46688  114.91952    0.36847    3.36109  104.97862    5.21553    8.50000 65000.00000
 1205.90000    9.95181    3.07887    3.01689    3.06302    2.47282  115.41905    0.36931    3.34183  104.56405    4.97769    8.50000 65000.00000
 1206.00000    9.98158    3.07272    3.01486    3.06198    2.47355  116.13975    0.36847    3.34579  105.49662    4.95178    8.50000 65000.00000
 1206.10000    9.94691    2.97066    2.94007    2.98290    2.48120  115.57292    0.36568    3.34781  105.73657    4.77152    8.50000 65000.00000
 1206.20000    9.94154    2.86975    2.86281    2.90299    2.47886  116.01858    0.36609    3.35226  105.22106    4.83853    8.50000 65000.00000
 1206.30000   -9999.25    2.90871    2.88930    2.92715    2.48076  115.70814    0.36616    3.37053  105.81788    4.99838    8.50000 65000.00000
 1206.40000    9.97345    2.91834    2.87483    2.92483    2.48061  115.04523    0.36392    3.37314  105.84935    4.94284    8.50000 65000.00000
 1206.50000    9.95876    2.82421    2.77085    2.83157    2.47906  116.97521    0.36352    3.39054  106.82710    5.04733    8.50000 65000.00000
 1206.60000    9.94310    2.71883    2.70695    2.75748    2.47942  115.18624    0.36375    3.39383  106.00729    5.05462    8.50000 65000.00000
 1206.70000    9.92172    2.75791    2.75773    2.78246    2.47839  113.41155    0.36494    3.38503  106.11521    5.04814    8.50000 65000.00000
 1206.80000    9.90945    2.64904    2.67396    2.68552    2.47757  113.79584    0.36611    3.36792  105.71662    5.08798    8.50000 65000.00000
