~Version ---------------------------------------------------
VERS.   2.0 : CWLS log ASCII Standard -VERSION 2.0
WRAP.    NO : One line per depth step
DLM . SPACE : Column Data Section Delimiter
~Well ------------------------------------------------------
STRT.m          1000.00000 : START DEPTH
STOP.m          2000.00000 : STOP DEPTH
STEP.m             0.10000 : STEP
NULL.             -9999.25 : NULL VALUE
COMP. FORCE 2020 Recreator : 
WELL.   WELL_FORCE_2020_08 : 
FLD .                      : FIELD
LOC .                      : LOCATION
PROV.                      : PROVINCE
CNTY.                      : COUNTY
STAT.                      : STATE
CTRY.                      : COUNTRY
SRVC.                      : SERVICE COMPANY
DATE.                      : DATE
UWI .                      : UNIQUE WELL ID
API .                      : API NUMBER
~Curve Information -----------------------------------------
DEPT                            .m      : 
CALI                            .in     : 
RSHA                            .ohm.m  : 
RMED                            .ohm.m  : 
RDEP                            .ohm.m  : 
RHOB                            .g/cm3  : 
GR                              .gAPI   : 
NPHI                            .v/v    : 
PEF                             .b/e    : 
DTC                             .us/ft  : 
SP                              .mV     : 
BS                              .in     : 
FORCE_2020_LITHOFACIES_LITHOLOGY.code   : 
~Params ----------------------------------------------------
~Other -----------------------------------------------------
~ASCII -----------------------------------------------------
# ...
 1201.60000    9.90424    2.95167    2.88550    2.90166    2.47967  116.58742    0.36493    3.34036  106.80697    4.60441    8.50000 65000.00000
 1201.70000    9.89620    2.78606    2.73990    2.76493    2.48083  117.50629    0.36940    3.33238  106.51608    4.58982    8.50000 65000.00000
 1201.80000    9.89880    2.79820    2.73145    2.75698    2.48805  115.59436    0.36803    3.32106  106.25391    4.53879    8.50000 65000.00000
 1201.90000    9.87590    2.79597    2.72734    2.75904    2.48850  115.14781    0.36460    3.34455  105.54669    4.77742    8.50000 65000.00000
 1202.00000    9.89594    2.81578    2.70113    2.77161    2.48662  114.40208    0.36182    3.32769  106.20586    4.51511    8.50000 65000.00000
 1202.10000    9.90528    2.87376    2.74246    2.81366    2.49023  113.04536    0.35718    3.33098  105.76430    4.49748    8.50000 65000.00000
 1202.20000    9.90606    2.83869    2.69585    2.76464    2.48902  110.54470    0.35777    3.35529  106.18058    4.26245    8.50000 65000.00000
 1202.30000    9.93298    2.87776    2.72855    2.79286    2.48812  108.89708    0.36372    3.35956  106.35745    4.28955    8.50000 65000.00000
 1202.40000    9.92026    2.84438    2.71347    2.77471    2.48436  108.36194    0.36578    3.36349  106.19016    4.31124    8.50000 65000.00000
 1202.50000    9.92317    2.89574    2.76406    2.82399    2.48443  106.31722    0.36528    3.39738  106.49365    4.57726    8.50000 65000.00000
 1202.60000    9.94630    2.83547    2.71157    2.79019    2.48701  105.95013    0.36546    3.40855  106.60724    4.44376    8.50000 65000.00000
 1202.70000    9.93162    2.83788    2.72271    2.80087    2.49436  105.60310    0.36873    3.41734  107.37242    4.58125    8.50000 65000.00000
 1202.80000    9.93035    2.87806    2.75711    2.84464    2.49256  105.83502    0.37111    3.40391  107.37600    4.41937    8.50000 65000.00000
 1202.90000    9.93431    2.91636    2.77693    2.87083    2.49084  105.65712    0.36671    3.42455  106.31526    4.93354    8.50000 65000.00000
 1203.00000    9.91060    2.86067    2.73110    2.80658    2.49081  106.07291    0.36468    3.41459  106.11129    4.98548    8.50000 65000.00000
 1203.10000    9.90804    2.76846    2.66617    2.72956    2.48876  106.23633    0.36324    3.40357  106.35142    4.94769    8.50000 65000.00000
 1203.20000    9.90595    2.70123    2.59910    2.66065    2.48973  106.83891    0.36441    3.41371  106.38519    5.03151    8.50000 65000.00000
 1203.30000    9.87065    2.74507    2.62550    2.68671    2.49072  106.64650    0.36528    3.41658  107.73902    5.39744    8.50000 65000.00000
 1203.40000    9.86356    2.69157    2.58063    2.64003    2.49086  108.42462    0.36221    3.39477  108.49242    5.25980    8.50000 65000.00000
 1203.50000    9.84622    2.66352    2.58862    2.65829    2.49036  109.14844    0.36133    3.42485  107.96555    5.39911    8.50000 65000.00000
 1203.60000    9.85477    2.70524    2.61882    2.69428    2.49429  109.32523    0.35818    3.43683  108.27824    5.28024    8.50000 65000.00000
 1203.70000    9.83213    2.68941    2.60249    2.67314    2.49387  110.56295    0.35556    3.45110  107.77904    5.16387    8.50000 65000.00000
 1203.80000    9.82071    2.76593    2.68868    2.75810    2.49478  109.71484    0.35628    3.45670  108.14676    5.03286    8.50000 65000.00000
 1203.90000    9.81916    2.76662    2.73203    2.79756    2.48958  111.33165    0.35775    3.45930  108.18917    5.13104    8.50000 65000.00000
 1204.00000    9.81834    2.75597    2.71066    2.77572    2.48210  111.73924    0.36171    3.42494  109.34278    5.31766    8.50000 65000.00000
 1204.10000    9.82152    2.63521    2.58590    2.64986    2.48435  111.75234    0.36321    3.44237  108.76718    5.57016    8.50000 65000.00000
 1204.20000    9.80806    2.64834    2.60017    2.64307    2.48417  113.20518    0.37000    3.41187  108.65200    5.72091    8.50000 65000.00000
 1204.30000    9.77689    2.57605    2.55748    2.60156    2.48154  113.47020    0.37011    3.40641  109.06177    5.92581    8.50000 65000.00000
 1204.40000    9.74286    2.50999    2.48717    2.53455    2.48432  114.53951    0.36883    3.40289  107.54696    5.68439    8.50000 65000.00000
 1204.50000    9.73989    2.52904    2.49127    2.54383    2.48320  113.89203    0.36490    3.40523  108.04553    5.49593    8.50000 65000.00000
 1204.60000    9.76205    2.51664    2.48086    2.53354    2.48358  114.85930    0.36152    3.40628  108.10050    5.29157    8.50000 65000.00000
 1204.70000    9.76986    2.47311    2.44425    2.49588    2.48339  115.70019    0.36326    3.39526  108.10436    5.08948    8.50000 65000.00000
 1204.80000    9.80795    2.54525    2.53134    2.56346    2.48122  116.55289    0.36393    3.35821  108.95340    5.18173    8.50000 65000.00000
 1204.90000    9.81453    2.53408    2.57983    2.59552    2.48554  116.14977    0.35865    3.38024  108.69689    5.10080    8.50000 65000.00000
 1205.00000    9.82207    2.55406    2.60560    2.61687    2.48242  115.25960    0.35879    3.35267  109.17134    4.67133    8.50000 65000.00000
 1205.10000    9.82711    2.56692    2.61815    2.64328    2.48169  114.08719    0.35735    3.36100  109.35050    4.78429    8.50000 65000.00000
 1205.20000    9.84990    2.62422    2.64284    2.67290    2.48379  113.31387    0.36091    3.35445  109.35007    4.73996    8.50000 65000.00000
 1205.30000    9.86812    2.69410    2.71526    2.74352    2.48643  112.83409    0.36405    3.36392  110.00313    4.98444    8.50000 65000.00000
 1205.40000    9.89984    2.64553    2.67618    2.69570    2.48605  112.45968    0.36289    3.37381  109.41063    4.78275    8.50000 65000.00000
 1205.50000    9.88547    2.68254    2.71634    2.74164    2.48461  111.37215    0.36408    3.37519  109.04146    5.00386    8.50000 65000.00000
 1205.60000    9.88025    2.72426    2.70666    2.72832    2.47630  111.08269    0.36487    3.36532  109.44456    5.07126    8.50000 65000.00000
 1205.70000    9.88152    2.69382    2.69704    2.71376    2.46943  110.66414    0.36880    3.35701  109.53174    5.25250    8.50000 65000.00000
 1205.80000    9.93049    2.69742    2.69484    2.72133    2.47105  108.88100    0.36917    3.36014  110.05933    5.68805    8.50000 65000.00000
 1205.90000    9.95324    2.69670    2.70685    2.74570    2.47332  109.49358    0.36562    3.37851  109.91891    5.62391    8.50000 65000.00000
 1206.00000    9.92540    2.72100    2.72205    2.75385    2.46834  107.50190    0.36385    3.36676  110.61274    5.47655    8.50000 65000.00000
 1206.10000    9.92878    2.78874    2.78529    2.80584    2.47572  106.79671    0.36050    3.37474  110.71913    5.22970    8.50000 65000.00000
 1206.20000    9.92026    2.81167    2.83567    2.83451    2.47187  108.49532    0.35559    3.36931  111.06033    5.32246    8.50000 65000.00000
 1206.30000    9.93558    2.79128    2.83882    2.84252    2.47014  108.27178    0.34962    3.39820  111.53959    5.30070    8.50000 65000.00000
 1206.40000    9.97470    2.75824    2.80726    2.80386    2.47567  108.43363    0.35027    3.39998  110.98617    5.39967    8.50000 65000.00000
 1206.50000    9.98717    2.83403    2.88703    2.89090    2.47075  109.56313    0.34935    3.40683  111.86236    5.49427    8.50000 65000.00000
 1206.60000    9.99903    2.85184    2.89687    2.90311    2.47253  110.20447    0.35232    3.42103  111.63520    5.59199    8.50000 65000.00000
 1206.70000   10.01032    2.87509    2.89889    2.90780    2.47501  110.37419    0.35541    3.39947  111.15693    5.79239    8.50000 65000.00000
 1206.80000   10.01713    2.84584    2.88020    2.87684    2.47331  108.23353    0.35174    3.39862  110.95900    6.01126    8.50000 65000.00000
 1206.90000    9.97645    2.79541    2.80447    2.82023    2.47414  108.57270    0.35052    3.41630  109.85041    5.93541    8.50000 65000.00000
 1207.00000    9.95587    2.83690    2.79796    2.81940    2.47234  109.80726    0.34943    3.39557  110.47635    6.14049    8.50000 65000.00000
 1207.10000    9.96371    2.83687    2.79318    2.82363    2.47555  111.17990    0.34929    3.40632  111.11503    6.13175    8.50000 65000.00000
