~Version ---------------------------------------------------
VERS.   2.0 : CWLS log ASCII Standard -VERSION 2.0
WRAP.    NO : One line per depth step
DLM . SPACE : Column Data Section Delimiter
~Well ------------------------------------------------------
STRT.m          1000.00000 : START DEPTH
STOP.m          2000.00000 : STOP DEPTH
STEP.m             0.10000 : STEP
NULL.             -9999.25 : NULL VALUE
COMP. FORCE 2020 Recreator : 
WELL.   WELL_FORCE_2020_10 : 
FLD .                      : FIELD
LOC .                      : LOCATION
PROV.                      : PROVINCE
CNTY.                      : COUNTY
STAT.                      : STATE
CTRY.                      : COUNTRY
SRVC.                      : SERVICE COMPANY
DATE.                      : DATE
UWI .                      : UNIQUE WELL ID
API .                      : API NUMBER
~Curve Information -----------------------------------------
DEPT                            .m      : 
CALI                            .in     : 
RSHA                            .ohm.m  : 
RMED                            .ohm.m  : 
RDEP                            .ohm.m  : 
RHOB                            .g/cm3  : 
GR                              .gAPI   : 
NPHI                            .v/v    : 
PEF                             .b/e    : 
DTC                             .us/ft  : 
SP                              .mV     : 
BS                              .in     : 
FORCE_2020_LITHOFACIES_LITHOLOGY.code   : 
~Params ----------------------------------------------------
~Other -----------------------------------------------------
~ASCII -----------------------------------------------------
# ...
 1666.40000    8.58322    4.61846    4.85222    4.82790    2.55578   82.36747    0.29970    3.18596   95.67750    0.18596    8.50000 80000.00000
 1666.50000    8.58317    4.58308    4.83044    4.81123    2.55342   82.50106    0.29926    3.18394   95.27709   -0.39681    8.50000 80000.00000
 1666.60000    8.58702    4.63827    4.90089    4.86872    2.55135   81.64773    0.29632    3.17664   94.62134   -0.43284    8.50000 80000.00000
 1666.70000    8.58614    4.59729    4.84132    4.81452    2.54692   81.67549    0.29360    3.18025   93.69513   -0.84045    8.50000 80000.00000
 1666.80000    8.58762    4.74370    4.94613    4.94652    2.54863   81.60418    0.29471    3.18056   94.23664   -0.55080    8.50000 80000.00000
 1666.90000    8.58592    4.76475    4.92726    4.93883    2.54427   82.20843    0.29521    3.15943   94.41974   -0.37587    8.50000 80000.00000
 1667.00000    8.58559    4.77063    4.88359    4.89990    2.54579   82.75106    0.29789    3.17720   94.53521   -0.26950    8.50000 80000.00000
 1667.10000    8.58564    4.68454    4.78442    4.78862    2.55302   81.55642    0.29643    3.16400   94.45962   -0.33707    8.50000 80000.00000
 1667.20000    8.58948    4.59181    4.68066    4.67069    2.54917   81.27589    0.29557    3.16009   94.90746   -0.56988    8.50000 80000.00000
 1667.30000    8.58891    4.41306    4.40867    4.43008    2.54757   81.62018    0.29962    3.15622   95.35761   -0.48866    8.50000 80000.00000
 1667.40000    8.58672    4.34058    4.35584    4.37041    2.54643   81.58553    0.29830    3.15744   95.49764   -0.13314    8.50000 80000.00000
 1667.50000    8.58562    3.64278    3.56352    3.56344    2.54356   80.83721    0.29963    3.15503   95.36412   -0.33068    8.50000 80000.00000
 1667.60000    8.58528    3.71297    3.63322    3.63201    2.53760   81.72049    0.30033    3.15324   95.77169   -0.67607    8.50000 80000.00000
 1667.70000    8.58760    3.60173    3.58249    3.57907    2.53724   80.82463    0.30089    3.15968   95.80744   -0.48048    8.50000 80000.00000
 1667.80000    8.58692    3.77270    3.71730    3.72996    2.53194   81.90907    0.30144    3.14749   96.18648   -0.48538    8.50000 80000.00000
 1667.90000    8.58840    3.84513    3.78678    3.81186    2.53374   81.72476    0.30260    3.15694   95.88064   -0.39730    8.50000 80000.00000
 1668.00000    8.59008    3.92869    3.86751    3.90131    2.53306   81.97458    0.30423    3.16010   95.92039   -0.32914    8.50000 80000.00000
 1668.10000    8.59075    3.77558    3.75572    3.78983    2.54104   80.26906    0.30450    3.16961   95.80110   -0.29727    8.50000 80000.00000
 1668.20000    8.58829    3.82720    3.79464    3.83607    2.53573   79.87773    0.30652    3.17159   95.76040   -0.38993    8.50000 80000.00000
 1668.30000    8.58721    3.74552    3.69967    3.77242    2.53082   80.85985    0.30727    3.17614   94.57480   -0.58124    8.50000 80000.00000
 1668.40000    8.58639    3.76311    3.70355    3.78683    2.52625   80.27677    0.30654    3.18021   94.78740   -0.48606    8.50000 80000.00000
 1668.50000    8.58667    3.75548    3.68027    3.76613    2.52651   80.21208    0.30710    3.16826   94.60495   -0.72031    8.50000 80000.00000
 1668.60000    8.58703    3.82098    3.72043    3.80154    2.52324   79.95228    0.30996    3.17195   94.54092   -0.37577    8.50000 80000.00000
 1668.70000    8.58625    3.76142    3.63281    3.73335    2.52207   80.03301    0.31341    3.17270   95.32514   -0.36765    8.50000 80000.00000
 1668.80000    8.58350    3.84937    3.75549    3.83650    2.52306   79.47378    0.31198    3.17695   96.18761    0.00157    8.50000 80000.00000
 1668.90000    8.58085    3.73194    3.68818    3.75289    2.52204   80.23444    0.31412    3.18849   95.62275   -0.07071    8.50000 80000.00000
 1669.00000    8.57910    3.66668    3.62915    3.68475    2.52004   79.68631    0.31535    3.20353   95.72591   -0.08148    8.50000 80000.00000
 1669.10000    8.58170    3.67462    3.65753    3.71142    2.52028   80.02056    0.31396    3.19611   95.17438   -0.04737    8.50000 80000.00000
 1669.20000    8.57911    3.66284    3.65346    3.72009    2.50848   79.84764    0.31416    3.21470   95.43857   -0.28882    8.50000 80000.00000
 1669.30000    8.57303    3.70783    3.68534    3.78484    2.50862   80.50239    0.31173    3.21045   95.55174    0.09947    8.50000 80000.00000
 1669.40000    8.57218    3.81706    3.79294    3.90900    2.51053   80.39958    0.30907    3.20487   95.08271   -0.21220    8.50000 80000.00000
 1669.50000    8.57230    3.81632    3.76075    3.87903    2.51739   80.42498    0.31043    3.20846   95.60768   -0.48311    8.50000 80000.00000
 1669.60000    8.57458    3.99158    3.93674    4.03977    2.51584   80.73440    0.30948    3.21079   95.51174   -0.43613    8.50000 80000.00000
 1669.70000    8.57280    3.90134    3.84859    3.94939    2.51883   79.26298    0.30863    3.19880   94.70999   -0.36462    8.50000 80000.00000
 1669.80000    8.57424    3.96066    3.92296    4.02556    2.52355   78.81094    0.30724    3.19491   95.06444   -0.65231    8.50000 80000.00000
 1669.90000    8.57203    3.70449    3.69492    3.77547    2.52713   77.97850    0.30627    3.19026   94.32019   -0.29370    8.50000 80000.00000
 1670.00000    8.56889    3.67687    3.67270    3.73689    2.52700   78.46373    0.30702    3.19503   94.63148   -0.61205    8.50000 80000.00000
 1670.10000    8.56649    3.67461    3.66409    3.71936    2.52625   78.93764    0.30512    3.20671   94.68156   -0.64837    8.50000 80000.00000
 1670.20000    8.56636    3.68512    3.66103    3.72295    2.51957   81.07948    0.30729    3.20043   95.54814   -0.89480    8.50000 80000.00000
 1670.30000    8.56861    3.71154    3.66687    3.73059    2.51824   81.06479    0.30786    3.19494   95.47995   -0.95224    8.50000 80000.00000
 1670.40000    8.56832    3.72282    3.66517    3.73004    2.51266   79.88064    0.30911    3.19876   96.10068   -0.93065    8.50000 80000.00000
 1670.50000    8.56756    4.05347    3.96404    4.04477    2.51040   80.41865    0.30869    3.18324   95.96304   -1.23486    8.50000 80000.00000
 1670.60000    8.56836    4.03815    3.92483    4.01462    2.51388   80.24792    0.30970    3.18097   96.61044   -0.74085    8.50000 80000.00000
 1670.70000    8.56860    4.54880    4.53422    4.59791    2.51645   79.78262    0.30960    3.17803   96.95020   -0.41836    8.50000 80000.00000
 1670.80000    8.56713    4.53508    4.57251    4.59570    2.52052   80.06960    0.30882    3.17608   96.71632   -0.98014    8.50000 80000.00000
 1670.90000    8.56772    4.53807    4.56619    4.61812    2.52451   81.35409    0.30900    3.17308   96.63847   -1.00526    8.50000 80000.00000
 1671.00000    8.56700    4.55172    4.60679    4.63795    2.52639   81.56441    0.30652    3.16595   96.93094   -1.20203    8.50000 80000.00000
 1671.10000    8.56955    4.59349    4.68521    4.71928    2.52450   81.01724    0.30647    3.15076   96.98517   -1.35346    8.50000 80000.00000
 1671.20000    8.56699    4.61056    4.70878    4.75997    2.52033   80.72185    0.30776    3.14555   96.92055   -1.26112    8.50000 80000.00000
 1671.30000    8.57015    4.63700    4.66452    4.75122    2.52147   82.17465    0.30816    3.11323   96.72397   -1.31757    8.50000 80000.00000
 1671.40000    8.57507    4.71681    4.72686    4.79947    2.51841   82.56919    0.30783    3.11306   96.76772   -1.28501    8.50000 80000.00000
 1671.50000    8.57908    4.70312    4.69872    4.76409    2.51672   81.51181    0.31110    3.11298   96.64438   -1.31322    8.50000 80000.00000
 1671.60000    8.57774    4.93103    4.92420    4.99005    2.51259   81.94013    0.31193    3.12266   96.29763   -0.73027    8.50000 80000.00000
 1671.70000    8.57707    4.83252    4.91082    4.94525    2.51539   82.96299    0.31326    3.12613   96.35191   -0.49125    8.50000 80000.00000
 1671.80000    8.57937    4.95662    4.97775    5.02655    2.52020   82.23874    0.31680    3.12656   97.00822   -0.44117    8.50000 80000.00000
 1671.90000    8.57708    4.86738    4.87033    4.91414    2.51553   82.74849    0.31646    3.13814   97.26105   -0.09671    8.50000 80000.00000
