~Version ---------------------------------------------------
VERS.   2.0 : CWLS log ASCII Standard -VERSION 2.0
WRAP.    NO : One line per depth step
DLM . SPACE : Column Data Section Delimiter
~Well ------------------------------------------------------
STRT.m          1000.00000 : START DEPTH
STOP.m          2000.00000 : STOP DEPTH
STEP.m             0.10000 : STEP
NULL.             -9999.25 : NULL VALUE
COMP. FORCE 2020 Recreator : 
WELL.   WELL_FORCE_2020_06 : 
FLD .                      : FIELD
LOC .                      : LOCATION
PROV.                      : PROVINCE
CNTY.                      : COUNTY
STAT.                      : STATE
CTRY.                      : COUNTRY
SRVC.                      : SERVICE COMPANY
DATE.                      : DATE
UWI .                      : UNIQUE WELL ID
API .                      : API NUMBER
~Curve Information -----------------------------------------
DEPT                            .m      : 
CALI                            .in     : 
RSHA                            .ohm.m  : 
RMED                            .ohm.m  : 
RDEP                            .ohm.m  : 
RHOB                            .g/cm3  : 
GR                              .gAPI   : 
NPHI                            .v/v    : 
PEF                             .b/e    : 
DTC                             .us/ft  : 
SP                              .mV     : 
BS                              .in     : 
FORCE_2020_LITHOFACIES_LITHOLOGY.code   : 
~Params ----------------------------------------------------
~Other -----------------------------------------------------
~ASCII -----------------------------------------------------
# ...
 1397.60000    8.58407    5.06909    5.04658    5.04208    2.52559   77.09077    0.30698    3.23827   96.84910   -1.26670    8.50000 80000.00000
 1397.70000    8.58626    5.01825    5.01076    5.00327    2.52712   76.68888    0.30341    3.23358   96.17317   -0.72090    8.50000 80000.00000
 1397.80000    8.58333    5.06611    5.06416    5.05245    2.52958   76.83589    0.30480    3.25152   96.14178   -0.90743    8.50000 80000.00000
 1397.90000    8.58699    4.64425    4.65566    4.66057    2.52823   76.79825    0.30393    3.24068   95.89731   -0.71611    8.50000 80000.00000
 1398.00000    8.58760    4.68635    4.63564    4.69395    2.52571   77.63620    0.30248    3.23315   95.74071   -0.81836    8.50000 80000.00000
 1398.10000    8.59030    4.89160    4.87252    4.92921    2.52637   77.12793    0.30397    3.24631   95.85204   -0.76475    8.50000 80000.00000
 1398.20000    8.58791    4.64907    4.54038    4.61815    2.52580   76.98475    0.30510    3.25190   95.92662   -0.63249    8.50000 80000.00000
 1398.30000    8.58960    4.61724    4.51161    4.56574    2.52064   76.57478    0.30538    3.26850   95.15174    0.01007    8.50000 80000.00000
 1398.40000    8.58871    4.87803    4.73420    4.82529    2.52163   75.56123    0.30420    3.28003   94.96498   -0.18782    8.50000 80000.00000
 1398.50000    8.58818    4.75736    4.59582    4.69388    2.52638   75.24407    0.30410    3.28031   95.43500   -0.36533    8.50000 80000.00000
 1398.60000    8.59002    4.78845    4.65981    4.75857    2.52342   75.95445    0.30779    3.26702   95.74927   -0.26516    8.50000 80000.00000
 1398.70000    8.58807    4.92422    4.86941    4.93969    2.51947   75.24891    0.30546    3.26610   95.16398   -0.14708    8.50000 80000.00000
 1398.80000    8.59059    4.90780    4.88655    4.94384    2.52116   75.75495    0.30365    3.27053   94.15435    0.25903    8.50000 80000.00000
 1398.90000    8.59200    4.89135    4.87299    4.94923    2.52042   75.35673    0.30217    3.26792   94.08325    0.34885    8.50000 80000.00000
 1399.00000    8.59429    4.70418    4.68924    4.74498    2.52447   75.38321    0.30447    3.26318   94.65359    0.59632    8.50000 80000.00000
 1399.10000    8.59546    4.76465    4.67624    4.74291    2.52810   76.53301    0.30373    3.25064   94.94102    0.93969    8.50000 80000.00000
 1399.20000    8.59459    4.59723    4.56626    4.61538    2.53127   78.47345    0.30613    3.25247   95.58119    0.83989    8.50000 80000.00000
 1399.30000    8.59421    4.34987    4.38920    4.40207    2.52900   78.31312    0.30672    3.25353   95.69702    0.38891    8.50000 80000.00000
 1399.40000    8.59372    4.31543    4.34375    4.37335    2.52826   78.16693    0.30403    3.24575   95.85201    0.25012    8.50000 80000.00000
 1399.50000   -9999.25    4.78247    4.77636    4.80263    2.53353   78.11922    0.30378    3.24973   95.96961    0.47846    8.50000 80000.00000
 1399.60000    8.59222    4.64744    4.56677    4.57387    2.53511   78.84529    0.30704    3.24854   95.51813   -0.14047    8.50000 80000.00000
 1399.70000    8.58689    4.52931    4.45471    4.47056    2.53449   79.31310    0.30971    3.25850   95.24613   -0.12558    8.50000 80000.00000
 1399.80000    8.58647    4.50531    4.39412    4.41778    2.53040   79.55092    0.31089    3.25535   95.02636   -0.38648    8.50000 80000.00000
 1399.90000    8.58572    4.49954    4.39159    4.41889    2.52692   79.86617    0.31134    3.23250   95.19898   -0.19007    8.50000 80000.00000
 1400.00000    8.58390    4.66627    4.61411    4.66032    2.52164   79.77697    0.31479    3.22588   95.54951   -0.08151    8.50000 80000.00000
 1400.10000    8.58644    4.51809    4.51947    4.52841    2.52425   79.41091    0.31713    3.24144   95.86914    0.60704    8.50000 80000.00000
 1400.20000    8.58428    4.51816    4.49702    4.49809    2.51918   79.83065    0.31600    3.22812   94.75842    0.26065    8.50000 80000.00000
 1400.30000    8.58601    4.55331    4.54023    4.54429    2.51696   79.94984    0.31490    3.21960   95.00619    0.13064    8.50000 80000.00000
 1400.40000    8.58392    4.60093    4.56459    4.57367    2.51877   79.29660    0.31766    3.21624   95.32532   -0.17719    8.50000 80000.00000
 1400.50000    8.58555    4.49278    4.47036    4.46379    2.52125   80.08186    0.32029    3.20202   95.22899    0.01519    8.50000 80000.00000
 1400.60000    8.58455    4.48725    4.46881    4.49624    2.52054   80.33573    0.32020    3.20028   94.77506   -0.10539    8.50000 80000.00000
 1400.70000    8.58301    4.46113    4.43040    4.45404    2.52634   80.49547    0.31531    3.19209   94.73955   -0.18693    8.50000 80000.00000
 1400.80000    8.58279    4.42457    4.31311    4.39278    2.53215   80.80020    0.31450    3.17722   95.45185   -0.18426    8.50000 80000.00000
 1400.90000    8.58253    4.38682    4.31030    4.40032    2.53268   80.46623    0.31603    3.17333   95.63761   -0.58514    8.50000 80000.00000
 1401.00000    8.58425    4.33835    4.25701    4.33269    2.53048   80.95859    0.31745    3.17302   95.83305   -0.77416    8.50000 80000.00000
 1401.10000    8.58104    4.30966    4.23340    4.31411    2.52170   81.11679    0.31576    3.16887   96.12726   -0.74609    8.50000 80000.00000
 1401.20000    8.57766    4.29983    4.25105    4.32938    2.52024   80.70156    0.31790    3.17424   96.54884   -1.09912    8.50000 80000.00000
 1401.30000    8.57846    4.51550    4.44673    4.53938    2.52385   80.70961    0.31305    3.16938   96.74298   -0.95547    8.50000 80000.00000
 1401.40000    8.57439    4.52695    4.44964    4.53634    2.52483   82.07592    0.31237    3.15875   96.63151   -0.82899    8.50000 80000.00000
 1401.50000    8.57569    4.47971    4.42925    4.50383    2.52799   81.92606    0.31244    3.16126   96.72104   -0.84036    8.50000 80000.00000
 1401.60000    8.57764    4.13444    4.13430    4.20114    2.52358   81.75252    0.31046    3.15860   96.79560   -1.04895    8.50000 80000.00000
 1401.70000    8.57830    4.11102    4.12326    4.19402    2.52665   81.82809    0.31003    3.15000   96.70282   -0.66061    8.50000 80000.00000
 1401.80000    8.58122    4.18404    4.22084    4.29289    2.52926   81.71238    0.30686    3.14188   97.09348   -0.28465    8.50000 80000.00000
 1401.90000    8.58073    4.18580    4.23757    4.30572    2.52931   80.13048    0.30585    3.15018   97.76495   -0.22008    8.50000 80000.00000
 1402.00000    8.57923    4.21913    4.27278    4.33902    2.52937   80.42104    0.30078    3.15391   97.31846    0.00390    8.50000 80000.00000
 1402.10000    8.57926    4.25117    4.27876    4.31321    2.53143   80.28354    0.29737    3.16488   97.07679   -0.12006    8.50000 80000.00000
 1402.20000    8.57461    4.37210    4.38493    4.42717    2.53268   80.13965    0.29723    3.15471   96.10605   -0.60186    8.50000 80000.00000
 1402.30000    8.57415    4.14222    4.17304    4.23289    2.53315   79.56180    0.29802    3.17175   96.79478   -0.47192    8.50000 80000.00000
 1402.40000    8.57538    4.22212    4.24436    4.29267    2.53405   79.38358    0.30149    3.18218   96.57242   -0.21686    8.50000 80000.00000
 1402.50000    8.57441    4.33662    4.36192    4.41918    2.52874   79.77269    0.29940    3.18614   96.70913   -0.42299    8.50000 80000.00000
 1402.60000    8.57113    4.22185    4.25914    4.29939    2.52529   79.51125    0.29771    3.19394   96.64591   -0.18839    8.50000 80000.00000
 1402.70000    8.57123    4.19845    4.23887    4.27124    2.51929   79.15253    0.29568    3.18793   96.20305   -0.30284    8.50000 80000.00000
 1402.80000    8.57577    4.12298    4.20298    4.22137    2.51443   78.04049    0.29478    3.19466   96.91237   -0.38079    8.50000 80000.00000
 1402.90000    8.57633    3.91028    4.01831    4.00934    2.50789   78.10878    0.29606    3.20828   96.32546   -0.17424    8.50000 80000.00000
 1403.00000    8.57398    4.01561    4.09108    4.08706    2.50417   77.78794    0.29335    3.21355   96.78283    0.18773    8.50000 80000.00000
 1403.10000    8.57005    3.99982    4.10838    4.12041    2.50406   77.28532    0.29263    3.21172   96.74359    0.46276    8.50000 80000.00000
