~Version ---------------------------------------------------
VERS.   2.0 : CWLS log ASCII Standard -VERSION 2.0
WRAP.    NO : One line per depth step
DLM . SPACE : Column Data Section Delimiter
~Well ------------------------------------------------------
STRT.m          1000.00000 : START DEPTH
STOP.m          2000.00000 : STOP DEPTH
STEP.m             0.10000 : STEP
NULL.             -9999.25 : NULL VALUE
COMP. FORCE 2020 Recreator : 
WELL.   WELL_FORCE_2020_02 : 
FLD .                      : FIELD
LOC .                      : LOCATION
PROV.                      : PROVINCE
CNTY.                      : COUNTY
STAT.                      : STATE
CTRY.                      : COUNTRY
SRVC.                      : SERVICE COMPANY
DATE.                      : DATE
UWI .                      : UNIQUE WELL ID
API .                      : API NUMBER
~Curve Information -----------------------------------------
DEPT                            .m      : 
CALI                            .in     : 
RSHA                            .ohm.m  : 
RMED                            .ohm.m  : 
RDEP                            .ohm.m  : 
RHOB                            .g/cm3  : 
GR                              .gAPI   : 
NPHI                            .v/v    : 
PEF                             .b/e    : 
DTC                             .us/ft  : 
SP                              .mV     : 
BS                              .in     : 
FORCE_2020_LITHOFACIES_LITHOLOGY.code   : 
~Params ----------------------------------------------------
~Other -----------------------------------------------------
~ASCII -----------------------------------------------------
# ...
 1397.60000    8.32418   19.77369   19.16360   19.53216    2.33080   45.46320    0.20964    1.84409   81.79475  -35.01804    8.50000 30000.00000
 1397.70000    8.32427   19.96848   19.42696   19.76758    2.33553   45.95128    0.21054    1.83940   82.08723  -35.19466    8.50000 30000.00000
 1397.80000    8.32765   21.48872   21.26405   21.65761    2.33294   45.97979    0.20740    1.83047   82.06932  -34.94411    8.50000 30000.00000
 1397.90000    8.32704   20.82792   20.73586   21.08304    2.32934   46.01985    0.20972    1.83644   82.45746  -34.80956    8.50000 30000.00000
 1398.00000    8.32300   20.72051   20.66817   20.89624    2.32509   45.92173    0.20648    1.83851   82.39365  -35.02565    8.50000 30000.00000
 1398.10000    8.32040   20.23504   19.99495   20.28822    2.32939   46.35975    0.20589    1.83625   81.94555  -34.78061    8.50000 30000.00000
 1398.20000    8.32174   20.37586   20.33005   20.59846    2.33419   46.48802    0.20768    1.83013   82.05730  -35.04374    8.50000 30000.00000
 1398.30000    8.32287   18.96306   19.32515   19.51440    2.33681   46.90784    0.20483    1.83621   82.11697  -34.98507    8.50000 30000.00000
 1398.40000    8.32500   17.11347   17.24579   17.60076    2.33392   46.00587    0.20468    1.82678   82.11317  -34.63576    8.50000 30000.00000
 1398.50000    8.32204   20.06935   20.20159   20.61999    2.33448   46.92331    0.20788    1.82974   82.28638  -34.32271    8.50000 30000.00000
 1398.60000    8.32203   21.54276   22.10530   22.48789    2.33408   47.24967    0.20309    1.83290   82.41221  -34.61234    8.50000 30000.00000
 1398.70000    8.32182   22.23704   22.92627   23.23574    2.33228   47.20775    0.20288    1.83162   82.37250  -34.61594    8.50000 30000.00000
 1398.80000    8.31920   22.27363   22.82523   23.17596    2.33504   46.26028    0.20196    1.83278   82.22591  -34.85452    8.50000 30000.00000
 1398.90000    8.32052   24.25049   24.64123   24.82125    2.33636   46.98143    0.20274    1.82874   82.38095  -34.64629    8.50000 30000.00000
 1399.00000    8.32017   24.41873   24.70766   24.78693    2.33973   46.68805    0.20420    1.83379   82.46891  -34.68275    8.50000 30000.00000
 1399.10000    8.31974   24.72967   24.86043   24.95243    2.34571   46.96792    0.20298    1.83041   82.63718  -35.33514    8.50000 30000.00000
 1399.20000    8.32166   25.24862   25.14023   25.32934    2.34568   46.36464    0.20551    1.83647   82.08842  -35.94987    8.50000 30000.00000
 1399.30000    8.32032   25.12217   24.90230   25.02659    2.33961   46.42658    0.20551    1.84204   81.86803  -35.70314    8.50000 30000.00000
 1399.40000    8.31887   25.48483   25.20000   25.32177    2.34170   46.22239    0.20684    1.84172   81.92123  -35.55363    8.50000 30000.00000
 1399.50000    8.31967   25.62903   25.37433   25.46064    2.34497   46.10210    0.20491    1.84489   81.56430  -35.67652    8.50000 30000.00000
 1399.60000    8.32108   25.83075   25.67437   25.80568    2.34345   46.41729    0.20271    1.83355   81.52143  -35.97211    8.50000 30000.00000
 1399.70000    8.32178   26.20212   25.96294   26.07467    2.34655   45.82360    0.20127    1.82917   81.21442  -35.98816    8.50000 30000.00000
 1399.80000    8.32676   26.46454   26.21013   26.29399    2.34553   46.48983    0.19706    1.83705   81.35688  -35.84790    8.50000 30000.00000
 1399.90000    8.32884   27.76069   27.59014   27.58534    2.34478   46.86594    0.19788    1.83889   81.11865  -35.89933    8.50000 30000.00000
 1400.00000    8.32797   28.32203   28.18995   28.27962    2.34569   47.09738    0.19398    1.84679   81.32295  -36.23785    8.50000 30000.00000
 1400.10000    8.33010   27.48864   27.29252   27.43742    2.34775   46.71597    0.19698    1.85092   81.25085  -35.80511    8.50000 30000.00000
 1400.20000    8.33432   31.03526   30.62250   30.83229    2.34771   46.98747    0.19589    1.85775   80.65068  -36.10572    8.50000 30000.00000
 1400.30000    8.33223   30.58235   30.09879   30.30008    2.34521   48.05164    0.19595    1.85577   80.22288  -35.87040    8.50000 30000.00000
 1400.40000    8.33063   31.23059   30.62146   30.89420    2.34398   47.41629    0.19418    1.86262   80.34736  -35.99850    8.50000 30000.00000
 1400.50000    8.33003   31.83375   31.26830   31.46762    2.34500   47.13911    0.19581    1.87228   80.25882  -35.96693    8.50000 30000.00000
 1400.60000    8.33182   28.99371   28.55446   28.58191    2.35004   46.59736    0.19417    1.86743   80.69484  -36.10645    8.50000 30000.00000
 1400.70000    8.32966   27.49815   26.61335   26.68327    2.35344   47.31164    0.19804    1.85862   80.36566  -36.06725    8.50000 30000.00000
 1400.80000    8.33076   27.40012   26.41843   26.53007    2.35291   47.00996    0.20039    1.86070   80.04399  -36.17152    8.50000 30000.00000
 1400.90000    8.33051   27.38018   26.37781   26.51433    2.34978   47.76474    0.19892    1.86148   80.37494  -36.43745    8.50000 30000.00000
 1401.00000    8.33028   26.40938   25.73467   26.15304    2.34571   47.53496    0.19918    1.85449   79.87619  -36.83355    8.50000 30000.00000
 1401.10000    8.33244   26.13013   25.47170   25.95219    2.34429   47.35504    0.19864    1.86602   80.01779  -36.35065    8.50000 30000.00000
 1401.20000    8.33192   25.33262   24.94530   25.34725    2.34090   47.20299    0.19914    1.86910   80.11496  -35.76873    8.50000 30000.00000
 1401.30000    8.33145   24.46728   24.51519   24.78613    2.34270   47.99420    0.19677    1.86725   80.39874  -35.27213    8.50000 30000.00000
 1401.40000    8.33555   24.69642   24.86788   25.11879    2.35135   48.47187    0.19637    1.86396   80.66796  -34.99186    8.50000 30000.00000
 1401.50000    8.33741   26.58784   26.52800   27.03694    2.35166   48.50036    0.19435    1.85195   80.67952  -35.19535    8.50000 30000.00000
 1401.60000    8.33395   25.96213   25.84941   26.33571    2.35371   48.68460    0.19502    1.85289   81.07172  -34.81236    8.50000 30000.00000
 1401.70000    8.33401   25.61632   25.48988   25.89621    2.35680   48.27449    0.19465    1.84525   81.17174  -34.63235    8.50000 30000.00000
 1401.80000    8.33106   25.57733   25.58568   26.00923    2.35417   48.71157    0.19550    1.84311   81.24762  -34.94488    8.50000 30000.00000
 1401.90000    8.32498   25.62995   25.46322   25.97555    2.35025   48.25615    0.20120    1.83372   81.31978  -34.39094    8.50000 30000.00000
 1402.00000    8.32180   23.53953   23.03967   23.57617    2.35509   48.17177    0.20456    1.84254   81.59082  -34.62032    8.50000 30000.00000
 1402.10000    8.31930   23.74845   23.19362   23.69659    2.36064   47.82921    0.20281    1.83478   81.75738  -34.65898    8.50000 30000.00000
 1402.20000    8.31894   23.61103   23.14608   23.61304    2.36358   48.08991    0.20345    1.84113   81.76820  -34.31143    8.50000 30000.00000
 1402.30000    8.31863   19.90103   19.75122   20.20127    2.36056   47.42558    0.20233    1.84363   82.26992  -34.36442    8.50000 30000.00000
 1402.40000    8.31369   22.85682   21.95374   22.69702    2.36339   47.12069    0.20165    1.85188   82.38200  -34.25386    8.50000 30000.00000
 1402.50000    8.31044   24.23542   23.76717   24.35404    2.36214   47.40407    0.20303    1.84048   82.27528  -34.84534    8.50000 30000.00000
 1402.60000    8.30999   24.45954   23.87660   24.48694    2.35980   47.67015    0.19999    1.83962   82.12732  -34.87796    8.50000 30000.00000
 1402.70000    8.30761   23.91174   23.49824   24.13970    2.35374   48.08706    0.20069    1.83736   81.90175  -34.83754    8.50000 30000.00000
 1402.80000    8.31002   24.07587   23.81083   24.47299    2.35279   47.61982    0.20057    1.84073   82.23757  -34.84438    8.50000 30000.00000
 1402.90000    8.30660   24.71239   24.49288   25.28581    2.35611   47.78344    0.19883    1.83646   81.88471  -34.73343    8.50000 30000.00000
 1403.00000    8.31026   24.53940   24.35563   25.15108    2.35954   47.30875    0.20635    1.83896   81.71171  -34.32551    8.50000 30000.00000
 1403.10000    8.30649   24.78675   24.85513   25.41263    2.36208   47.73227    0.20543    1.85106   81.94180  -34.10899    8.50000 30000.00000
