~Version ---------------------------------------------------
VERS.   2.0 : CWLS log ASCII Standard -VERSION 2.0
WRAP.    NO : One line per depth step
DLM . SPACE : Column Data Section Delimiter
~Well ------------------------------------------------------
STRT.m          1000.00000 : START DEPTH
STOP.m          2000.00000 : STOP DEPTH
STEP.m             0.10000 : STEP
NULL.             -9999.25 : NULL VALUE
COMP. FORCE 2020 Recreator : 
WELL.   WELL_FORCE_2020_02 : 
FLD .                      : FIELD
LOC .                      : LOCATION
PROV.                      : PROVINCE
CNTY.                      : COUNTY
STAT.                      : STATE
CTRY.                      : COUNTRY
SRVC.                      : SERVICE COMPANY
DATE.                      : DATE
UWI .                      : UNIQUE WELL ID
API .                      : API NUMBER
~Curve Information -----------------------------------------
DEPT                            .m      : 
CALI                            .in     : 
RSHA                            .ohm.m  : 
RMED                            .ohm.m  : 
RDEP                            .ohm.m  : 
RHOB                            .g/cm3  : 
GR                              .gAPI   : 
NPHI                            .v/v    : 
PEF                             .b/e    : 
DTC                             .us/ft  : 
SP                              .mV     : 
BS                              .in     : 
FORCE_2020_LITHOFACIES_LITHOLOGY.code   : 
~Params ----------------------------------------------------
~Other -----------------------------------------------------
~ASCII -----------------------------------------------------
# ...
 1464.80000    8.57998  125.11647  122.17050  122.41006    2.82658   25.65066    0.06457    3.13784   53.14124    1.88334    8.50000 74000.00000
 1464.90000    8.57547  118.50988  116.02019  116.02847    2.83127   25.54672    0.06463    3.13336   52.64264    2.05557    8.50000 74000.00000
 1465.00000    8.57489  139.37647  136.96051  136.81429    2.82926   25.58585    0.06478    3.13261   52.80319    2.02271    8.50000 74000.00000
 1465.10000    8.57551  133.15003  130.64286  130.47040    2.82762   26.68822    0.06509    3.12838   52.59084    2.20685    8.50000 74000.00000
 1465.20000    8.57443  158.02315  162.10953  159.16274    2.82622   26.36200    0.06414    3.13564   52.20989    1.72040    8.50000 74000.00000
 1465.30000    8.57417  157.64678  163.40564  159.72982    2.82063   25.90088    0.06240    3.12913   52.20388    2.37732    8.50000 74000.00000
 1465.40000    8.57369  156.35493  163.04243  159.04139    2.81995   26.17187    0.06298    3.12350   52.59963    2.49051    8.50000 74000.00000
 1465.50000    8.57248  148.67587  154.06308  150.25641    2.81875   25.58237    0.06295    3.11890   52.59935    2.86034    8.50000 74000.00000
 1465.60000    8.56962  147.43080  152.95593  149.13971    2.79510   27.74143    0.07240    3.09361   53.57768    1.65564    8.50000 74000.00000
 1465.70000    8.57090  133.61645  137.69384  134.39387    2.77867   28.60394    0.07898    3.06814   55.10789    1.02968    8.50000 74000.00000
 1465.80000    8.57306  129.71962  134.91432  131.43167    2.75800   31.44396    0.08878    3.04856   57.29619    0.31309    8.50000 74000.00000
 1465.90000   -9999.25  129.73935  134.83393  131.37609    2.73443   33.56024    0.09736    3.01956   59.51914   -0.25200    8.50000 74000.00000
 1466.00000    8.57329  128.02963  133.12208  129.63275    2.72107   35.70514    0.10740    2.98868   60.78383   -0.91477    8.50000 74000.00000
 1466.10000    8.57987  126.13981  131.17746  127.68404    2.70524   37.80642    0.12094    2.96907   62.01647   -1.82910    8.50000 74000.00000
 1466.20000    8.57942  114.77734  121.24128  117.71458    2.68685   40.96999    0.12810    2.94492   63.77037   -2.23945    8.50000 74000.00000
 1466.30000    8.57847  109.65090  116.00478  112.35018    2.66307   43.62577    0.13772    2.89947   65.61532   -2.84335    8.50000 74000.00000
 1466.40000    8.58001  107.75350  114.23610  110.51120    2.64267   46.18674    0.14617    2.87094   67.62898   -3.53360    8.50000 74000.00000
 1466.50000    8.57966  102.79985  108.39896  105.15914    2.62230   48.76937    0.15408    2.85144   69.19480   -4.33789    8.50000 74000.00000
 1466.60000    8.57893  101.34523  106.95194  103.68000    2.60399   52.21291    0.16258    2.81749   70.97981   -5.25037    8.50000 65030.00000
 1466.70000    8.57990   79.87708   86.15163   83.06137    2.58352   54.31233    0.17312    2.79791   73.19971   -6.01427    8.50000 65030.00000
 1466.80000    8.58027   71.89282   78.92751   75.81168    2.56426   56.15607    0.18357    2.77672   75.01879   -7.41234    8.50000 65030.00000
 1466.90000    8.58353   69.66434   76.43670   73.23778    2.54672   58.73470    0.19397    2.75030   76.28763   -8.23844    8.50000 65030.00000
 1467.00000    8.58608   68.70162   75.51107   72.26476    2.52164   61.54233    0.20485    2.72323   78.53645   -9.38870    8.50000 65030.00000
 1467.10000    8.58760   46.91669   53.78907   50.68045    2.50380   63.26609    0.21644    2.68483   80.84876   -9.79933    8.50000 65030.00000
 1467.20000    8.58669   45.61129   52.29159   49.28386    2.48314   65.52482    0.22598    2.67059   83.31372  -10.46728    8.50000 65030.00000
 1467.30000    8.59016   16.51257   17.09228   16.53915    2.46796   68.18619    0.23716    2.64940   85.14891  -10.72443    8.50000 65030.00000
 1467.40000    8.59070   10.19753   10.33015   10.29243    2.45089   71.63524    0.24776    2.63407   87.56344  -11.99470    8.50000 65030.00000
 1467.50000    8.59347    9.20710    9.26991    9.38029    2.42957   74.25468    0.25463    2.60995   88.91996  -12.70490    8.50000 65030.00000
 1467.60000    8.59513    7.49305    7.56769    7.56428    2.40589   77.16789    0.26498    2.58038   90.75256  -13.80387    8.50000 65030.00000
 1467.70000    8.59605    7.67450    7.89237    7.84222    2.40925   77.21929    0.26303    2.57466   91.54051  -13.64939    8.50000 65030.00000
 1467.80000    8.59873    7.67521    7.85339    7.80332    2.40910   77.27570    0.26813    2.56705   91.18049  -13.72668    8.50000 65030.00000
 1467.90000    8.60072    7.36527    7.46425    7.46650    2.41227   77.60828    0.26430    2.56164   91.61068  -14.40812    8.50000 65030.00000
 1468.00000    8.59892    7.15811    7.24143    7.26825    2.41204   78.46116    0.26509    2.56664   90.81415  -14.06965    8.50000 65030.00000
 1468.10000    8.60066    7.23445    7.30454    7.34198    2.40241   78.47890    0.26388    2.56290   90.58839  -13.62099    8.50000 65030.00000
 1468.20000    8.59705    7.14547    7.22414    7.25474    2.39699   78.52837    0.26225    2.56085   90.56876  -13.40562    8.50000 65030.00000
 1468.30000    8.59836    7.34163    7.39165    7.41000    2.39951   76.94203    0.26701    2.54875   90.94486  -13.67936    8.50000 65030.00000
 1468.40000    8.59908    7.14533    7.28673    7.28211    2.40630   74.99587    0.26345    2.56866   91.34794  -14.35840    8.50000 65030.00000
 1468.50000    8.59651    7.11186    7.26396    7.24215    2.40506   74.90438    0.26690    2.57646   90.79391  -14.64809    8.50000 65030.00000
 1468.60000    8.59617    7.05731    7.23821    7.22959    2.39797   74.78919    0.26677    2.56428   90.85602  -14.49481    8.50000 65030.00000
 1468.70000    8.59576    6.90735    7.10945    7.11226    2.39627   74.10270    0.26950    2.57271   91.26508  -14.97595    8.50000 65030.00000
 1468.80000    8.59261    6.98882    7.14786    7.15301    2.39701   74.70302    0.27095    2.56328   91.20730  -15.45370    8.50000 65030.00000
 1468.90000    8.59491    6.88185    7.08666    7.07913    2.40152   74.97209    0.26910    2.56594   90.55937  -15.05527    8.50000 65030.00000
 1469.00000    8.59234    7.02223    7.31134    7.31533    2.39749   74.74159    0.26794    2.55037   91.15128  -14.69670    8.50000 65030.00000
 1469.10000    8.59365    7.12297    7.38314    7.38836    2.39493   73.53114    0.27033    2.54925   90.61166  -14.54015    8.50000 65030.00000
 1469.20000    8.59132    7.70231    7.92614    7.94324    2.39391   74.32333    0.26471    2.56426   90.25315  -15.27575    8.50000 65030.00000
 1469.30000    8.59511    7.75530    7.98705    8.01716    2.39242   74.72028    0.26542    2.55020   -9999.25  -15.25991    8.50000 65030.00000
 1469.40000    8.59474    7.43216    7.72869    7.80548    2.39187   74.76505    0.26463    2.53351   89.39175  -15.70474    8.50000 65030.00000
 1469.50000    8.59691    7.01897    7.36196    7.39008    2.39407   73.40057    0.26601    2.54904   89.42549  -15.54826    8.50000 65030.00000
 1469.60000    8.59282    6.27244    6.51225    6.48426    2.39514   73.68156    0.26804    2.54648   89.62157  -15.64190    8.50000 65030.00000
 1469.70000    8.59116    6.49570    6.70438    6.65821    2.39403   73.45005    0.26885    2.55880   89.71709  -15.47640    8.50000 65030.00000
 1469.80000    8.59189    6.22714    6.28431    6.28272    2.38483   73.21974    0.26926    2.56840   89.58263  -15.06241    8.50000 65030.00000
 1469.90000    8.58892    6.26188    6.34409    6.32564    2.38685   74.77873    0.27071    2.57110   90.68741  -15.30886    8.50000 65030.00000
 1470.00000    8.58633    6.15930    6.24014    6.20874    2.38264   73.78768    0.27610    2.58156   89.89242  -15.19256    8.50000 65030.00000
 1470.10000    8.58807    6.09496    6.19294    6.15840    2.38178   73.58025    0.27596    2.57278   90.12866  -15.43320    8.50000 65030.00000
 1470.20000    8.58997    6.28967    6.41347    6.39705    2.38403   73.03879    0.27515    2.57527   90.78764  -16.01956    8.50000 65030.00000
 1470.30000    8.59101    6.48845    6.59203    6.57996    2.38581   72.76572    0.27477    2.57396   91.26189  -16.31386    8.50000 65030.00000
