~Version ---------------------------------------------------
VERS.   2.0 : CWLS log ASCII Standard -VERSION 2.0
WRAP.    NO : One line per depth step
DLM . SPACE : Column Data Section Delimiter
~Well ------------------------------------------------------
STRT.m          1000.00000 : START DEPTH
STOP.m          2000.00000 : STOP DEPTH
STEP.m             0.10000 : STEP
NULL.             -9999.25 : NULL VALUE
COMP. FORCE 2020 Recreator : 
WELL.   WELL_FORCE_2020_10 : 
FLD .                      : FIELD
LOC .                      : LOCATION
PROV.                      : PROVINCE
CNTY.                      : COUNTY
STAT.                      : STATE
CTRY.                      : COUNTRY
SRVC.                      : SERVICE COMPANY
DATE.                      : DATE
UWI .                      : UNIQUE WELL ID
API .                      : API NUMBER
~Curve Information -----------------------------------------
DEPT                            .m      : 
CALI                            .in     : 
RSHA                            .ohm.m  : 
RMED                            .ohm.m  : 
RDEP                            .ohm.m  : 
RHOB                            .g/cm3  : 
GR                              .gAPI   : 
NPHI                            .v/v    : 
PEF                             .b/e    : 
DTC                             .us/ft  : 
SP                              .mV     : 
BS                              .in     : 
FORCE_2020_LITHOFACIES_LITHOLOGY.code   : 
~Params ----------------------------------------------------
~Other -----------------------------------------------------
~ASCII -----------------------------------------------------
# ...
 1599.20000    8.58747    5.14684    4.91160    4.96566    2.52189   80.60694    0.30664    3.19062   92.79654   -0.98640    8.50000 80000.00000
 1599.30000    8.58730    5.15503    4.92811    4.98241    2.52254   81.11404    0.30512    3.19393   93.12689   -0.97549    8.50000 80000.00000
 1599.40000    8.58680    5.07240    4.88498    4.95117    2.52717   81.29369    0.30522    3.19923   93.33718   -0.89790    8.50000 80000.00000
 1599.50000    8.58907    5.21123    4.96589    5.02960    2.53108   80.98855    0.30782    3.20394   92.80936   -1.56212    8.50000 80000.00000
 1599.60000    8.58906    5.10537    4.84516    4.91474    2.52844   81.68256    0.30520    3.21342   92.71324   -1.67778    8.50000 80000.00000
 1599.70000    8.59018    5.14661    4.89467    4.94420    2.52803   80.46022    0.30652    3.22682   93.88884   -1.75242    8.50000 80000.00000
 1599.80000    8.59125    5.40676    5.18417    5.22346    2.53190   81.36417    0.30641    3.20894   93.93022   -2.03354    8.50000 80000.00000
 1599.90000    8.59010    5.08279    4.88873    4.92220    2.53787   80.92889    0.30758    3.20391   93.66069   -1.82100    8.50000 80000.00000
 1600.00000    8.58910    5.10617    4.94016    4.91943    2.53628   81.39933    0.30735    3.19078   93.67431   -1.71885    8.50000 80000.00000
 1600.10000    8.59163    4.68927    4.61851    4.56615    2.53902   82.10989    0.30466    3.18847   93.95510   -1.51381    8.50000 80000.00000
 1600.20000    8.58893    4.75437    4.69942    4.65751    2.53755   83.11838    0.30501    3.19366   94.14623   -1.32761    8.50000 80000.00000
 1600.30000    8.58906    4.68868    4.66228    4.63098    2.54012   82.43574    0.30290    3.19441   94.86970   -1.59460    8.50000 80000.00000
 1600.40000    8.58842    4.67860    4.67521    4.60671    2.54393   82.74281    0.30246    3.20819   95.18918   -1.16374    8.50000 80000.00000
 1600.50000    8.58935    4.84014    4.79913    4.75447    2.54749   82.73915    0.30122    3.20234   95.00946   -1.03746    8.50000 80000.00000
 1600.60000    8.58754    4.97198    4.92710    4.87152    2.55303   82.30234    0.29979    3.21351   95.27692   -0.83094    8.50000 80000.00000
 1600.70000    8.58824    4.88645    4.84978    4.79607    2.55127   82.88033    0.29688    3.19478   95.80052   -1.21319    8.50000 80000.00000
 1600.80000    8.58872    4.64510    4.69161    4.63780    2.54700   83.58210    0.29705    3.19558   96.34665   -1.29647    8.50000 80000.00000
 1600.90000    8.58934    4.60223    4.69313    4.62297    2.54998   82.16585    0.30148    3.20626   97.25377   -1.47387    8.50000 80000.00000
 1601.00000    8.58828    4.95355    5.03079    4.95483    2.54867   81.38031    0.30176    3.21254   97.10242   -0.69757    8.50000 80000.00000
 1601.10000    8.58787    4.80669    4.85224    4.77614    2.54671   80.58767    0.30134    3.20878   97.25681   -0.59564    8.50000 80000.00000
 1601.20000    8.58691    4.92359    4.94826    4.88326    2.54979   81.59810    0.30063    3.22396   97.35721   -0.43453    8.50000 80000.00000
 1601.30000    8.58451    4.71756    4.75665    4.70810    2.55365   80.70281    0.30106    3.22702   97.03157   -0.66388    8.50000 80000.00000
 1601.40000    8.58208    4.70440    4.70464    4.65143    2.55189   81.25236    0.30405    3.21989   96.34671   -0.45545    8.50000 80000.00000
 1601.50000    8.58260    4.43424    4.38990    4.34275    2.55010   81.24509    0.30397    3.21571   96.98539   -0.91569    8.50000 80000.00000
 1601.60000    8.58190    4.52495    4.50408    4.44941    2.54197   81.39625    0.30151    3.20857   97.47375   -0.26546    8.50000 80000.00000
 1601.70000    8.57934    4.61859    4.55661    4.50569    2.54319   81.10873    0.30298    3.21509   97.42210   -0.11428    8.50000 80000.00000
 1601.80000    8.57836    4.61900    4.52547    4.51382    2.53936   81.86672    0.30034    3.20860   96.93099   -0.20153    8.50000 80000.00000
 1601.90000    8.57926    4.46546    4.36741    4.35189    2.53868   82.33744    0.30057    3.22002   96.70661    0.12831    8.50000 80000.00000
 1602.00000    8.57835    4.51842    4.43639    4.41468    2.53321   82.17328    0.30112    3.22272   96.71724   -0.27788    8.50000 80000.00000
 1602.10000    8.57842    4.14509    4.10599    4.08101    2.53540   82.52066    0.30243    3.22449   96.85285   -0.46865    8.50000 80000.00000
 1602.20000    8.57701    4.27315    4.22563    4.21438    2.53038   82.29712    0.30321    3.23543   96.08820   -0.73084    8.50000 80000.00000
 1602.30000    8.57815    4.36466    4.25897    4.23036    2.53290   81.78931    0.30171    3.24126   96.47823   -0.76767    8.50000 80000.00000
 1602.40000    8.57622    4.43906    4.35578    4.32732    2.52519   81.77850    0.30264    3.24220   96.08596   -0.52681    8.50000 80000.00000
 1602.50000    8.57831    4.43381    4.33804    4.31128    2.52151   81.35100    0.30445    3.23864   95.25004   -0.81182    8.50000 80000.00000
 1602.60000    8.58169    4.25849    4.17691    4.14515    2.51854   80.97663    0.30245    3.22262   95.68827   -1.07827    8.50000 80000.00000
 1602.70000    8.58258    4.50829    4.37261    4.38239    2.51399   81.31993    0.30423    3.21560   95.99398   -1.46313    8.50000 80000.00000
 1602.80000    8.58276    4.70696    4.54493    4.55968    2.51650   81.18196    0.30913    3.23447   95.95676   -0.83867    8.50000 80000.00000
 1602.90000    8.58121    4.71943    4.54751    4.53440    2.51731   81.01075    0.31064    3.24685   95.45368   -0.74767    8.50000 80000.00000
 1603.00000    8.58102    4.60098    4.41280    4.41667    2.51410   80.75235    0.30785    3.24717   94.63297   -0.78119    8.50000 80000.00000
 1603.10000    8.58373    4.35308    4.19612    4.20030    2.51494   80.94773    0.30750    3.26146   94.68640   -1.00071    8.50000 80000.00000
 1603.20000    8.58436    4.27408    4.10862    4.13280    2.51154   80.43093    0.30999    3.27222   94.92809   -0.98707    8.50000 80000.00000
 1603.30000    8.58363    4.33047    4.19906    4.22523    2.51009   79.66224    0.30840    3.26389   95.04095   -1.40591    8.50000 80000.00000
 1603.40000    8.58193    4.35625    4.21306    4.24458    2.50571   79.82756    0.30528    3.26084   95.23473   -1.47852    8.50000 80000.00000
 1603.50000    8.58378    4.32670    4.22538    4.25498    2.51022   78.69258    0.30266    3.26565   95.84878   -1.37576    8.50000 80000.00000
 1603.60000    8.58369    4.45336    4.35246    4.37743    2.51580   79.61134    0.30210    3.26228   95.74293   -1.09533    8.50000 80000.00000
 1603.70000    8.58341    4.19212    4.11458    4.15417    2.52666   79.37674    0.30267    3.26866   95.93433   -1.67221    8.50000 80000.00000
 1603.80000    8.58466    4.29459    4.26725    4.29485    2.52679   79.25485    0.30482    3.26531   95.80059   -1.54008    8.50000 80000.00000
 1603.90000    8.58499    4.19946    4.20249    4.21559    2.52980   78.67278    0.30612    3.28251   96.18084   -1.50266    8.50000 80000.00000
 1604.00000    8.58349    4.34619    4.32590    4.34623    2.52929   77.55986    0.30580    3.30621   96.19527   -1.68814    8.50000 80000.00000
 1604.10000    8.58471    4.38980    4.35303    4.38868    2.53674   77.35750    0.30546    3.31187   96.10829   -1.72426    8.50000 80000.00000
 1604.20000    8.58404    4.38981    4.34814    4.38904    2.53497   77.78462    0.30488    3.32686   95.90870   -1.54330    8.50000 80000.00000
 1604.30000    8.58274    4.29814    4.22233    4.26366    2.53853   77.49179    0.30346    3.29678   95.77262   -1.08483    8.50000 80000.00000
 1604.40000    8.58174    4.22130    4.18806    4.25155    2.53711   78.46881    0.30518    3.28202   96.02479   -1.28965    8.50000 80000.00000
 1604.50000    8.58594    4.22521    4.20657    4.26035    2.53869   78.55247    0.30487    3.27717   96.04750   -1.66874    8.50000 80000.00000
 1604.60000    8.58119    4.10991    4.11751    4.17709    2.53964   79.00560    0.30359    3.28673   96.21325   -1.58241    8.50000 80000.00000
 1604.70000    8.57712    4.23946    4.22264    4.29614    2.54187   79.24294    0.30341    3.28752   96.37836   -1.40721    8.50000 80000.00000
