~Version ---------------------------------------------------
VERS.   2.0 : CWLS log ASCII Standard -VERSION 2.0
WRAP.    NO : One line per depth step
DLM . SPACE : Column Data Section Delimiter
~Well ------------------------------------------------------
STRT.m          1000.00000 : START DEPTH
STOP.m          2000.00000 : STOP DEPTH
STEP.m             0.10000 : STEP
NULL.             -9999.25 : NULL VALUE
COMP. FORCE 2020 Recreator : 
WELL.   WELL_FORCE_2020_09 : 
FLD .                      : FIELD
LOC .                      : LOCATION
PROV.                      : PROVINCE
CNTY.                      : COUNTY
STAT.                      : STATE
CTRY.                      : COUNTRY
SRVC.                      : SERVICE COMPANY
DATE.                      : DATE
UWI .                      : UNIQUE WELL ID
API .                      : API NUMBER
~Curve Information -----------------------------------------
DEPT                            .m      : 
CALI                            .in     : 
RSHA                            .ohm.m  : 
RMED                            .ohm.m  : 
RDEP                            .ohm.m  : 
RHOB                            .g/cm3  : 
GR                              .gAPI   : 
NPHI                            .v/v    : 
PEF                             .b/e    : 
DTC                             .us/ft  : 
SP                              .mV     : 
BS                              .in     : 
FORCE_2020_LITHOFACIES_LITHOLOGY.code   : 
~Params ----------------------------------------------------
~Other -----------------------------------------------------
~ASCII -----------------------------------------------------
# ...
 1263.20000    8.59508   49.04997   49.32152   50.04397    2.68501   18.07330    0.09804    5.04734   57.84231   -5.33993    8.50000 70000.00000
 1263.30000    8.59271   47.40122   47.59862   48.06585    2.68225   18.37837    0.09690    5.06356   57.76661   -5.22238    8.50000 70000.00000
 1263.40000    8.59127   50.01769   50.49689   51.02267    2.68086   18.25563    0.09572    5.05728   57.66324   -5.23093    8.50000 70000.00000
 1263.50000    8.59298   51.53758   52.16476   52.61514    2.68018   18.14259    0.09667    5.04883   57.88949   -4.92341    8.50000 70000.00000
 1263.60000    8.59090   52.69036   53.25313   54.00521    2.68059   18.15745    0.09803    5.05153   57.90714   -4.87231    8.50000 70000.00000
 1263.70000    8.59111   53.01254   53.40340   54.13760    2.68116   18.50061    0.09711    5.03873   58.69600   -4.54740    8.50000 70000.00000
 1263.80000    8.59052   51.87574   51.93372   52.49692    2.67855   18.28922    0.09829    5.04367   58.37571   -5.10138    8.50000 70000.00000
 1263.90000    8.58875   47.87327   47.80505   48.57444    2.67792   18.25336    0.09748    5.04682   58.72060   -4.96495    8.50000 70000.00000
 1264.00000    8.58604   49.49660   49.78307   50.75249    2.67674   18.87158    0.09799    5.05071   58.95152   -4.98710    8.50000 70000.00000
 1264.10000    8.58390   50.75518   51.19642   52.29609    2.67637   19.03939    0.09824    5.04969   58.60088   -5.01494    8.50000 70000.00000
 1264.20000    8.58189   50.64553   50.49373   51.92024    2.67616   19.56852    0.09613    5.04449   58.65275   -4.64713    8.50000 70000.00000
 1264.30000    8.58313   51.91885   51.37818   52.78144    2.67618   19.35591    0.09927    5.04214   58.62812   -4.32356    8.50000 70000.00000
 1264.40000    8.56879   53.47465   53.65349   54.60613    2.65909   20.02830    0.10485    4.88942   59.26051   -5.58444    8.50000 70000.00000
 1264.50000    8.55239   53.74327   53.77605   54.62699    2.64061   20.93030    0.10984    4.73258   60.47772   -6.89118    8.50000 70000.00000
 1264.60000    8.53980   52.01884   52.03924   52.61166    2.62618   22.31406    0.11339    4.57466   61.94501   -8.13725    8.50000 70000.00000
 1264.70000    8.52717   50.91911   51.11831   51.70716    2.61334   23.86064    0.12267    4.42956   63.77975   -9.39734    8.50000 70000.00000
 1264.80000    8.51620   52.03988   52.64044   53.03723    2.60127   24.66197    0.12937    4.27580   65.10278  -10.67899    8.50000 70000.00000
 1264.90000    8.50563   52.53675   52.93789   53.30608    2.58238   25.84229    0.13416    4.12304   66.80557  -11.88903    8.50000 70000.00000
 1265.00000    8.49105   54.46919   54.30825   54.62196    2.56309   26.94812    0.13898    3.97150   68.18004  -13.57869    8.50000 70000.00000
 1265.10000    8.48055   54.48966   54.58871   54.89142    2.53863   28.24472    0.14115    3.82494   69.21850  -14.76577    8.50000 70000.00000
 1265.20000    8.46618   52.96334   52.77402   53.07398    2.51810   29.23143    0.14459    3.66904   71.16553  -16.24445    8.50000 70000.00000
 1265.30000    8.45227   49.90525   49.50671   49.64779    2.50730   31.28346    0.14901    3.51039   72.03764  -17.95350    8.50000 70000.00000
 1265.40000    8.43833   48.47626   48.17008   48.30303    2.49072   32.61946    0.15289    3.34843   73.31430  -19.75723    8.50000 30000.00000
 1265.50000    8.42969   41.53429   40.73207   40.89839    2.47791   34.30656    0.15703    3.20664   74.43789  -21.08837    8.50000 30000.00000
 1265.60000   -9999.25   40.75573   39.87839   39.91297    2.46518   35.74472    0.16362    3.04631   75.43498  -22.08220    8.50000 30000.00000
 1265.70000    8.41085   39.44409   38.46092   38.21063    2.44706   37.29871    0.16771    2.88619   76.26031  -23.50203    8.50000 30000.00000
 1265.80000    8.39941   39.72871   38.55320   38.36725    2.43374   38.19862    0.17068    2.74518   77.13735  -25.19616    8.50000 30000.00000
 1265.90000    8.38725   39.14899   38.31632   38.04862    2.42301   40.21384    0.17222    2.58107   78.75057  -26.05821    8.50000 30000.00000
 1266.00000    8.37492   39.39985   39.18601   38.61206    2.40864   41.23494    0.17737    2.44012   79.95673  -27.37635    8.50000 30000.00000
 1266.10000    8.36601   36.69030   35.94258   35.29882    2.39606   42.15522    0.17988    2.29565   81.00709  -28.40796    8.50000 30000.00000
 1266.20000    8.35144   35.64670   34.78468   33.83415    2.38060   42.83352    0.18227    2.14171   82.46306  -29.98381    8.50000 30000.00000
 1266.30000    8.33799   33.52758   32.86917   31.75798    2.37018   42.82747    0.18767    1.99313   83.63381  -31.42699    8.50000 30000.00000
 1266.40000    8.32374   31.31357   31.15103   30.06316    2.35630   44.74491    0.19130   -9999.25   84.93498  -33.30251    8.50000 30000.00000
 1266.50000    8.32775   29.05210   28.22058   27.49975    2.35687   45.00251    0.18985    1.84324   84.95304  -33.42321    8.50000 30000.00000
 1266.60000    8.33014   27.90075   27.06829   26.45875    2.36021   45.61626    0.19124    1.84784   84.71428  -33.63501    8.50000 30000.00000
 1266.70000    8.33008   25.74830   24.88673   24.06809    2.35765   45.77716    0.19027    1.84727   84.30391  -33.83415    8.50000 30000.00000
 1266.80000    8.32654   25.75672   24.94895   24.16797    2.35112   45.32568    0.18579    1.84405   84.11877  -34.16155    8.50000 30000.00000
 1266.90000    8.32436   23.89402   22.90350   22.25041    2.34969   45.62234    0.18606    1.85176   84.06329  -34.34838    8.50000 30000.00000
 1267.00000    8.32247   23.01543   22.18126   21.57329    2.34598   45.10719    0.18547    1.86479   84.04519  -34.69588    8.50000 30000.00000
 1267.10000    8.32352   22.04544   21.99529   21.36569    2.35515   45.29273    0.18485    1.85898   83.75487  -34.67748    8.50000 30000.00000
 1267.20000    8.32268   21.74892   21.46535   20.83961    2.36506   45.56309    0.18565    1.85382   83.84031  -34.68100    8.50000 30000.00000
 1267.30000    8.32234   22.30926   21.95479   21.24219    2.36721   45.74201    0.19082    1.84624   83.22807  -34.85581    8.50000 30000.00000
 1267.40000    8.32347   23.89487   23.46683   22.58873    2.36649   45.36333    0.19158    1.85399   83.50310  -34.47715    8.50000 30000.00000
 1267.50000    8.32475   24.41476   24.10576   23.15356    2.36976   44.74726    0.19210    1.84987   83.73226  -33.70659    8.50000 30000.00000
 1267.60000    8.32286   24.37995   24.05028   23.10401    2.36817   44.40586    0.19269    1.85982   83.66683  -34.17047    8.50000 30000.00000
 1267.70000    8.32317   24.95575   24.93716   24.17613    2.36411   44.58413    0.18986    1.87613   83.42172  -34.12411    8.50000 30000.00000
 1267.80000    8.31664   24.24092   24.28405   23.57521    2.36309   44.63233    0.18948    1.88890   83.29717  -34.12620    8.50000 30000.00000
 1267.90000    8.31492   23.03358   23.50144   22.71981    2.36232   44.73120    0.18999    1.88627   83.71286  -34.33419    8.50000 30000.00000
 1268.00000    8.31258   22.25012   22.85940   22.05433    2.36094   44.15403    0.19397    1.88878   83.59633  -34.67798    8.50000 30000.00000
 1268.10000    8.31563   21.64198   22.08207   21.38888    2.36161   44.18862    0.19520    1.88585   83.25699  -35.30649    8.50000 30000.00000
 1268.20000    8.31013   22.10143   22.49662   21.80141    2.35956   43.90031    0.19688    1.87127   82.86148  -35.56623    8.50000 30000.00000
 1268.30000    8.30825   20.97749   21.40263   20.87043    2.36097   44.08553    0.20159    1.87517   82.79978  -34.89630    8.50000 30000.00000
 1268.40000    8.30911   23.12003   23.97094   23.41572    2.35436   45.50589    0.20198    1.86840   82.69392  -34.97203    8.50000 30000.00000
 1268.50000    8.30953   22.87806   23.57795   22.96471    2.35335   46.12367    0.20070    1.87321   82.80627  -34.89047    8.50000 30000.00000
 1268.60000    8.31098   23.26598   23.96327   23.30325    2.35741   46.45240    0.20241    1.87271   83.04164  -34.87404    8.50000 30000.00000
 1268.70000    8.30804   22.78262   23.37963   22.81188    2.35177   46.53686    0.20178    1.86895   82.89102  -34.90676    8.50000 30000.00000
