~Version ---------------------------------------------------
VERS.   2.0 : CWLS log ASCII Standard -VERSION 2.0
WRAP.    NO : One line per depth step
DLM . SPACE : Column Data Section Delimiter
~Well ------------------------------------------------------
STRT.m          1000.00000 : START DEPTH
STOP.m          2000.00000 : STOP DEPTH
STEP.m             0.10000 : STEP
NULL.             -9999.25 : NULL VALUE
COMP. FORCE 2020 Recreator : 
WELL.   WELL_FORCE_2020_08 : 
FLD .                      : FIELD
LOC .                      : LOCATION
PROV.                      : PROVINCE
CNTY.                      : COUNTY
STAT.                      : STATE
CTRY.                      : COUNTRY
SRVC.                      : SERVICE COMPANY
DATE.                      : DATE
UWI .                      : UNIQUE WELL ID
API .                      : API NUMBER
~Curve Information -----------------------------------------
DEPT                            .m      : 
CALI                            .in     : 
RSHA                            .ohm.m  : 
RMED                            .ohm.m  : 
RDEP                            .ohm.m  : 
RHOB                            .g/cm3  : 
GR                              .gAPI   : 
NPHI                            .v/v    : 
PEF                             .b/e    : 
DTC                             .us/ft  : 
SP                              .mV     : 
BS                              .in     : 
FORCE_2020_LITHOFACIES_LITHOLOGY.code   : 
~Params ----------------------------------------------------
~Other -----------------------------------------------------
~ASCII -----------------------------------------------------
# ...
 1464.80000    8.57818   49.76813   50.94418   49.87719    2.68549   20.72833    0.09571    5.10673   60.25838   -5.14373    8.50000 70000.00000
 1464.90000    8.58061   47.91242   48.87735   47.94519    2.68422   20.43677    0.09491    5.10927   60.08154   -5.17819    8.50000 70000.00000
 1465.00000    8.58402   52.71354   53.43690   52.50360    2.68507   20.33079    0.09639    5.13595   59.96940   -4.71614    8.50000 70000.00000
 1465.10000    8.58380   51.80141   52.25847   51.18257    2.68517   20.82380    0.09686    5.12038   59.59868   -4.87895    8.50000 70000.00000
 1465.20000    8.58325   53.27631   53.34640   52.48585    2.68348   20.28674    0.09739    5.11705   59.59450   -4.86944    8.50000 70000.00000
 1465.30000    8.58228   54.17084   54.13303   53.36341    2.68467   20.06741    0.09779    5.11285   59.21240   -4.78040    8.50000 70000.00000
 1465.40000    8.58104   56.01858   55.32982   54.43621    2.68312   20.27265    0.09953    5.10275   58.84396   -4.70666    8.50000 70000.00000
 1465.50000    8.58149   52.83230   52.53785   51.62917    2.68053   20.79503    0.10109    5.11016   58.85061   -4.95416    8.50000 70000.00000
 1465.60000    8.58222   53.60755   53.61868   52.73562    2.68105   20.91463    0.10124    5.11322   58.19537   -4.78667    8.50000 70000.00000
 1465.70000    8.58207   56.42704   56.13854   55.27984    2.68439   20.35639    0.10103    5.09182   58.05805   -4.57491    8.50000 70000.00000
 1465.80000    8.57954   59.35029   59.17789   58.24720    2.68315   19.96324    0.09896    5.08034   58.57051   -4.54161    8.50000 70000.00000
 1465.90000    8.57933   57.86917   58.10939   57.21696    2.67902   20.14070    0.09841    5.08963   58.22328   -4.64351    8.50000 70000.00000
 1466.00000    8.58117   56.56387   56.19005   55.43081    2.67663   19.96926    0.09735    5.08069   58.77158   -4.79291    8.50000 70000.00000
 1466.10000    8.58255   55.25383   54.99662   54.38180    2.67525   19.76699    0.09689    5.07301   58.30798   -4.48156    8.50000 70000.00000
 1466.20000    8.58545   59.71201   59.92541   59.66779    2.67224   19.86631    0.09730    5.05422   58.41795   -4.63714    8.50000 70000.00000
 1466.30000    8.58635   60.24435   60.45650   60.15699    2.67274   19.96317    0.09680    5.03553   58.27184   -4.83982    8.50000 70000.00000
 1466.40000    8.58375   67.40003   67.65909   67.20948    2.67041   20.00742    0.09871    5.03962   57.96330   -4.84367    8.50000 70000.00000
 1466.50000    8.57885   71.16025   71.23656   70.58904    2.67141   20.56727    0.10110    5.03318   58.02547   -5.14474    8.50000 70000.00000
 1466.60000    8.57685   70.50573   70.33663   69.72847    2.67168   20.64786    0.10214    5.01825   57.70747   -5.28895    8.50000 70000.00000
 1466.70000    8.57624   68.46695   68.68434   68.09042    2.67107   20.96495    0.10218    5.01261   57.76563   -5.36709    8.50000 70000.00000
 1466.80000    8.57450   68.90546   69.17942   68.69538    2.67217   20.64956    0.10465    5.01352   57.50157   -5.38638    8.50000 70000.00000
 1466.90000    8.57304   61.76074   61.61892   61.63249    2.67073   20.44759    0.10476    5.03082   57.77078   -5.20646    8.50000 70000.00000
 1467.00000    8.56847   62.61825   62.27168   62.21439    2.67037   20.88043    0.10790    5.02951   57.96034   -5.31483    8.50000 70000.00000
 1467.10000    8.56726   61.34827   61.07486   60.91964    2.67103   21.07896    0.10811    5.01945   58.03000   -5.47339    8.50000 70000.00000
 1467.20000    8.56591   62.90627   62.30034   62.25744    2.67047   20.84029    0.10642    5.02689   57.83583   -5.41565    8.50000 70000.00000
 1467.30000    8.56492   61.09565   60.77057   60.51120    2.67074   21.23016    0.10576    5.03481   57.65407   -5.45497    8.50000 70000.00000
 1467.40000    8.56202   62.80190   62.29752   61.96077    2.67150   21.31679    0.10538    5.03016   57.53718   -5.42512    8.50000 70000.00000
 1467.50000    8.56507   64.61922   66.46317   65.50973    2.67392   21.18300    0.10400    5.02378   57.78572   -5.55836    8.50000 70000.00000
 1467.60000    8.56596   64.87279   66.94348   66.02671    2.67403   20.66894    0.10375    5.01112   57.24614   -5.36272    8.50000 70000.00000
 1467.70000    8.56501   65.07955   66.41693   65.65176    2.67267   20.34919    0.10294    5.00618   57.19909   -5.62062    8.50000 70000.00000
 1467.80000    8.56564   61.92905   63.73326   62.85515    2.67040   20.96263    0.10395    5.03318   57.44322   -5.57692    8.50000 70000.00000
 1467.90000    8.56619   59.86555   61.43464   60.81849    2.67274   20.93721    0.10402    5.05329   57.16451   -5.64132    8.50000 70000.00000
 1468.00000    8.56834   60.15348   61.40516   60.91520    2.67784   20.84605    0.10367    5.05005   57.57272   -5.50804    8.50000 70000.00000
 1468.10000    8.56773   60.93563   62.22991   62.07183    2.67679   20.86611    0.10401    5.07150   57.19476   -5.13808    8.50000 70000.00000
 1468.20000    8.56675   60.93961   62.27472   -9999.25    2.67626   21.19171    0.10272    5.07827   57.17005   -5.59232    8.50000 70000.00000
 1468.30000    8.56638   60.58239   60.70645   60.07227    2.67649   20.80613    0.10303    5.09360   57.33390   -5.63565    8.50000 70000.00000
 1468.40000    8.56706   60.76877   61.27662   60.64483    2.67624   21.39845    0.10142    5.10445   57.54840   -5.48597    8.50000 70000.00000
 1468.50000    8.56953   54.08787   54.67364   54.15681    2.68155   21.30505    0.09968    5.09172   58.16500   -5.32554    8.50000 70000.00000
 1468.60000    8.57366   54.07585   54.79249   54.28009    2.68112   21.05746    0.09620    5.10226   58.29656   -5.45677    8.50000 70000.00000
 1468.70000    8.57286   52.66811   53.64744   52.72436    2.68269   21.02747    0.09448    5.12395   58.58508   -5.45497    8.50000 70000.00000
 1468.80000    8.57289   58.20648   58.85193   57.80969    2.68189   20.97463    0.09395    5.10944   58.77020   -5.27781    8.50000 70000.00000
 1468.90000    8.57540   59.66315   61.00575   59.99803    2.68198   20.89422    0.09310    5.09642   59.11082   -5.38957    8.50000 70000.00000
 1469.00000    8.57434   61.21411   62.20684   61.45954    2.68378   21.34481    0.09376    5.08702   58.43507   -5.56931    8.50000 70000.00000
 1469.10000    8.57736   59.93737   61.18111   60.43540    2.68592   20.58321    0.09042    5.09428   58.38268   -5.04304    8.50000 70000.00000
 1469.20000    8.57621   58.97695   60.31687   59.84194    2.68512   20.53013    0.09025    5.09302   57.99772   -5.28780    8.50000 70000.00000
 1469.30000    8.57949   57.27326   59.11572   58.59166    2.68551   20.80474    0.09149    5.10079   58.11599   -5.17106    8.50000 70000.00000
 1469.40000    8.57976   58.60590   59.84107   59.73069    2.68557   20.72212    0.09214    5.08775   58.45659   -5.20101    8.50000 70000.00000
 1469.50000    8.58087   56.84605   58.49868   58.34464    2.68585   20.52198    0.09258    5.09678   58.41361   -5.31935    8.50000 70000.00000
 1469.60000    8.57610   51.09883   51.01961   51.51435    2.68557   20.64339    0.09278    5.10188   58.37673   -5.28060    8.50000 70000.00000
 1469.70000    8.57539   50.96765   50.79245   51.18703    2.68370   20.67040    0.09347    5.10659   58.42855   -5.22004    8.50000 70000.00000
 1469.80000    8.57791   53.23647   53.66671   53.95730    2.68539   20.68453    0.09471    5.11636   58.88408   -4.86693    8.50000 70000.00000
 1469.90000    8.57952   54.14556   54.05964   54.55627    2.68391   20.45649    0.09213    5.10732   58.81743   -4.41783    8.50000 70000.00000
 1470.00000    8.57905   53.69200   53.73415   54.16131    2.68452   20.96302    0.09426    5.09862   58.54972   -4.25295    8.50000 70000.00000
 1470.10000    8.57728   52.30273   51.81776   52.36833    2.68215   20.95732    0.09413    5.09671   58.30623   -4.16527    8.50000 70000.00000
 1470.20000    8.57603   50.44808   49.78170   50.15816    2.68275   21.28680    0.09432    5.05490   58.24029   -4.49320    8.50000 70000.00000
 1470.30000    8.57683   51.31382   50.79687   51.07168    2.68355   21.36551    0.09703    5.07739   58.17935   -4.23813    8.50000 70000.00000
