~Version ---------------------------------------------------
VERS.   2.0 : CWLS log ASCII Standard -VERSION 2.0
WRAP.    NO : One line per depth step
DLM . SPACE : Column Data Section Delimiter
~Well ------------------------------------------------------
STRT.m          1000.00000 : START DEPTH
STOP.m          2000.00000 : STOP DEPTH
STEP.m             0.10000 : STEP
NULL.             -9999.25 : NULL VALUE
COMP. FORCE 2020 Recreator : 
WELL.   WELL_FORCE_2020_07 : 
FLD .                      : FIELD
LOC .                      : LOCATION
PROV.                      : PROVINCE
CNTY.                      : COUNTY
STAT.                      : STATE
CTRY.                      : COUNTRY
SRVC.                      : SERVICE COMPANY
DATE.                      : DATE
UWI .                      : UNIQUE WELL ID
API .                      : API NUMBER
~Curve Information -----------------------------------------
DEPT                            .m      : 
CALI                            .in     : 
RSHA                            .ohm.m  : 
RMED                            .ohm.m  : 
RDEP                            .ohm.m  : 
RHOB                            .g/cm3  : 
GR                              .gAPI   : 
NPHI                            .v/v    : 
PEF                             .b/e    : 
DTC                             .us/ft  : 
SP                              .mV     : 
BS                              .in     : 
FORCE_2020_LITHOFACIES_LITHOLOGY.code   : 
~Params ----------------------------------------------------
~Other -----------------------------------------------------
~ASCII -----------------------------------------------------
# ...
 1532.00000    9.85821    2.25747    2.16566    2.22933    2.45253  113.54793    0.36339    3.37876  105.17254    5.81321    8.50000 65000.00000
 1532.10000    9.83684    2.25673    2.16820    2.22913    2.45046  114.81024    0.36215    3.37314  105.89808    5.50156    8.50000 65000.00000
 1532.20000    9.84203    2.32733    2.22285    2.28795    2.45160  115.30827    0.36458    3.37911  105.50402    5.63546    8.50000 65000.00000
 1532.30000    9.86677    2.36979    2.30748    2.35889    2.44954  116.94176    0.36159    3.35762  105.67441    5.85020    8.50000 65000.00000
 1532.40000    9.87984    2.43525    2.36388    2.41053    2.44973  117.26961    0.35759    3.35098  105.60007    5.84637    8.50000 65000.00000
 1532.50000    9.90921    2.42427    2.34040    2.36573    2.45435  118.49051    0.35973    3.36362  105.63862    5.56816    8.50000 65000.00000
 1532.60000    9.87304    2.62708    2.50627    2.52513    2.46225  118.17528    0.36109    3.37212  106.38941    5.26704    8.50000 65000.00000
 1532.70000    9.87463    2.79891    2.68618    2.68843    2.46192  118.63720    0.36232    3.39179  107.04057    5.44846    8.50000 65000.00000
 1532.80000    9.85500    2.79711    2.68246    2.69725    2.46202  118.88995    0.35951    3.34750  106.80341    5.35709    8.50000 65000.00000
 1532.90000    9.84542    2.75103    2.62976    2.65327    2.45776  117.66878    0.36128    3.35737  106.49163    5.24840    8.50000 65000.00000
 1533.00000    9.84738    2.76542    2.63720    2.66441    2.45837  117.21769    0.36019    3.36459  105.77884    5.11327    8.50000 65000.00000
 1533.10000    9.84227    2.79349    2.67248    2.70178    2.45893  117.04038    0.35972    3.36262  105.82824    5.20397    8.50000 65000.00000
 1533.20000    9.86353    2.82393    2.70404    2.72631    2.45967  115.93428    0.35962    3.37420  106.47308    5.62699    8.50000 65000.00000
 1533.30000    9.87181    2.77545    2.69454    2.71352    2.45758  115.49979    0.35744    3.35434  107.07212    5.50070    8.50000 65000.00000
 1533.40000    9.88790    2.77880    2.70809    2.74582    2.45896  116.02599    0.35424    3.35203  107.59236    5.57239    8.50000 65000.00000
 1533.50000    9.92595    2.74024    2.68039    2.71913    2.45976  115.46875    0.35326    3.35748  107.80037    4.82045    8.50000 65000.00000
 1533.60000    9.92981    2.85081    2.81693    2.84805    2.46902  114.11582    0.35258    3.34657  108.00358    4.66816    8.50000 65000.00000
 1533.70000    9.91551    2.93320    2.90543    2.93994    2.47235  114.05139    0.35115    3.33167  108.13127    4.94717    8.50000 65000.00000
 1533.80000    9.93919    3.02451    2.98951    3.01814    2.47289  115.35632    0.34952    3.31044  108.56460    4.82965    8.50000 65000.00000
 1533.90000    9.96212    3.08995    3.09276    3.12008    2.47377  114.68255    0.34674    3.29800  107.85090    4.61166    8.50000 65000.00000
 1534.00000    9.96277    3.11921    3.13311    3.16119    2.47443  115.00876    0.34616    3.29881  108.57252    4.70217    8.50000 65000.00000
 1534.10000    9.93883    3.10031    3.14667    3.15919    2.47753  116.20031    0.34759    3.29317  108.34709    5.13201    8.50000 65000.00000
 1534.20000    9.94009    3.07654    3.13233    3.13924    2.47255  116.46428    0.34951    3.31371  107.85637    5.45873    8.50000 65000.00000
 1534.30000    9.93697    3.02000    3.08146    3.08704    2.46948  115.93364    0.34667    3.32410   -9999.25    5.26221    8.50000 65000.00000
 1534.40000    9.91492    2.94457    2.97189    2.98106    2.47198  115.79415    0.34472    3.34277   -9999.25    5.26604    8.50000 65000.00000
 1534.50000    9.92792    2.84756    2.88591    2.89945    2.47350  115.99365    0.34681    3.35070   -9999.25    5.30306    8.50000 65000.00000
 1534.60000    9.93248    2.96782    2.97307    2.98944    2.47237  114.72578    0.34092    3.34735  106.82126    5.30623    8.50000 65000.00000
 1534.70000    9.94753    2.73833    2.77896    2.80957    2.47439  114.29679    0.33727    3.34698  106.27927    5.41573    8.50000 65000.00000
 1534.80000    9.99109    2.52646    2.56831    2.60224    2.47660  114.91061    0.33810    3.33675  106.47107    5.44248    8.50000 65000.00000
 1534.90000    9.98132    2.52879    2.55126    2.57946    2.47598  113.91377    0.33817    3.37521  106.74022    5.37747    8.50000 65000.00000
 1535.00000   10.04324    2.70901    2.71194    2.72208    2.47878  115.13491    0.33496    3.38482  106.60766    5.27448    8.50000 65000.00000
 1535.10000   10.04623    2.67826    2.68514    2.69432    2.47278  116.02886    0.33440    3.39509  107.10321    5.25878    8.50000 65000.00000
 1535.20000   10.04472    2.66245    2.66126    2.66808    2.47594  115.90192    0.33167    3.38526  107.09282    5.41207    8.50000 65000.00000
 1535.30000   10.03058    2.69921    2.68467    2.69152    2.47481  117.30373    0.32853    3.36667  105.80577    5.12870    8.50000 65000.00000
 1535.40000    9.99936    2.72371    2.69549    2.69831    2.47405  116.94372    0.33179    3.37332  106.28298    5.08968    8.50000 65000.00000
 1535.50000   10.01395    2.72655    2.70729    2.71277    2.47062  115.90275    0.33866    3.38390  105.94331    4.90764    8.50000 65000.00000
 1535.60000   10.00233    2.71874    2.70393    2.70612    2.47107  116.36555    0.33531    3.36142  106.39061    5.26514    8.50000 65000.00000
 1535.70000   10.01846    2.61586    2.58138    2.60058    2.46217  116.07383    0.33903    3.38143  106.42100    4.97222    8.50000 65000.00000
 1535.80000   10.01447    2.57269    2.54427    2.55032    2.45800  115.82118    0.33832    3.38359  106.37993    5.03056    8.50000 65000.00000
 1535.90000   10.00702    2.54450    2.52604    2.53158    2.45900  115.29753    0.34019    3.42267  106.35303    5.18227    8.50000 65000.00000
 1536.00000    9.98444    2.52895    2.48313    2.49402    2.46228  115.84864    0.34586    3.43589  107.56779    4.99779    8.50000 65000.00000
 1536.10000    9.92496    2.48562    2.44805    2.45390    2.46562  117.13324    0.34723    3.44830  107.63727    4.80629    8.50000 65000.00000
 1536.20000    9.96067    2.51792    2.49426    2.50914    2.46359  116.24885    0.34684    3.44724  107.82886    4.89058    8.50000 65000.00000
 1536.30000    9.96105    2.64024    2.61642    2.63970    2.46545  116.66395    0.34541    3.43373  107.18986    4.82076    8.50000 65000.00000
 1536.40000    9.96083    2.62978    2.59583    2.61960    2.46791  117.32824    0.34413    3.43492  107.73000    4.94558    8.50000 65000.00000
 1536.50000    9.97621    2.64994    2.63009    2.63895    2.46762  117.64699    0.34938    3.43661  108.83034    4.64596    8.50000 65000.00000
 1536.60000    9.96446    2.67231    2.62625    2.62966    2.46702  117.15794    0.35272    3.47039  109.75427    4.07463    8.50000 65000.00000
 1536.70000    9.94176    2.54191    2.56739    2.56375    2.46675  116.75936    0.35414    3.46748  110.47353    4.17486    8.50000 65000.00000
 1536.80000    9.93786    2.51672    2.53276    2.53090    2.46025  117.49098    0.35709    3.47842  110.40439    4.15173    8.50000 65000.00000
 1536.90000    9.93766    2.69456    2.70396    2.71225    2.45518  116.79337    0.35955    3.47707  110.28049    3.92525    8.50000 65000.00000
 1537.00000    9.94923    2.72404    2.75387    2.75732    2.45151  117.02512    0.35619    3.47613  109.37135    4.14599    8.50000 65000.00000
 1537.10000    9.89100    2.68029    2.70886    2.74074    2.45239  116.36007    0.36048    3.46716  109.46949    4.33136    8.50000 65000.00000
 1537.20000    9.86216    2.74323    2.79108    2.82545    2.45460  116.70437    0.36055    3.44837  109.90017    4.58989    8.50000 65000.00000
 1537.30000    9.88150    2.74497    2.78803    2.82718    2.45335  118.33620    0.36270    3.48471  110.66296    4.23791    8.50000 65000.00000
 1537.40000    9.88150    2.68593    2.73195    2.76955    2.45603  118.14613    0.36655    3.49775  112.05123    4.27320    8.50000 65000.00000
 1537.50000    9.93834    2.71734    2.73206    2.77213    2.45683  117.38185    0.36264    3.49557  111.88671    4.34409    8.50000 65000.00000
