~Version ---------------------------------------------------
VERS.   2.0 : CWLS log ASCII Standard -VERSION 2.0
WRAP.    NO : One line per depth step
DLM . SPACE : Column Data Section Delimiter
~Well ------------------------------------------------------
STRT.m          1000.00000 : START DEPTH
STOP.m          2000.00000 : STOP DEPTH
STEP.m             0.10000 : STEP
NULL.             -9999.25 : NULL VALUE
COMP. FORCE 2020 Recreator : 
WELL.   WELL_FORCE_2020_04 : 
FLD .                      : FIELD
LOC .                      : LOCATION
PROV.                      : PROVINCE
CNTY.                      : COUNTY
STAT.                      : STATE
CTRY.                      : COUNTRY
SRVC.                      : SERVICE COMPANY
DATE.                      : DATE
UWI .                      : UNIQUE WELL ID
API .                      : API NUMBER
~Curve Information -----------------------------------------
DEPT                            .m      : 
CALI                            .in     : 
RSHA                            .ohm.m  : 
RMED                            .ohm.m  : 
RDEP                            .ohm.m  : 
RHOB                            .g/cm3  : 
GR                              .gAPI   : 
NPHI                            .v/v    : 
PEF                             .b/e    : 
DTC                             .us/ft  : 
SP                              .mV     : 
BS                              .in     : 
FORCE_2020_LITHOFACIES_LITHOLOGY.code   : 
~Params ----------------------------------------------------
~Other -----------------------------------------------------
~ASCII -----------------------------------------------------
# ...
 1134.30000    8.32001   20.39073   20.33367   20.15408    2.33037   46.91117    0.19672    1.83283   82.08575  -34.89700    8.50000 30000.00000
 1134.40000    8.31831   20.22285   20.20501   20.02766    2.33082   47.16177    0.19678    1.83550   82.06369  -34.89297    8.50000 30000.00000
 1134.50000    8.31570   22.82344   22.52466   22.40687    2.33734   45.86331    0.19789    1.83474   81.89012  -34.86152    8.50000 30000.00000
 1134.60000    8.31850   22.74461   22.32620   22.24403    2.33546   45.54370    0.19773    1.83289   82.42099  -34.74529    8.50000 30000.00000
 1134.70000    8.31723   23.25525   22.75975   22.66855    2.33972   45.34454    0.19962    1.84231   82.41348  -33.96567    8.50000 30000.00000
 1134.80000    8.31403   23.85082   23.30197   23.18237    2.33778   45.87714    0.20244    1.83472   82.70556  -34.01546    8.50000 30000.00000
 1134.90000    8.31537   24.39112   23.89907   23.65242    2.33934   45.63876    0.20560    1.83296   81.69307  -33.74851    8.50000 30000.00000
 1135.00000    8.31903   25.09103   24.50755   24.39057    2.34428   45.54915    0.20688    1.82805   81.94808  -33.73876    8.50000 30000.00000
 1135.10000    8.31537   24.81921   24.26333   24.08923    2.34589   46.06674    0.20240    1.83439   82.58426  -33.96118    8.50000 30000.00000
 1135.20000    8.31432   20.61738   20.34195   20.24504    2.34658   45.83673    0.20212    1.84523   82.70564  -34.65730    8.50000 30000.00000
 1135.30000    8.31270   21.45572   20.80611   21.14921    2.34760   46.74080    0.20608    1.84888   83.09991  -34.99905    8.50000 30000.00000
 1135.40000    8.31351   21.50767   20.77961   21.19857    2.35199   47.72952    0.20496    1.84858   83.49729  -35.45771    8.50000 30000.00000
 1135.50000    8.30809   20.48246   19.98578   20.28379    2.35367   47.07521    0.20102    1.84309   83.78644  -35.19942    8.50000 30000.00000
 1135.60000    8.30386   20.18451   19.99099   20.20763    2.35865   46.49220    0.20288    1.83915   83.57421  -35.36852    8.50000 30000.00000
 1135.70000    8.30218   20.40541   20.22551   20.42362    2.35263   47.50427    0.19984    1.84767   83.32439  -35.16374    8.50000 30000.00000
 1135.80000    8.29929   20.67540   20.37358   20.60183    2.35309   47.83436    0.20224    1.85454   83.37299  -36.08007    8.50000 30000.00000
 1135.90000    8.29666   19.13629   18.57663   18.76786    2.35182   47.15064    0.19986    1.85761   83.06559  -35.59063    8.50000 30000.00000
 1136.00000    8.29404   21.87394   21.08659   21.34606    2.34653   47.59217    0.19779    1.84337   82.43688  -35.88044    8.50000 30000.00000
 1136.10000    8.29794   22.13550   21.17456   21.40153    2.34986   47.40529    0.19713    1.84782   82.92360  -35.26302    8.50000 30000.00000
 1136.20000    8.29887   23.38571   22.41781   22.57318    2.34561   47.75487    0.19602    1.85942   83.16189  -34.90857    8.50000 30000.00000
 1136.30000    8.30057   24.39567   23.38305   23.52398    2.35273   47.99550    0.19451    1.85110   82.99601  -34.38278    8.50000 30000.00000
 1136.40000    8.30150   25.09444   24.26951   24.32136    2.35533   47.65722    0.19429    1.84587   83.08055  -34.28392    8.50000 30000.00000
 1136.50000    8.30415   25.75214   24.92000   24.93063    2.35112   47.27020    0.19485    1.83397   82.89242  -34.30578    8.50000 30000.00000
 1136.60000    8.30498   23.36188   22.70042   22.67178    2.35036   47.43094    0.19239    1.84325   82.63840  -34.37707    8.50000 30000.00000
 1136.70000    8.30180   23.14343   22.61473   22.58241    2.35151   47.25604    0.19375    1.84165   82.10715  -34.62416    8.50000 30000.00000
 1136.80000    8.30298   22.91964   22.48053   22.52452    2.34618   47.32446    0.19615    1.83291   82.11161  -35.12177    8.50000 30000.00000
 1136.90000    8.30211   23.23487   22.70604   22.79385    2.34303   47.35147    0.19563    1.83450   81.72862  -34.99656    8.50000 30000.00000
 1137.00000    8.30032   23.11908   22.42056   22.63003    2.34479   48.34642    0.19021    1.84208   82.43355  -35.25689    8.50000 30000.00000
 1137.10000    8.29965   22.71193   22.12000   22.32375    2.34488   48.69369    0.18837    1.84474   82.18922  -34.90651    8.50000 30000.00000
 1137.20000    8.29833   22.53814   21.94000   22.15139    2.34592   48.88493    0.18915    1.84190   81.75171  -34.71887    8.50000 30000.00000
 1137.30000    8.29930   23.50919   23.05519   23.23116    2.34800   48.48762    0.19041    1.83849   82.07140  -34.62710    8.50000 30000.00000
 1137.40000    8.29708   22.62869   22.34770   22.27987    2.34721   47.41807    0.18717    1.83993   81.96577  -34.99290    8.50000 30000.00000
 1137.50000    8.29679   27.00132   26.79865   27.18471    2.34781   46.90948    0.18811    1.84770   82.05107  -34.51507    8.50000 30000.00000
 1137.60000    8.29609   28.69164   28.78632   29.16523    2.34574   46.45470    0.18996    1.84251   82.38979  -34.61404    8.50000 30000.00000
 1137.70000    8.30037   29.71040   29.49798   29.94706    2.34484   45.68089    0.18833    1.85781   82.83954  -34.33491    8.50000 30000.00000
 1137.80000    8.30344   29.90268   29.78028   30.21707    2.34924   45.40248    0.18994    1.85923   83.29133  -34.34574    8.50000 30000.00000
 1137.90000    8.30850   29.78559   29.71493   30.15054    2.35231   45.37097    0.19267    1.85614   83.53120  -34.39048    8.50000 30000.00000
 1138.00000    8.31046   30.13141   30.05592   30.53318    2.35404   44.80695    0.19148    1.85995   83.63709  -34.46003    8.50000 30000.00000
 1138.10000    8.31033   27.86308   28.00654   28.40023    2.35667   44.11585    0.19065    1.85770   84.02149  -34.35817    8.50000 30000.00000
 1138.20000    8.30762   29.91041   30.49867   30.55142    2.35371   44.46079    0.18990    1.85372   83.43985  -34.42171    8.50000 30000.00000
 1138.30000    8.30693   28.60844   29.12079   29.25775    2.35608   43.53934    0.19364    1.85085   83.26684  -35.04108    8.50000 30000.00000
 1138.40000    8.30278   27.85930   28.41406   28.53520    2.35524   43.25470    0.19472    1.86015   82.93706  -35.18781    8.50000 30000.00000
 1138.50000    8.30404   27.69114   28.25269   28.47552    2.35662   43.60634    0.19537    1.86027   82.76842  -35.68921    8.50000 30000.00000
 1138.60000    8.30462   27.49512   28.12326   28.36034    2.36381   44.50649    0.19461    1.87096   83.41604  -35.97470    8.50000 30000.00000
 1138.70000    8.30496   27.59132   28.15093   28.40511    2.36773   44.79460    0.19631    1.85933   83.78990  -36.19517    8.50000 30000.00000
 1138.80000    8.30870   28.24082   28.74291   29.02643    2.36481   45.35327    0.19610    1.85799   84.35366  -36.37890    8.50000 30000.00000
 1138.90000    8.30913   29.02301   29.51890   29.70977    2.36867   45.94669    0.19321    1.86183   84.36319  -36.31666    8.50000 30000.00000
 1139.00000    8.31148   28.24021   28.91503   29.16273    2.37276   45.43750    0.19263    1.85761   84.26856  -36.62254    8.50000 30000.00000
 1139.10000    8.31313   27.79525   28.71517   28.83729    2.36981   45.48757    0.19232    1.85592   84.68147  -36.89055    8.50000 30000.00000
 1139.20000    8.31571   27.50756   28.39198   28.55368    2.37096   45.09048    0.19497    1.85159   85.00219  -36.70752    8.50000 30000.00000
 1139.30000    8.31985   28.34524   29.46665   29.60919    2.36919   44.70862    0.19562    1.84777   85.32257  -37.42245    8.50000 30000.00000
 1139.40000    8.32328   29.07477   29.74272   30.04745    2.36791   45.23901    0.19374    1.84052   85.12072  -37.02798    8.50000 30000.00000
 1139.50000    8.32206   29.22844   30.16947   30.53612    2.36838   46.23189    0.19393    1.84085   85.22829  -36.92901    8.50000 30000.00000
 1139.60000    8.32672   -9999.25   25.28794   25.24120    2.36887   46.10919    0.19277    1.83556   84.49629  -36.79355    8.50000 30000.00000
 1139.70000    8.32856   22.83222   23.70041   23.71556    2.37232   46.94748    0.19173    1.84170   84.29579  -36.70270    8.50000 30000.00000
 1139.80000    8.32742   21.59993   22.69469   22.59055    2.36798   47.59985    0.19433    1.82644   83.68884  -36.97516    8.50000 30000.00000
