~Version ---------------------------------------------------
VERS.   2.0 : CWLS log ASCII Standard -VERSION 2.0
WRAP.    NO : One line per depth step
DLM . SPACE : Column Data Section Delimiter
~Well ------------------------------------------------------
STRT.m          1000.00000 : START DEPTH
STOP.m          2000.00000 : STOP DEPTH
STEP.m             0.10000 : STEP
NULL.             -9999.25 : NULL VALUE
COMP. FORCE 2020 Recreator : 
WELL.   WELL_FORCE_2020_01 : 
FLD .                      : FIELD
LOC .                      : LOCATION
PROV.                      : PROVINCE
CNTY.                      : COUNTY
STAT.                      : STATE
CTRY.                      : COUNTRY
SRVC.                      : SERVICE COMPANY
DATE.                      : DATE
UWI .                      : UNIQUE WELL ID
API .                      : API NUMBER
~Curve Information -----------------------------------------
DEPT                            .m      : 
CALI                            .in     : 
RSHA                            .ohm.m  : 
RMED                            .ohm.m  : 
RDEP                            .ohm.m  : 
RHOB                            .g/cm3  : 
GR                              .gAPI   : 
NPHI                            .v/v    : 
PEF                             .b/e    : 
DTC                             .us/ft  : 
SP                              .mV     : 
BS                              .in     : 
FORCE_2020_LITHOFACIES_LITHOLOGY.code   : 
~Params ----------------------------------------------------
~Other -----------------------------------------------------
~ASCII -----------------------------------------------------
# ...
 1795.20000    8.58611   43.91966   43.62223   43.55534    2.68688   20.37233    0.09616    5.05260   59.13042   -4.93032    8.50000 70000.00000
 1795.30000    8.58909   43.07263   42.13571   42.20130    2.68661   19.92790    0.09613    5.05785   58.85441   -4.41565    8.50000 70000.00000
 1795.40000    8.58804   42.18769   40.47417   40.61637    2.68521   19.94404    0.09680    5.05263   58.36612   -4.60563    8.50000 70000.00000
 1795.50000    8.58893   43.22316   41.26893   41.72257    2.68338   19.78795    0.09760    5.05835   58.53937   -4.46828    8.50000 70000.00000
 1795.60000    8.59139   43.94587   41.99546   42.41581    2.68319   19.78624    0.09957    5.05731   58.60238   -4.19446    8.50000 70000.00000
 1795.70000    8.58851   -9999.25   41.67074   42.05083    2.68139   19.62818    0.09948    5.05701   58.81024   -3.92235    8.50000 70000.00000
 1795.80000    8.58522   43.38618   41.59087   42.00330    2.67681   19.39801    0.09901    5.06514   58.96013   -3.98498    8.50000 70000.00000
 1795.90000    8.58384   44.58295   42.38217   42.81898    2.67563   19.76995    0.09894    5.06002   58.46218   -3.92399    8.50000 70000.00000
 1796.00000    8.58527   44.65857   42.36266   42.79895    2.67399   19.45290    0.09788    5.07484   58.11968   -3.77953    8.50000 70000.00000
 1796.10000    8.58591   44.52471   42.36948   42.75372    2.67576   19.59574    0.09805    5.07517   57.88273   -4.02206    8.50000 70000.00000
 1796.20000    8.58162   -9999.25   42.34960   42.98785    2.67634   20.13918    0.09729    5.07545   57.72481   -4.02950    8.50000 70000.00000
 1796.30000    8.58189   -9999.25   39.12386   39.64210    2.67549   19.50308    0.09796    5.07181   57.55579   -3.97632    8.50000 70000.00000
 1796.40000    8.58117   -9999.25   36.97245   37.54037    2.67226   19.87067    0.10019    5.08739   57.56925   -4.00327    8.50000 70000.00000
 1796.50000    8.58193   37.77453   36.28202   36.82399    2.67370   19.62517    0.10134    5.09086   57.66354   -3.87321    8.50000 70000.00000
 1796.60000    8.58350   35.34991   33.99208   34.74651    2.67429   20.34310    0.10198    5.08514   57.53350   -3.81699    8.50000 70000.00000
 1796.70000    8.58487   35.04264   33.83758   34.69463    2.67190   20.47420    0.10376    5.07430   57.42111   -3.78288    8.50000 70000.00000
 1796.80000    8.58140   35.18384   33.73215   34.55831    2.67210   20.65633    0.10095    5.09336   57.33063   -3.57756    8.50000 70000.00000
 1796.90000    8.57888   38.66330   36.29187   37.43387    2.66964   21.04364    0.10201    5.09818   57.31894   -3.52022    8.50000 70000.00000
 1797.00000    8.57700   39.88672   37.47764   38.68000    2.67203   21.04439    0.10167    5.10585   57.46121   -3.59717    8.50000 70000.00000
 1797.10000    8.57347   38.35651   36.03570   37.06175    2.67266   21.44935    0.10291    5.09503   56.91658   -3.43515    8.50000 70000.00000
 1797.20000    8.57278   37.98189   35.36597   36.43348    2.67684   21.42782    0.10269    5.10073   57.07832   -3.58431    8.50000 70000.00000
 1797.30000    8.57189   38.55969   36.08794   37.13738    2.67825   21.09645    0.10446    5.09807   57.36714   -3.54444    8.50000 70000.00000
 1797.40000    8.57239   37.52139   35.28964   36.25897    2.68228   21.84914    0.10456    5.10043   57.44470   -4.01655    8.50000 70000.00000
 1797.50000    8.57191   35.73842   33.89000   34.80437    2.68228   21.76659    0.10332    5.09971   57.72410   -4.06610    8.50000 70000.00000
 1797.60000    8.57361   36.91425   35.61146   36.26291    2.68577   22.22436    0.10082    5.09879   57.74161   -3.92105    8.50000 70000.00000
 1797.70000    8.57049   36.61199   35.24454   35.88585    2.68418   22.23144    0.10019    5.11092   57.36690   -4.27004    8.50000 70000.00000
 1797.80000    8.57098   37.39534   35.76633   36.35472    2.68855   22.31481    0.09951    5.12678   57.27207   -4.52139    8.50000 70000.00000
 1797.90000    8.57411   38.68184   36.71372   37.27312    2.69239   22.13616    0.09921    5.13189   57.04240   -4.23355    8.50000 70000.00000
 1798.00000    8.57458   37.49217   35.71502   36.22841    2.69049   21.62948    0.09938    5.14699   57.11065   -4.41623    8.50000 70000.00000
 1798.10000    8.57720   38.02086   35.99495   36.56875    2.69057   21.67091    0.10044    5.14374   57.32499   -4.38326    8.50000 70000.00000
 1798.20000    8.57880   38.21542   36.30794   36.95601    2.68885   21.80169    0.10145    5.13946   57.85240   -4.09019    8.50000 70000.00000
 1798.30000    8.57859   37.99738   36.29048   36.85483    2.68817   21.29029    0.10071    5.15609   57.84585   -3.81958    8.50000 70000.00000
 1798.40000    8.58008   37.44412   36.55750   36.77754    2.68887   21.23360    0.10083    5.15535   58.05618   -3.93528    8.50000 70000.00000
 1798.50000    8.57773   38.35797   37.30315   37.57391    2.69348   21.36524    0.09905    5.16326   57.95207   -3.75433    8.50000 70000.00000
 1798.60000    8.57559   38.11326   36.71033   37.07343    2.69315   21.26922    0.09845    5.15056   58.16301   -3.98718    8.50000 70000.00000
 1798.70000    8.57320   44.30323   42.01760   42.97053    2.69439   21.01625    0.09883    5.16078   58.37254   -4.20303    8.50000 70000.00000
 1798.80000    8.57558   43.11115   40.90843   41.85403    2.69525   20.34780    0.09654    5.19181   58.42500   -4.43127    8.50000 70000.00000
 1798.90000    8.57685   42.55432   40.68431   41.60136    2.69082   20.46447    0.09805    5.17494   58.35781   -4.59286    8.50000 70000.00000
 1799.00000    8.57819   39.14797   37.81243   38.52437    2.69196   20.70470    0.09765    5.15451   58.28817   -4.46737    8.50000 70000.00000
 1799.10000    8.57879   39.06060   37.76853   38.40072    2.69369   20.59525    0.09785    5.14787   58.02410   -4.16206    8.50000 70000.00000
 1799.20000    8.58088   40.06608   38.71084   39.49859    2.69367   20.08812    0.09626    5.15169   58.14278   -4.34961    8.50000 70000.00000
 1799.30000    8.57943   40.82548   39.47301   40.27080    2.68956   20.01741    0.09654    5.16182   58.27430   -4.43492    8.50000 70000.00000
 1799.40000    8.58224   41.83120   40.31233   41.16601    2.68972   20.18653    0.09463    5.16378   58.18065   -4.80033    8.50000 70000.00000
 1799.50000    8.58315   43.61530   41.96208   42.75584    2.68587   19.64116    0.09494    5.14973   58.26692   -4.88005    8.50000 70000.00000
 1799.60000    8.58217   44.21925   42.73411   43.44935    2.68311   19.68857    0.09451    5.14455   58.28417   -5.06404    8.50000 70000.00000
 1799.70000    8.58207   42.40342   40.61100   41.43381    2.68107   19.26348    0.09600    5.13662   58.59982   -5.21659    8.50000 70000.00000
 1799.80000    8.58531   42.33773   40.72362   41.49042    2.67978   19.02343    0.09751    5.12033   58.92780   -5.20744    8.50000 70000.00000
 1799.90000    8.58371   42.65316   41.24102   42.06644    2.67866   18.64874    0.09761    5.10710   59.10270   -5.10464    8.50000 70000.00000
 1800.00000    8.58518   40.63756   39.58416   40.42875    2.67388   19.16615    0.09888    5.10434   58.84764   -5.50298    8.50000 70000.00000
 1800.10000    8.58516   40.63977   39.85198   40.73007    2.67590   19.32767    0.10035    5.09489   59.17159   -5.17303    8.50000 70000.00000
 1800.20000    8.58422   45.95297   45.07523   45.75448    2.67921   18.93404    0.10004    5.09260   58.80956   -5.43310    8.50000 70000.00000
 1800.30000    8.58452   50.96337   50.13132   50.62014    2.67984   19.19005    0.09938    5.08587   58.44794   -5.58019    8.50000 70000.00000
 1800.40000    8.58746   51.31618   50.12860   50.69373    2.68073   18.95748    0.09933    5.07438   58.35598   -5.76505    8.50000 70000.00000
 1800.50000    8.58652   50.91986   49.37812   50.02231    2.67897   18.76543    0.10209    5.08483   58.49633   -5.68860    8.50000 70000.00000
 1800.60000    8.58808   57.15772   55.85670   56.62352    2.67621   18.69966    0.10357    5.07164   58.77638   -5.38858    8.50000 70000.00000
 1800.70000    8.58693   55.57523   54.52266   55.21127    2.67662   18.88840    0.10389    5.07322   58.84166   -5.34125    8.50000 70000.00000
