~Version ---------------------------------------------------
VERS.   2.0 : CWLS log ASCII Standard -VERSION 2.0
WRAP.    NO : One line per depth step
DLM . SPACE : Column Data Section Delimiter
~Well ------------------------------------------------------
STRT.m          1000.00000 : START DEPTH
STOP.m          2000.00000 : STOP DEPTH
STEP.m             0.10000 : STEP
NULL.             -9999.25 : NULL VALUE
COMP. FORCE 2020 Recreator : 
WELL.   WELL_FORCE_2020_03 : 
FLD .                      : FIELD
LOC .                      : LOCATION
PROV.                      : PROVINCE
CNTY.                      : COUNTY
STAT.                      : STATE
CTRY.                      : COUNTRY
SRVC.                      : SERVICE COMPANY
DATE.                      : DATE
UWI .                      : UNIQUE WELL ID
API .                      : API NUMBER
~Curve Information -----------------------------------------
DEPT                            .m      : 
CALI                            .in     : 
RSHA                            .ohm.m  : 
RMED                            .ohm.m  : 
RDEP                            .ohm.m  : 
RHOB                            .g/cm3  : 
GR                              .gAPI   : 
NPHI                            .v/v    : 
PEF                             .b/e    : 
DTC                             .us/ft  : 
SP                              .mV     : 
BS                              .in     : 
FORCE_2020_LITHOFACIES_LITHOLOGY.code   : 
~Params ----------------------------------------------------
~Other -----------------------------------------------------
~ASCII -----------------------------------------------------
# ...
 1794.90000    9.74299    3.70928    3.69685    3.68845    2.46843  107.21722    0.33922    3.21043  103.78127    0.55020    8.50000 65000.00000
 1795.00000    9.66895    4.05488    4.16265    4.11284    2.46275  103.88593    0.33749    3.17386  103.78982   -0.30443    8.50000 65000.00000
 1795.10000    9.60032    4.16009    4.32472    4.28930    2.44992  100.42964    0.33167    3.13011  102.73462   -1.34557    8.50000 65000.00000
 1795.20000    9.53482    4.09213    4.23596    4.20535    2.44756   97.18407    0.32946    3.09008  102.35069   -2.56279    8.50000 65000.00000
 1795.30000    9.44714    5.00788    4.98002    5.04028    2.44287   96.52154    0.32587    3.05623  100.52860   -3.90137    8.50000 65000.00000
 1795.40000    9.39437    5.15253    5.06777    5.15758    2.44364   94.90390    0.32079    3.02463   99.37423   -4.99460    8.50000 65000.00000
 1795.50000    9.32920    5.20482    5.18358    5.24305    2.44085   91.34926    0.31388    3.00223   99.41093   -5.97377    8.50000 65000.00000
 1795.60000    9.28258    5.44992    5.49250    5.52801    2.43697   89.19072    0.31116    2.95015   98.30699   -7.36344    8.50000 65030.00000
 1795.70000    9.22438    5.44813    5.50605    5.53483    2.43675   88.17933    0.30098    2.90604   98.58785   -8.45675    8.50000 65030.00000
 1795.80000    9.13621    5.49572    5.56952    5.58359    2.43421   85.69904    0.29907    2.88221   98.17793   -8.95813    8.50000 65030.00000
 1795.90000    9.06978    5.51268    5.58991    5.61145    2.42390   84.51480    0.28791    2.83919   97.97460   -9.46364    8.50000 65030.00000
 1796.00000    9.00747    5.65030    5.74066    5.77869    2.42137   81.93961    0.28072    2.79502   97.39919  -10.37333    8.50000 65030.00000
 1796.10000    8.93715    5.89114    5.93715    5.99460    2.41953   79.41779    0.27691    2.75810   96.51051  -11.37164    8.50000 65030.00000
 1796.20000    8.86224    6.09630    6.19952    6.23930    2.41511   76.65352    0.27369    2.69997   95.29000  -12.18244    8.50000 65030.00000
 1796.30000    8.79388    6.18629    6.28254    6.31730    2.41385   74.69311    0.26894    2.66052   94.71473  -12.68878    8.50000 65030.00000
 1796.40000    8.71910    6.74901    7.00953    6.99470    2.40658   73.49542    0.26641    2.63554   94.84037  -13.36088    8.50000 65030.00000
 1796.50000    8.63453    6.95710    7.21657    7.16874    2.40497   70.42860    0.25892    2.60521   94.19542  -14.39858    8.50000 65030.00000
 1796.60000    8.58515    7.14138    7.41847    7.34014    2.40886   68.81603    0.25741    2.57106   93.25981  -15.39617    8.50000 65030.00000
 1796.70000    8.58728    7.03953    7.18761    7.13756    2.41237   69.84258    0.25977    2.57790   93.37714  -15.41879    8.50000 65030.00000
 1796.80000    8.58746    6.88141    6.96917    6.94698    2.40543   70.04261    0.26393    2.58723   93.66423  -15.25106    8.50000 65030.00000
 1796.90000    8.58648    6.70148    6.85493    6.81344    2.40645   71.69264    0.26043    2.59345   93.14441  -15.15390    8.50000 65030.00000
 1797.00000    8.58539    6.88812    6.99377    6.95579    2.40842   72.28393    0.25889    2.58323   92.64979  -15.41645    8.50000 65030.00000
 1797.10000    8.58490    6.64650    6.65408    6.65268    2.41286   72.10436    0.25866    2.57703   93.01819  -15.57616    8.50000 65030.00000
 1797.20000    8.58597    7.62409    7.48399    7.41778    2.42270   73.02330    0.26113    2.57085   92.86751  -15.85409    8.50000 65030.00000
 1797.30000    8.58307    7.85853    7.65387    7.59886    2.41976   73.02969    0.25630    2.56423   92.89955  -16.10697    8.50000 65030.00000
 1797.40000    8.58269    7.41319    7.37370    7.21153   -9999.25   71.69314    0.25591    2.56155   93.50541  -15.65797    8.50000 65030.00000
 1797.50000    8.58161    8.11042    8.05482    7.86510    2.42040   71.99242    0.26088    2.56207   93.67541  -15.59228    8.50000 65030.00000
 1797.60000    8.57807    8.52007    8.30763    8.16169    2.41806   73.52888    0.26273    2.56316   92.54468  -15.36078    8.50000 65030.00000
 1797.70000    8.57815    9.10234    8.88126    8.69870    2.42069   73.84747    0.25996    2.57440   92.61384  -15.16075    8.50000 65030.00000
 1797.80000    8.57744    9.52496    9.34024    9.14122    2.41876   73.59322    0.26292    2.58651   92.18829  -15.37027    8.50000 65030.00000
 1797.90000    8.57865    9.66177    9.49183    9.29392    2.41647   73.63412    0.26318    2.57776   92.01964  -15.48688    8.50000 65030.00000
 1798.00000    8.57995   10.16159   10.08930    9.84147    2.42128   73.38129    0.26428    2.59823   92.37548  -15.72014    8.50000 65030.00000
 1798.10000    8.57969   10.03078    9.97881    9.71128    2.41566   73.99206    0.26266    2.60027   91.98573  -15.15907    8.50000 65030.00000
 1798.20000    8.57714    9.98817    9.99045    9.68474    2.41233   75.06264    0.25945    2.59013   91.43830  -15.20886    8.50000 65030.00000
 1798.30000    8.57596    9.94474    9.89874    9.61271    2.41895   75.47546    0.25933    2.58889   91.45098  -15.22111    8.50000 65030.00000
 1798.40000    8.57550   10.18556   10.14459    9.83245    2.41760   75.96880    0.25892   -9999.25   91.81268  -15.67374    8.50000 65030.00000
 1798.50000    8.57530    9.60878    9.42183    9.15117    2.42245   74.68637    0.25870    2.60602   91.61924  -16.10624    8.50000 65030.00000
 1798.60000    8.57853    9.20980    9.05107    8.79561    2.41802   74.67024    0.25562    2.60650   91.58157  -16.01665    8.50000 65030.00000
 1798.70000    8.57962    9.07499    8.89184    8.66603    2.40973   75.57439    0.25126    2.60415   92.78271  -16.26119    8.50000 65030.00000
 1798.80000    8.57482    9.06388    8.85714    8.63074    2.40482   75.91713    0.25150    2.58160   92.39708  -16.02319    8.50000 65030.00000
 1798.90000    8.57426    9.44435    9.25987    9.03916    2.41281   76.66809    0.24864    2.58321   92.16595  -16.40992    8.50000 65030.00000
 1799.00000    8.57567    9.62143    9.39675    9.18769    2.40819   74.85209    0.25316    2.59778   93.13457  -16.24775    8.50000 65030.00000
 1799.10000    8.57828    9.26182    9.13223    8.90473    2.40170   74.23972    0.25361    2.60850   93.34701  -15.88464    8.50000 65030.00000
 1799.20000    8.58044    9.54800    9.34703    9.11659    2.40134   74.37008    0.25277    2.60385   92.55413  -15.90632    8.50000 65030.00000
 1799.30000    8.58200    8.86812    8.81387    8.62875    2.39647   74.22002    0.25500    2.60374   92.47083  -15.36241    8.50000 65030.00000
 1799.40000    8.58159    8.77779    8.75867    8.57134    2.39296   74.75299    0.26118    2.62021   92.27052  -14.82680    8.50000 65030.00000
 1799.50000    8.58066    8.35078    8.36025    8.17433    2.39289   75.32810    0.26100    2.61893   92.18331  -14.46822    8.50000 65030.00000
 1799.60000    8.57862    7.48451    7.57390    7.38248    2.39012   75.10091    0.26040    2.61084   92.68614  -14.33305    8.50000 65030.00000
 1799.70000    8.58376    6.95558    7.14934    6.94487    2.39326   74.71748    0.26226    2.60707   93.53180  -14.44336    8.50000 65030.00000
 1799.80000    8.58457    6.37534    6.49710    6.33408    2.39408   74.92434    0.26111    2.59527   93.68515  -14.64736    8.50000 65030.00000
 1799.90000    8.58627    6.08189    6.15379    6.01601    2.40006   75.45066    0.26508    2.57361   93.37081  -14.67410    8.50000 65030.00000
 1800.00000    8.58557    5.93223    5.97531    5.84122    2.39890   74.72084    0.26583    2.58335   93.59627  -14.81860    8.50000 65030.00000
 1800.10000    8.58495    5.71472    5.64089    5.55158    2.39779   75.06594    0.26242    2.56286   93.13684  -14.89286    8.50000 65030.00000
 1800.20000    8.58514    5.97467    5.87985    5.79950    2.40096   74.18259    0.26684    2.57195   93.79909  -15.54276    8.50000 65030.00000
 1800.30000    8.58961    6.01461    5.98876    5.92787    2.40190   74.43608    0.27036    2.57349   94.50906  -15.75987    8.50000 65030.00000
 1800.40000    8.58778    6.02679    5.97613    5.90324    2.40229   74.69508    0.26674    2.58740   94.30679  -15.68361    8.50000 65030.00000
