~Version ---------------------------------------------------
VERS.   2.0 : CWLS log ASCII Standard -VERSION 2.0
WRAP.    NO : One line per depth step
DLM . SPACE : Column Data Section Delimiter
~Well ------------------------------------------------------
STRT.m          1000.00000 : START DEPTH
STOP.m          2000.00000 : STOP DEPTH
STEP.m             0.10000 : STEP
NULL.             -9999.25 : NULL VALUE
COMP. FORCE 2020 Recreator : 
WELL.   WELL_FORCE_2020_07 : 
FLD .                      : FIELD
LOC .                      : LOCATION
PROV.                      : PROVINCE
CNTY.                      : COUNTY
STAT.                      : STATE
CTRY.                      : COUNTRY
SRVC.                      : SERVICE COMPANY
DATE.                      : DATE
UWI .                      : UNIQUE WELL ID
API .                      : API NUMBER
~Curve Information -----------------------------------------
DEPT                            .m      : 
CALI                            .in     : 
RSHA                            .ohm.m  : 
RMED                            .ohm.m  : 
RDEP                            .ohm.m  : 
RHOB                            .g/cm3  : 
GR                              .gAPI   : 
NPHI                            .v/v    : 
PEF                             .b/e    : 
DTC                             .us/ft  : 
SP                              .mV     : 
BS                              .in     : 
FORCE_2020_LITHOFACIES_LITHOLOGY.code   : 
~Params ----------------------------------------------------
~Other -----------------------------------------------------
~ASCII -----------------------------------------------------
# ...
 1862.40000    8.33509   22.30179   22.86555   22.76688    2.34983   44.10440    0.19962    1.83735   83.49963  -34.66084    8.50000 30000.00000
 1862.50000    8.33709   20.37112   20.95060   21.00061    2.34628   43.77672    0.19718    1.84750   82.88730  -34.37769    8.50000 30000.00000
 1862.60000    8.33800   21.62955   21.97771   22.04181    2.34433   43.53646    0.19331    1.85327   82.68291  -34.35718    8.50000 30000.00000
 1862.70000    8.33620   20.75952   21.12610   21.18614    2.34191   43.23870    0.19151    1.85147   82.20711  -34.34935    8.50000 30000.00000
 1862.80000    8.33149   20.67501   21.15871   21.22028    2.34011   43.12246    0.18978    1.85451   82.29320  -33.92072    8.50000 30000.00000
 1862.90000    8.32832   21.62550   22.16121   22.20804    2.34476   43.43966    0.18998    1.85339   82.05283  -33.51915    8.50000 30000.00000
 1863.00000    8.32697   20.68891   21.25284   21.29257    2.34262   43.30993    0.19027    1.85941   81.95727  -33.47284    8.50000 30000.00000
 1863.10000    8.32304   23.04836   24.31464   24.38632    2.33939   43.16287    0.19136    1.87347   81.28171  -33.65608    8.50000 30000.00000
 1863.20000    8.32574   23.95657   25.27516   25.25153    2.33890   42.45193    0.19255    1.86838   81.60645  -33.82898    8.50000 30000.00000
 1863.30000    8.32672   25.11020   26.20754   26.25870    2.34536   42.03319    0.19444    1.86759   81.39359  -33.75594    8.50000 30000.00000
 1863.40000    8.32147   25.14131   26.29007   26.23498    2.34405   42.75926    0.19227    1.86080   81.37287  -34.00194    8.50000 30000.00000
 1863.50000    8.31969   25.19825   26.34137   26.28959    2.34130   42.54277    0.19187    1.85851   81.03847  -33.82474    8.50000 30000.00000
 1863.60000    8.32077   25.12827   26.29938   26.29681    2.34444   43.17824    0.19145    1.85240   80.51815  -33.63024    8.50000 30000.00000
 1863.70000    8.32269   25.33785   26.25964   26.28936    2.35005   43.68977    0.19158    1.85022   80.74399  -34.03385    8.50000 30000.00000
 1863.80000    8.32367   24.60008   25.39457   25.32794    2.34910   43.82189    0.18959    1.83813   80.48251  -34.31998    8.50000 30000.00000
 1863.90000    8.32461   25.17570   26.04084   25.93343    2.34353   42.92401    0.19227    1.83981   80.75508  -34.84255    8.50000 30000.00000
 1864.00000    8.32147   25.71079   26.45427   26.37010    2.34146   42.45760    0.19272    1.84421   80.43650  -34.57738    8.50000 30000.00000
 1864.10000    8.32243   25.83438   26.54207   26.46992    2.34278   42.80173    0.19351    1.85518   80.65584  -35.26872    8.50000 30000.00000
 1864.20000    8.32565   24.97692   25.82900   25.66871    2.34236   42.98447    0.19444    1.85403   80.55931  -35.29696    8.50000 30000.00000
 1864.30000    8.32796   24.93253   25.66085   25.50607    2.34101   43.48819    0.19535    1.86146   81.11225  -35.46881    8.50000 30000.00000
 1864.40000    8.32312   24.90681   25.69649   25.53389    2.34403   43.21062    0.19689    1.87055   81.06751  -35.24798    8.50000 30000.00000
 1864.50000    8.32497   23.66101   24.37305   24.30380    2.34526   42.72373    0.19535    1.86278   81.18496  -35.52744    8.50000 30000.00000
 1864.60000    8.32339   23.31871   24.02413   23.93889    2.34813   43.38410    0.19634    1.85903   81.49473  -35.88645    8.50000 30000.00000
 1864.70000    8.32191   24.33445   25.22749   25.15913    2.34734   43.51082    0.19944    1.85563   81.95644  -35.37759    8.50000 30000.00000
 1864.80000    8.32336   25.17707   26.06332   26.01778    2.34642   44.44786    0.20085    1.85792   82.17088  -35.22068    8.50000 30000.00000
 1864.90000    8.32244   25.78525   26.27649   26.37548    2.34687   44.63869    0.20102    1.85738   81.92951  -35.31353    8.50000 30000.00000
 1865.00000    8.32327   24.71031   25.11147   25.21875    2.35220   44.60195    0.20167    1.86551   82.33748  -35.77310    8.50000 30000.00000
 1865.10000    8.32293   24.27180   24.69410   24.78975    2.35825   45.00426    0.20348    1.86749   82.16908  -36.29341    8.50000 30000.00000
 1865.20000    8.32204   22.07705   22.04981   22.00162    2.36064   45.36968    0.20612    1.86272   82.29057  -36.23393    8.50000 30000.00000
 1865.30000    8.31740   21.11624   21.04237   21.09319    2.36182   45.45129    0.20684    1.86027   81.84739  -36.04295    8.50000 30000.00000
 1865.40000    8.31466   20.74934   21.08602   20.96454    2.35977   46.05740    0.20757    1.86235   81.68181  -36.03912    8.50000 30000.00000
 1865.50000    8.31643   20.54808   20.79555   20.78169    2.36043   45.51479    0.20837    1.87328   81.71731  -36.31144    8.50000 30000.00000
 1865.60000    8.31810   21.18962   21.47824   21.41191    2.36614   45.14015    0.21227    1.87334   82.28123  -36.45597    8.50000 30000.00000
 1865.70000    8.31600   20.39287   20.72455   20.56410    2.36950   45.43606    0.20988    1.87594   82.01335  -37.29896    8.50000 30000.00000
 1865.80000    8.31592   19.94251   20.22158   20.03076    2.36628   45.38577    0.20770    1.86795   82.53056  -37.04512    8.50000 30000.00000
 1865.90000    8.32209   20.33736   20.84584   20.57710    2.36601   45.27001    0.20899    1.87745   82.82936  -37.10838    8.50000 30000.00000
 1866.00000    8.32371   19.90745   20.34592   20.14435    2.36975   44.69699    0.20758    1.87413   82.91466  -37.10694    8.50000 30000.00000
 1866.10000    8.32736   20.56635   20.77104   20.81642    2.36860   44.80064    0.20454    1.86675   83.27985  -37.25114    8.50000 30000.00000
 1866.20000    8.32821   21.19383   21.37660   21.43148    2.36875   44.10903    0.20530    1.86099   83.69705  -36.85038    8.50000 30000.00000
 1866.30000    8.32383   22.15577   21.95381   22.05724    2.37188   43.43704    0.20387    1.85190   83.70881  -36.89784    8.50000 30000.00000
 1866.40000    8.32372   21.63265   21.64248   21.78041    2.36990   43.72154    0.20277    1.84371   83.65591  -36.37514    8.50000 30000.00000
 1866.50000    8.32259   23.08082   22.72407   22.98229    2.36895   44.27241    0.20307    1.84746   83.63845  -36.60583    8.50000 30000.00000
 1866.60000    8.31937   26.59642   26.04879   26.53350    2.36727   44.83464    0.20237    1.85271   83.61396  -36.97817    8.50000 30000.00000
 1866.70000    8.32006   28.82636   28.53286   29.08724    2.36712   44.43542    0.20302    1.84640   83.96221  -36.65777    8.50000 30000.00000
 1866.80000    8.32401   27.12759   26.88050   27.32110    2.36741   44.69884    0.20368    1.85745   83.92289  -37.10660    8.50000 30000.00000
 1866.90000    8.32701   26.51366   26.25088   26.68223    2.36465   43.61331    0.20217    1.85273   83.88205  -36.87128    8.50000 30000.00000
 1867.00000    8.32933   24.84511   24.90155   25.19978    2.36828   42.91866    0.20217    1.86422   84.29565  -37.03769    8.50000 30000.00000
 1867.10000    8.32788   25.34260   25.25303   25.64984    2.36857   42.79997    0.19881    1.86212   84.12010  -36.76945    8.50000 30000.00000
 1867.20000    8.33121   26.45719   26.46184   26.86695    2.36798   42.78613    0.19967    1.86099   83.76436  -36.37530    8.50000 30000.00000
 1867.30000    8.33184   26.32601   26.12562   26.75363    2.37323   41.88142    0.19747    1.85808   83.52242  -36.08941    8.50000 30000.00000
 1867.40000    8.33645   26.65424   26.50752   27.10857    2.37038   42.14392    0.19753    1.85340   84.23746  -35.94689    8.50000 30000.00000
 1867.50000    8.33667   25.83160   25.42341   26.14517    2.36617   42.07215    0.19768    1.85117   84.24173  -36.27218    8.50000 30000.00000
 1867.60000    8.33778   28.43932   28.36121   28.66468    2.36725   41.98704    0.20002    1.84439   84.43727  -35.89257    8.50000 30000.00000
 1867.70000    8.33610   28.57710   28.29768   28.66279    2.36156   42.66919    0.20041    1.84591   83.93617  -35.77557    8.50000 30000.00000
 1867.80000    8.33211   29.30022   28.98119   29.38632    2.35626   41.69197    0.20415    1.84179   84.21146  -35.30909    8.50000 30000.00000
 1867.90000    8.33464   30.23555   29.87708   30.38985    2.35070   42.42205    0.20819    1.84322   84.06459  -35.27244    8.50000 30000.00000
