~Version ---------------------------------------------------
VERS.   2.0 : CWLS log ASCII Standard -VERSION 2.0
WRAP.    NO : One line per depth step
DLM . SPACE : Column Data Section Delimiter
~Well ------------------------------------------------------
STRT.m          1000.00000 : START DEPTH
STOP.m          2000.00000 : STOP DEPTH
STEP.m             0.10000 : STEP
NULL.             -9999.25 : NULL VALUE
COMP. FORCE 2020 Recreator : 
WELL.   WELL_FORCE_2020_10 : 
FLD .                      : FIELD
LOC .                      : LOCATION
PROV.                      : PROVINCE
CNTY.                      : COUNTY
STAT.                      : STATE
CTRY.                      : COUNTRY
SRVC.                      : SERVICE COMPANY
DATE.                      : DATE
UWI .                      : UNIQUE WELL ID
API .                      : API NUMBER
~Curve Information -----------------------------------------
DEPT                            .m      : 
CALI                            .in     : 
RSHA                            .ohm.m  : 
RMED                            .ohm.m  : 
RDEP                            .ohm.m  : 
RHOB                            .g/cm3  : 
GR                              .gAPI   : 
NPHI                            .v/v    : 
PEF                             .b/e    : 
DTC                             .us/ft  : 
SP                              .mV     : 
BS                              .in     : 
FORCE_2020_LITHOFACIES_LITHOLOGY.code   : 
~Params ----------------------------------------------------
~Other -----------------------------------------------------
~ASCII -----------------------------------------------------
# ...
 1862.40000    9.89105    3.02617    3.08541    3.05372    2.46050  105.58901    0.36665    3.31456  109.36288    4.24361    8.50000 65000.00000
 1862.50000    9.87463    2.90958    2.98297    2.95131    2.45854  106.38922    0.36694    3.33052  109.61864    4.40797    8.50000 65000.00000
 1862.60000    9.88314    2.81422    2.87276    2.84017    2.45963  105.47637    0.36441    3.34521  109.59594    4.37341    8.50000 65000.00000
 1862.70000    9.89596    2.77068    2.85128    2.81696    2.45363  106.12994    0.36016    3.36783  109.35489    3.92226    8.50000 65000.00000
 1862.80000    9.93127    2.70370    2.77797    2.74744    2.45294  105.65159    0.36217    3.38943  108.92020    3.94716    8.50000 65000.00000
 1862.90000    9.97579    2.66241    2.75584    2.72231    2.45047  106.40410    0.35892    3.38112  108.76613    3.74404    8.50000 65000.00000
 1863.00000    9.97556    2.66933    2.74817    2.71726    2.44862  107.98826    0.35672    3.38667  108.74338    4.15308    8.50000 65000.00000
 1863.10000    9.99179    2.66548    2.66758    2.65663    2.45201  107.83254    0.35742    3.38498  109.09055    4.04455    8.50000 65000.00000
 1863.20000    9.95593    2.64082    2.65274    2.64323    2.45362  107.22888    0.35771    3.38273  108.30840    4.02225    8.50000 65000.00000
 1863.30000    9.97305    2.59903    2.61454    2.60725    2.45416  106.59984    0.36104    3.39442  107.98046    4.19592    8.50000 65000.00000
 1863.40000   10.02615    2.65759    2.67212    2.66447    2.45260  107.84176    0.36262    3.40048  108.07774    4.44628    8.50000 65000.00000
 1863.50000   10.07125    2.65402    2.67498    2.65816    2.45333  108.56229    0.36364    3.39404  107.52835    4.28080    8.50000 65000.00000
 1863.60000   10.06784    2.53770    2.54873    2.53394    2.45050  109.14969    0.36250    3.41124  107.05223    4.40934    8.50000 65000.00000
 1863.70000   10.05364    2.64810    2.60542    2.60251    2.45418  110.51485    0.35659    3.39943  107.74699    4.29235    8.50000 65000.00000
 1863.80000   10.08870    2.72325    2.67312    2.66460    2.46012  109.04268    0.35612    3.39634  107.59802    4.01713    8.50000 65000.00000
 1863.90000   10.07043    2.68224    2.62543    2.61406    2.46142  108.45842    0.35505    3.39721  107.88088    3.95953    8.50000 65000.00000
 1864.00000   10.06922    2.67224    2.61360    2.59837    2.46521  107.30886    0.35257    3.38489  108.71887    4.13349    8.50000 65000.00000
 1864.10000   10.06521    2.68476    2.60430    2.59843    2.46716  107.57949    0.35631    3.42105  108.42157    4.24505    8.50000 65000.00000
 1864.20000   10.09039    2.72985    2.64971    2.66287    2.47161  108.55187    0.35739    3.42414  108.21875    4.26093    8.50000 65000.00000
 1864.30000   10.09475    2.67463    2.56510    2.58051    2.47565  106.31716    0.35312    3.42633  108.17232    4.88996    8.50000 65000.00000
 1864.40000   10.09006    2.60817    2.50014    2.53122    2.47996  106.51515    0.35217    3.41971  107.11395    5.18368    8.50000 65000.00000
 1864.50000   10.09711    2.59147    2.50773    2.52369    2.47761  108.18015    0.35385    3.43066  107.08949    4.65624    8.50000 65000.00000
 1864.60000   10.06480    2.60274    2.51324    2.53569    2.48179  106.66868    0.35303    3.40434  106.99712    4.83071    8.50000 65000.00000
 1864.70000   10.08838    2.61087    2.54904    2.58337    2.48404  109.03057    0.35290    3.39019  106.74957    4.83754    8.50000 65000.00000
 1864.80000   10.08539    2.64918    2.57688    2.61395    2.48753  109.20805    0.35169    3.39558  106.87707    5.18897    8.50000 65000.00000
 1864.90000   10.07537    2.68192    2.60655    2.64960    2.48665  111.50678    0.35413    3.39224  107.13268    4.82046    8.50000 65000.00000
 1865.00000   10.05681    2.76410    2.68657    2.73133    2.48907  110.20079    0.35234    3.38696  107.77369    4.57109    8.50000 65000.00000
 1865.10000   10.06110    2.70799    2.64204    2.69392    2.49214  110.17245    0.35192    3.38088  108.38058    4.32574    8.50000 65000.00000
 1865.20000   10.04241    2.64762    2.60227    2.65334    2.49126  112.31958    0.35273    3.37697  108.15196    4.50716    8.50000 65000.00000
 1865.30000   10.08602    2.67255    2.63302    2.67942    2.49338  112.42917    0.35019    3.39495  109.06306    4.71279    8.50000 65000.00000
 1865.40000   10.06346    2.67463    2.60351    2.65469    2.49372  113.81086    0.35126    3.37189  109.53903    4.88891    8.50000 65000.00000
 1865.50000   10.00748    2.72770    2.64908    2.69460    2.49547  114.83316    0.34680    3.36218  109.83468    4.62372    8.50000 65000.00000
 1865.60000   10.01152    2.65403    2.56618    2.61823    2.49710  115.83720    0.34801    3.38035  110.00452    4.77709    8.50000 65000.00000
 1865.70000   10.03548    2.68083    2.59736    2.64118    2.49579  115.94601    0.35059    3.38387  109.76430    4.80406    8.50000 65000.00000
 1865.80000   10.03965    2.54890    2.50791    2.54446    2.49358  117.44345    0.35179    3.39448  109.39839    4.85583    8.50000 65000.00000
 1865.90000   10.01717    2.52457    2.48759    2.52005    2.49165  118.80214    0.35327    3.41478  108.46278    5.16244    8.50000 65000.00000
 1866.00000   10.04941    2.52114    2.48327    2.51762    2.48556  118.41306    0.34981    3.41854  108.12901    5.26380    8.50000 65000.00000
 1866.10000   10.05936    2.56423    2.54979    2.58680    2.48543  120.12630    0.35152    3.42232  108.16968    5.28565    8.50000 65000.00000
 1866.20000   10.04725    2.49846    2.51316    2.54556    2.48224  119.19068    0.34872    3.39899  107.06058    5.14364    8.50000 65000.00000
 1866.30000   10.05009    2.41165    2.45640    2.47125    2.48008  118.94162    0.34881    3.40787  106.69210    5.00578    8.50000 65000.00000
 1866.40000   10.04735    2.39219    2.44198    2.45496    2.48048  120.35956    0.34596    3.40956  106.56574    4.59000    8.50000 65000.00000
 1866.50000   10.05076    2.38396    2.41868    2.42903    2.47954  120.45922    0.34787    3.42491  107.18687    4.62967    8.50000 65000.00000
 1866.60000   10.05914    2.40014    2.43318    2.44856    2.48278  120.55037    0.34576    3.40942  106.57247    5.25767    8.50000 65000.00000
 1866.70000   10.10113    2.40764    2.43976    2.45594    2.48394  121.75881    0.34405    3.44143  107.38257    4.87876    8.50000 65000.00000
 1866.80000   10.07154    2.45506    2.45301    2.45595    2.48197  120.80171    0.34415    3.44196  107.82309    4.71263    8.50000 65000.00000
 1866.90000   10.04304    2.52257    2.51736    2.54483    2.48106  121.15084    0.34670    3.43459  107.91288    4.88907    8.50000 65000.00000
 1867.00000   10.00606    2.52728    2.51995    2.55162    2.47870  120.07888    0.34511    3.42058  107.66893    4.99578    8.50000 65000.00000
 1867.10000   10.00792    2.45878    2.44470    2.47459    2.47656  120.09605    0.35265    3.42196  106.79487    5.26910    8.50000 65000.00000
 1867.20000    9.99055    2.48170    2.49470    2.51389    2.47543  119.96483    0.34801    3.41283  106.69694    5.38345    8.50000 65000.00000
 1867.30000   10.00464    2.64292    2.64379    2.63133    2.47708  119.16960    0.34903    3.41430  106.78945    5.33161    8.50000 65000.00000
 1867.40000    9.98423    2.63198    2.63440    2.62046    2.47730  119.44920    0.34727    3.40339  106.82731    5.27194    8.50000 65000.00000
 1867.50000    9.99504    2.68032    2.68649    2.68078    2.47740  119.82400    0.34562    3.42257  106.73861    5.38375    8.50000 65000.00000
 1867.60000    9.99489    2.57810    2.59510    2.59022    2.47900  117.11687    0.34304    3.41709  106.68266    5.54848    8.50000 65000.00000
 1867.70000    9.98055    2.71484    2.73237    2.73110    2.47771  117.04125    0.34102    3.42156  107.20118    5.60257    8.50000 65000.00000
 1867.80000    9.95615    2.69875    2.69993    2.70506    2.47914  116.33540    0.34305    3.44025  107.63095    5.58521    8.50000 65000.00000
 1867.90000    9.97158    2.66636    2.64046    2.65440    2.48075  115.19739    0.34445    3.44899  107.61255    5.39086    8.50000 65000.00000
