~Version ---------------------------------------------------
VERS.   2.0 : CWLS log ASCII Standard -VERSION 2.0
WRAP.    NO : One line per depth step
DLM . SPACE : Column Data Section Delimiter
~Well ------------------------------------------------------
STRT.m          1000.00000 : START DEPTH
STOP.m          2000.00000 : STOP DEPTH
STEP.m             0.10000 : STEP
NULL.             -9999.25 : NULL VALUE
COMP. FORCE 2020 Recreator : 
WELL.   WELL_FORCE_2020_07 : 
FLD .                      : FIELD
LOC .                      : LOCATION
PROV.                      : PROVINCE
CNTY.                      : COUNTY
STAT.                      : STATE
CTRY.                      : COUNTRY
SRVC.                      : SERVICE COMPANY
DATE.                      : DATE
UWI .                      : UNIQUE WELL ID
API .                      : API NUMBER
~Curve Information -----------------------------------------
DEPT                            .m      : 
CALI                            .in     : 
RSHA                            .ohm.m  : 
RMED                            .ohm.m  : 
RDEP                            .ohm.m  : 
RHOB                            .g/cm3  : 
GR                              .gAPI   : 
NPHI                            .v/v    : 
PEF                             .b/e    : 
DTC                             .us/ft  : 
SP                              .mV     : 
BS                              .in     : 
FORCE_2020_LITHOFACIES_LITHOLOGY.code   : 
~Params ----------------------------------------------------
~Other -----------------------------------------------------
~ASCII -----------------------------------------------------
# ...
 1397.60000    8.56284   66.94278   66.66420   66.10000    2.41019   71.73755    0.26220    2.73766   88.11766  -12.69086    8.50000 65030.00000
 1397.70000    8.56575  107.03640  108.33812  103.62859    2.43566   69.92116    0.25074    2.85059   85.60957  -11.46064    8.50000 65030.00000
 1397.80000    8.56259  300.58713  284.15241  280.41150    2.46559   66.22421    0.24043    2.96449   83.65761  -10.30888    8.50000 65030.00000
 1397.90000    8.56419  329.56694  309.65472  307.58341    2.49585   64.03086    0.22585    3.07393   82.07451   -9.27941    8.50000 65030.00000
 1398.00000    8.56514  609.55876  572.49530  575.03860    2.52592   61.81140    0.21371    3.18030   79.43631   -8.66535    8.50000 65030.00000
 1398.10000    8.56196  651.06374  610.53498  613.49933    2.55447   58.34689    0.20197    3.27920   77.19295   -7.94271    8.50000 65030.00000
 1398.20000    8.56105  693.02083  661.24857  659.16803    2.57953   54.78659    0.18996    3.39782   75.45596   -6.81887    8.50000 65030.00000
 1398.30000    8.56005  820.68132  772.83384  771.74939    2.60242   51.55633    0.17855    3.51221   74.01656   -6.01500    8.50000 65030.00000
 1398.40000    8.55991 1160.72136 1171.81034 1129.40768    2.62631   48.92649    0.16469    3.62544   71.93457   -5.44049    8.50000 65030.00000
 1398.50000    8.56267 1330.73124 1355.15928 1302.44046    2.65640   46.33684    0.15606    3.71940   70.06279   -4.35289    8.50000 65030.00000
 1398.60000    8.56310 1348.18510 1374.87343 1321.32903    2.68476   43.03093    0.14365    3.83778   67.97756   -3.35233    8.50000 86000.00000
 1398.70000    8.56499 1549.26787 1594.23312 1537.26938    2.71348   40.24115    0.13089    3.95557   65.95084   -1.94916    8.50000 86000.00000
 1398.80000    8.56435 1577.06962 1622.57845 1563.68420    2.74372   36.43884    0.11720    4.09053   63.84650   -0.88116    8.50000 86000.00000
 1398.90000    8.56484 1614.44983 1662.56237 1605.33222    2.77008   33.59159    0.10423    4.19456   61.92090    0.15370    8.50000 86000.00000
 1399.00000    8.56807 1625.67614 1673.77995 1616.44830    2.80272   29.71098    0.09439    4.29187   60.43008    0.86784    8.50000 86000.00000
 1399.10000    8.57041 1750.86275 1786.96269 1734.42109    2.83748   26.94716    0.08174    4.39931   59.29359    1.63255    8.50000 86000.00000
 1399.20000    8.57064 1820.93868 1865.05377 1809.02263    2.86907   24.58592    0.06796    4.51763   57.73325    2.13932    8.50000 86000.00000
 1399.30000    8.57119 1844.17634 1890.36895 1832.82270    2.89134   20.98685    0.05523    4.62309   56.15899    3.36913    8.50000 86000.00000
 1399.40000    8.57388 1888.67437 1938.23864 1881.38692    2.92075   17.44197    0.04365    4.73207   53.66044    4.14976    8.50000 86000.00000
 1399.50000    8.57382 2028.21795 2073.30190 2003.13346    2.94684   14.52112    0.03124    4.83555   51.88556    4.76329    8.50000 86000.00000
 1399.60000    8.57249 2107.49309 2145.42496 2075.40273    2.96896   11.87390    0.01939    4.95888   50.18057    5.94394    8.50000 86000.00000
 1399.70000    8.57388 2107.14768 2142.87660 2072.12816    2.96224   11.87073    0.01913    4.95984   50.19016    5.57814    8.50000 86000.00000
 1399.80000    8.57542 2095.45421 2128.88628 2062.92498    2.96182   11.74141    0.01925    4.96639   50.17630    5.47538    8.50000 86000.00000
 1399.90000    8.57751 1952.06347 1999.27071 1932.69969    2.96393   11.71286    0.01979    4.96094   50.10433    5.33568    8.50000 86000.00000
 1400.00000    8.57769 1999.17252 2062.92905 1994.13611    2.96283   11.82445    0.01959    4.95653   50.05281    5.35775    8.50000 86000.00000
 1400.10000    8.57772 1828.58043 1919.43863 1838.69940    2.96014   12.07971    0.02001    4.95709   50.25538    5.56260    8.50000 86000.00000
 1400.20000    8.58074 1850.43108 1943.18727 1868.97502    2.95854   11.99306    0.01997    4.97708   50.08316    5.62246    8.50000 86000.00000
 1400.30000    8.58264 1841.11008 1923.80938 1855.51202    2.96063   11.95130    0.01966    4.95600   49.88463    5.50863    8.50000 86000.00000
 1400.40000    8.58424 1792.29733 1900.68956 1832.43769    2.96483   12.16252    0.01949    4.96244   50.08832    5.51143    8.50000 86000.00000
 1400.50000    8.58697 2370.57787 2402.81205 2374.41174    2.96757   12.01894    0.01967    4.95254   50.04796    5.33983    8.50000 86000.00000
 1400.60000    8.58713 2252.09130 2279.01548 2260.96036    2.96854   12.09051    0.02008    4.96790   50.00978    5.26100    8.50000 86000.00000
 1400.70000    8.58602 2343.51468 2356.96191 2349.20353    2.96770   12.26122    0.02110    4.96558   49.87156    5.17205    8.50000 86000.00000
 1400.80000    8.58430 2251.64156 2251.73291 2239.06705    2.96713   12.44219    0.02151    4.96221   49.85098    5.29678    8.50000 86000.00000
 1400.90000    8.58663 2324.80302 2319.63167 2307.55620    2.97077   12.76607    0.02098    4.93690   49.77174    5.51219    8.50000 86000.00000
 1401.00000    8.59028 2294.45203 2287.17860 2272.54602    2.97155   12.81479    0.02074    4.93915   49.77609    5.67866    8.50000 86000.00000
 1401.10000    8.58911 2458.95432 2460.42566 2433.90466    2.96663   12.99977    0.02097    4.92868   49.55555    5.56189    8.50000 86000.00000
 1401.20000    8.58691 2457.32494 2491.74168 2463.91116    2.96603   12.77490    0.02163    4.92511   49.47172    5.60885    8.50000 86000.00000
 1401.30000    8.59110 2432.89397 2463.68026 2438.60988    2.96657   12.79735    0.02254    4.92826   49.39051    5.74230    8.50000 86000.00000
 1401.40000    8.59105 2702.00052 2739.91329 2704.31400    2.96561   12.51730    0.02231    4.92375   49.11109    5.83837    8.50000 86000.00000
 1401.50000    8.58740 2800.41253 2866.05743 2820.89816    2.96311   12.44808    0.02119    4.91947   49.12299    6.02181    8.50000 86000.00000
 1401.60000    8.58569 2702.51557 2772.10965 2741.64262    2.96085   12.54875    0.02144    4.92907   49.22325    6.08899    8.50000 86000.00000
 1401.70000    8.58547 2680.56357 2751.08591 2721.35061    2.95874   12.11346    0.02156    4.92778   49.35949    6.02956    8.50000 86000.00000
 1401.80000    8.58628 2728.04596 2789.21159 2764.70995    2.95918   12.08849    0.02159    4.93192   49.33741    6.07753    8.50000 86000.00000
 1401.90000    8.58439 2711.64380 2774.99358 2749.78627    2.95812   12.30491    0.02188    4.93242   49.47289    6.22445    8.50000 86000.00000
 1402.00000    8.58415 2808.98087 2883.01486 2861.02503    2.95758   12.09286    0.02203    4.94383   49.39584    6.26022    8.50000 86000.00000
 1402.10000    8.58414 2764.31477 2830.48209 2806.30623    2.95734   12.05647    0.02207    4.95351   49.33954    6.15516    8.50000 86000.00000
 1402.20000    8.58283 2779.74461 2860.97489 2837.26059    2.96166   11.85900    0.02174    4.95880   49.07248    5.96865    8.50000 86000.00000
 1402.30000    8.57810 2762.50583 2841.38226 2812.40753    2.96547   12.01454    0.02233    4.94967   49.25458    5.98245    8.50000 86000.00000
 1402.40000    8.57617 3557.72733 3515.81573 3527.40808    2.96341   11.98098    0.02254    4.95172   49.49147    5.92567    8.50000 86000.00000
 1402.50000    8.57660 3559.22345 3485.41267 3501.67314    2.95774   11.95978    0.02317    4.95639   49.24394    5.94421    8.50000 86000.00000
 1402.60000    8.57320 2659.94245 2604.01179 2621.65490    2.95704   11.88262    0.02318    4.95283   49.23898    6.03199    8.50000 86000.00000
 1402.70000    8.57232 2740.20860 2684.80444 2696.47852    2.95501   12.04318    0.02278    4.94574   49.46098    6.10162    8.50000 86000.00000
 1402.80000    8.57197 2688.10174 2650.26226 2652.49282    2.95694   12.15282    0.02132    4.93795   49.50074    6.08380    8.50000 86000.00000
 1402.90000    8.57316 2760.85389 2718.23884 2731.22049    2.95741   12.47714    0.02115    4.93217   49.43254    6.00475    8.50000 86000.00000
 1403.00000    8.57135 2836.14336 2801.58171 2813.65297    2.95612   12.14029    0.02131    4.93972   49.53917    5.66035    8.50000 86000.00000
 1403.10000    8.56998 2858.43742 2822.08614 2834.35075    2.95585   12.08547    0.02054    4.94740   49.68346    5.42408    8.50000 86000.00000
