~Version ---------------------------------------------------
VERS.   2.0 : CWLS log ASCII Standard -VERSION 2.0
WRAP.    NO : One line per depth step
DLM . SPACE : Column Data Section Delimiter
~Well ------------------------------------------------------
STRT.m          1000.00000 : START DEPTH
STOP.m          2000.00000 : STOP DEPTH
STEP.m             0.10000 : STEP
NULL.             -9999.25 : NULL VALUE
COMP. FORCE 2020 Recreator : 
WELL.   WELL_FORCE_2020_09 : 
FLD .                      : FIELD
LOC .                      : LOCATION
PROV.                      : PROVINCE
CNTY.                      : COUNTY
STAT.                      : STATE
CTRY.                      : COUNTRY
SRVC.                      : SERVICE COMPANY
DATE.                      : DATE
UWI .                      : UNIQUE WELL ID
API .                      : API NUMBER
~Curve Information -----------------------------------------
DEPT                            .m      : 
CALI                            .in     : 
RSHA                            .ohm.m  : 
RMED                            .ohm.m  : 
RDEP                            .ohm.m  : 
RHOB                            .g/cm3  : 
GR                              .gAPI   : 
NPHI                            .v/v    : 
PEF                             .b/e    : 
DTC                             .us/ft  : 
SP                              .mV     : 
BS                              .in     : 
FORCE_2020_LITHOFACIES_LITHOLOGY.code   : 
~Params ----------------------------------------------------
~Other -----------------------------------------------------
~ASCII -----------------------------------------------------
# ...
 1397.60000    8.58161    4.01929    4.09330    4.05239    2.52299   77.67403    0.30606    3.19858   97.89018   -0.44736    8.50000 80000.00000
 1397.70000    8.58189    4.16230    4.30422    4.23158    2.52301   78.72252    0.30724    3.20653   98.07422   -0.62076    8.50000 80000.00000
 1397.80000    8.58216    4.16805    4.31227    4.22958    2.52789   78.20343    0.30639    3.19281   97.62934   -0.32554    8.50000 80000.00000
 1397.90000    8.58174    4.07936    4.18378    4.13031    2.52698   79.49307    0.30412    3.19710   97.47617   -0.63824    8.50000 80000.00000
 1398.00000    8.57988    4.35182    4.46068    4.40629    2.52194   78.92555    0.30051    3.18830   97.48372   -0.38622    8.50000 80000.00000
 1398.10000    8.58041    4.56572    4.63899    4.56729    2.51543   79.29045    0.29962    3.18462   97.95307   -0.34595    8.50000 80000.00000
 1398.20000    8.58190    4.66420    4.74640    4.67440    2.51398   79.54294    0.30091    3.18126   97.98504   -0.35938    8.50000 80000.00000
 1398.30000    8.58433    4.49988    4.57666    4.53038    2.51125   79.50263    0.29946    3.18466   97.79449   -0.15901    8.50000 80000.00000
 1398.40000    8.58348    4.63636    4.72772    4.68065    2.50754   80.12903    0.30250    3.19148   97.40166   -0.27976    8.50000 80000.00000
 1398.50000    8.58201    4.66326    4.78548    4.71953    2.50935   80.31613    0.30111    3.19957   97.19414   -0.19200    8.50000 80000.00000
 1398.60000    8.58052    4.69079    4.78409    4.72292    2.50555   81.68736    0.30072    3.19461   97.03026   -0.04744    8.50000 80000.00000
 1398.70000    8.58111    4.86169    4.90542    4.84156    2.50956   81.32228    0.30115    3.18707   97.07256    0.01467    8.50000 80000.00000
 1398.80000    8.58201    5.00648    5.08293    5.01245    2.50766   81.22450    0.29867    3.18606   97.37078    0.17062    8.50000 80000.00000
 1398.90000    8.58285    5.01285    5.09211    5.01616    2.50903   81.96353    0.30065    3.17569   97.03557    0.38871    8.50000 80000.00000
 1399.00000    8.58244    5.13355    5.24285    5.17225    2.50325   82.31038    0.30259    3.16564   96.43257    0.15278    8.50000 80000.00000
 1399.10000    8.58340    5.13031    5.26621    5.19699    2.50300   82.27138    0.30269    3.17142   96.67205    0.53266    8.50000 80000.00000
 1399.20000    8.58711    4.97862    5.16307    5.05150    2.51414   83.48790    0.30433    3.16891   96.30408    0.93351    8.50000 80000.00000
 1399.30000    8.58744    4.95341    5.12640    5.03529    2.51133   83.04493    0.30466    3.16116   96.37397    1.08631    8.50000 80000.00000
 1399.40000    8.58740    4.93534    5.09842    5.01787    2.51661   82.65557    0.30513    3.15094   95.88096    0.97561    8.50000 80000.00000
 1399.50000    8.58614    4.95718    5.09828    5.03082    2.51191   82.02592    0.30687    3.14850   96.20675    1.65341    8.50000 80000.00000
 1399.60000    8.58860    5.12121    5.22901    5.16562    2.50980   81.73256    0.30980    3.15235   96.09779    2.19306    8.50000 80000.00000
 1399.70000    8.58528    5.21016    5.26751    5.20822    2.50954   82.25672    0.31044    3.16022   96.48824    2.12576    8.50000 80000.00000
 1399.80000    8.58813    5.20529    5.21198    5.18066    2.51674   81.66196    0.30796    3.16831   96.25160    1.95525    8.50000 80000.00000
 1399.90000    8.58954    5.26575    5.24392    5.22952    2.51049   82.61187    0.31103    3.17013   96.40938    2.11277    8.50000 80000.00000
 1400.00000    8.58827    5.13295    5.13676    5.09895    2.50886   80.98856    0.31246    3.16110   95.89445    1.96737    8.50000 80000.00000
 1400.10000    8.58684    5.04302    5.03506    5.01561    2.50612   81.27183    0.31429    3.17273   95.61351    1.69733    8.50000 80000.00000
 1400.20000    8.58686    4.78060    4.79336    4.79159    2.51002   80.74515    0.31627    3.17499   95.21978    1.65196    8.50000 80000.00000
 1400.30000    8.58450    4.73562    4.77081    4.77648    2.51160   81.13328    0.31401    3.18440   95.07311    1.63584    8.50000 80000.00000
 1400.40000    8.58355    4.81489    4.78640    4.81539    2.51017   81.51757    0.31467    3.18633   94.86673    1.58482    8.50000 80000.00000
 1400.50000    8.58580    4.78230    4.73071    4.76608    2.51357   81.32683    0.31332    3.16855   95.03680    1.95825    8.50000 80000.00000
 1400.60000    8.58724    4.87674    4.82135    4.85120    2.51017   80.73137    0.31395    3.15188   95.21612    2.09749    8.50000 80000.00000
 1400.70000    8.58692    4.71688    4.69701    4.71977    2.51237   79.28448    0.31792    3.16035   95.27195    1.80946    8.50000 80000.00000
 1400.80000    8.58846    4.66129    4.67030    4.70984    2.50694   78.05410    0.31736    3.16902   94.92657    1.29948    8.50000 80000.00000
 1400.90000    8.58710    4.43061    4.45353    4.49998    2.50979   77.93284    0.31781    3.16948   94.35788    1.12831    8.50000 80000.00000
 1401.00000    8.58762    4.62184    4.60556    4.67454    2.50677   77.65270    0.31347    3.17198   94.70844    0.87565    8.50000 80000.00000
 1401.10000    8.58619    4.65092    4.58695    4.63961    2.50770   77.22510    0.31193    3.15609   95.17689    1.38782    8.50000 80000.00000
 1401.20000    8.58504    4.65138    4.57925    4.64687    2.50695   76.28154    0.31325    3.14902   94.83567    0.88594    8.50000 80000.00000
 1401.30000    8.58556    4.67270    4.54102    4.65619    2.50619   76.25652    0.31040    3.15647   95.40485    0.69487    8.50000 80000.00000
 1401.40000    8.58495    4.69657    4.54825    4.64811    2.51039   76.47945    0.31275    3.18251   95.68409    0.75162    8.50000 80000.00000
 1401.50000    8.58270    4.68093    4.50689    4.60747    2.51360   75.88890    0.31336    3.17753   96.36981    0.78122    8.50000 80000.00000
 1401.60000    8.58346    4.76289    4.58172    4.68375    2.51753   75.75779    0.31237    3.18276   95.93675    0.09691    8.50000 80000.00000
 1401.70000    8.58226    4.97768    4.86936    4.97145    2.52217   75.57548    0.31103    3.19528   95.76272   -0.23359    8.50000 80000.00000
 1401.80000    8.58306    4.81847    4.70920    4.82427    2.52506   75.56857    0.31100    3.21780   95.62225   -0.74832    8.50000 80000.00000
 1401.90000    8.58307    4.94008    4.84277    4.93938    2.51917   75.43651    0.31278    3.21651   95.97063   -0.93714    8.50000 80000.00000
 1402.00000    8.58135    5.00137    4.89372    4.96494    2.52530   75.24171    0.31120    3.22939   95.93168   -1.36006    8.50000 80000.00000
 1402.10000    8.58107   -9999.25    4.84280    4.92603    2.52528   75.03103    0.31008    3.22813   95.50870   -1.41803    8.50000 80000.00000
 1402.20000    8.58202    4.97402    4.81173    4.87488    2.52470   75.18668    0.31043    3.21777   95.52078   -1.33138    8.50000 80000.00000
 1402.30000    8.57991    5.06448    4.90577    4.96515    2.51963   74.59567    0.30864    3.22272   95.46835   -1.35285    8.50000 80000.00000
 1402.40000    8.57981    5.09986    4.92415    4.96857    2.52148   74.72853    0.31162    3.22532   95.88577   -1.28101    8.50000 80000.00000
 1402.50000    8.58066    5.08045    4.97552    5.00231    2.52213   75.97785    0.31175    3.21358   96.29612   -1.46476    8.50000 80000.00000
 1402.60000    8.57886    5.08313    5.04699    5.06898    2.51770   75.86572    0.30829    3.21918   96.45504   -2.14739    8.50000 80000.00000
 1402.70000    8.57955    4.97456    4.88609    4.93020    2.51916   75.77110    0.30674    3.23916   96.66259   -1.63265    8.50000 80000.00000
 1402.80000    8.57720    5.00343    4.92311    4.96846    2.51997   76.21697    0.30481    3.23454   96.53025   -1.03225    8.50000 80000.00000
 1402.90000    8.57926    5.11280    5.08141    5.10502    2.52006   77.60934    0.30527    3.23799   96.96738   -0.81149    8.50000 80000.00000
 1403.00000    8.57762    5.18614    5.13083    5.16973    2.52128   78.00062    0.30726    3.23131   96.80277   -0.66599    8.50000 80000.00000
 1403.10000    8.57558    5.03236    5.03935    5.05960    2.52981   78.63734    0.31014    3.23097   96.31362   -0.68971    8.50000 80000.00000
