~Version ---------------------------------------------------
VERS.   2.0 : CWLS log ASCII Standard -VERSION 2.0
WRAP.    NO : One line per depth step
DLM . SPACE : Column Data Section Delimiter
~Well ------------------------------------------------------
STRT.m          1000.00000 : START DEPTH
STOP.m          2000.00000 : STOP DEPTH
STEP.m             0.10000 : STEP
NULL.             -9999.25 : NULL VALUE
COMP. FORCE 2020 Recreator : 
WELL.   WELL_FORCE_2020_04 : 
FLD .                      : FIELD
LOC .                      : LOCATION
PROV.                      : PROVINCE
CNTY.                      : COUNTY
STAT.                      : STATE
CTRY.                      : COUNTRY
SRVC.                      : SERVICE COMPANY
DATE.                      : DATE
UWI .                      : UNIQUE WELL ID
API .                      : API NUMBER
~Curve Information -----------------------------------------
DEPT                            .m      : 
CALI                            .in     : 
RSHA                            .ohm.m  : 
RMED                            .ohm.m  : 
RDEP                            .ohm.m  : 
RHOB                            .g/cm3  : 
GR                              .gAPI   : 
NPHI                            .v/v    : 
PEF                             .b/e    : 
DTC                             .us/ft  : 
SP                              .mV     : 
BS                              .in     : 
FORCE_2020_LITHOFACIES_LITHOLOGY.code   : 
~Params ----------------------------------------------------
~Other -----------------------------------------------------
~ASCII -----------------------------------------------------
# ...
 1397.50000    8.30332   22.75036   21.50411   21.29636    2.35057   43.98313    0.19744    1.80750   83.81833  -33.26100    8.50000 30000.00000
 1397.60000    8.30850   24.77510   23.37534   23.00721    2.35948   43.93010    0.19816    1.80603   83.75394  -33.01702    8.50000 30000.00000
 1397.70000    8.30522   26.33743   24.68628   24.44033    2.35787   44.54454    0.19599    1.80269   83.89042  -32.91659    8.50000 30000.00000
 1397.80000    8.30639   26.90449   25.40662   25.07743    2.35609   44.58796    0.19453    1.80049   84.53301  -32.98104    8.50000 30000.00000
 1397.90000    8.31016   27.47931   26.17902   25.88070    2.36164   44.43168    0.19258    1.79723   84.32735  -32.43792    8.50000 30000.00000
 1398.00000    8.30713   26.89680   25.88404   25.64529    2.36060   43.96348    0.19325    1.79638   84.49531  -32.81936    8.50000 30000.00000
 1398.10000    8.31145   28.46339   27.53950   27.17050    2.35725   44.19144    0.19385    1.79562   84.31204  -32.72626    8.50000 30000.00000
 1398.20000    8.31295   30.06306   29.45750   29.08203    2.35530   44.37100    0.19385    1.80463   84.57411  -32.50203    8.50000 30000.00000
 1398.30000    8.31477   30.45707   29.73559   29.40260    2.34996   45.00114    0.19237    1.80923   84.44977  -32.78417    8.50000 30000.00000
 1398.40000    8.31316   31.62953   31.31704   30.89928    2.35011   44.84193    0.19030    1.81367   84.57761  -33.17394    8.50000 30000.00000
 1398.50000    8.30962   32.39554   32.15273   31.70274    2.35004   45.15798    0.19085    1.81766   84.28027  -32.95451    8.50000 30000.00000
 1398.60000    8.30993   32.13677   31.77911   31.28086    2.35126   45.04285    0.19356    1.82376   84.00770  -33.39199    8.50000 30000.00000
 1398.70000    8.31699   32.24527   31.90371   31.26301    2.34398   44.79060    0.19583    1.83030   83.87189  -34.03048    8.50000 30000.00000
 1398.80000    8.31586   31.71762   32.39120   31.66528    2.34404   44.80781    0.19331    1.83618   83.59536  -33.90493    8.50000 30000.00000
 1398.90000    8.31570   32.11072   32.82369   32.08747    2.34164   43.79700    0.19021    1.83419   83.88192  -33.98815    8.50000 30000.00000
 1399.00000    8.31543   31.83753   32.43979   31.71697    2.34161   43.44265    0.19132    1.84228   83.93765  -34.14753    8.50000 30000.00000
 1399.10000    8.31755   32.16112   32.46598   31.69590    2.33780   43.25238    0.19008    1.84024   83.79078  -35.01747    8.50000 30000.00000
 1399.20000    8.31926   32.43357   32.56191   31.82620    2.34636   42.46284    0.18793    1.84186   83.81658  -34.81311    8.50000 30000.00000
 1399.30000    8.31812   33.66515   33.66995   33.03711    2.34689   43.40316    0.18840    1.83707   83.60248  -34.89189    8.50000 30000.00000
 1399.40000    8.31669   33.97298   34.20980   33.43972    2.34646   43.91672    0.18887    1.84992   83.78471  -34.68636    8.50000 30000.00000
 1399.50000    8.31780   34.82125   35.18640   34.41553    2.34720   44.44620    0.19289    1.86283   84.13027  -34.85593    8.50000 30000.00000
 1399.60000    8.31503   36.60814   36.99090   36.30000    2.34621   44.11297    0.19378    1.85745   83.94668  -34.17645    8.50000 30000.00000
 1399.70000    8.31185   34.41463   34.87477   34.33206    2.33878   44.12850    0.19448    1.85131   83.70132  -34.13818    8.50000 30000.00000
 1399.80000    8.31521   35.59063   36.52019   35.84491    2.33722   44.65285    0.19509    1.86527   83.27222  -34.13891    8.50000 30000.00000
 1399.90000    8.31126   35.57786   36.42244   35.76296    2.33861   44.33625    0.19610    1.86158   83.24081  -34.12482    8.50000 30000.00000
 1400.00000    8.30748   34.79542   35.41707   34.77071    2.33681   44.21715    0.19683    1.86084   83.79076  -34.40350    8.50000 30000.00000
 1400.10000    8.30939   34.88858   35.35926   34.76437    2.33471   43.49186    0.19514    1.86378   83.45948  -33.89270    8.50000 30000.00000
 1400.20000    8.30077   34.11935   34.74521   34.08109    2.33601   43.61187    0.19633    1.86076   83.06734  -33.98438    8.50000 30000.00000
 1400.30000    8.29791   33.93308   34.48100   33.87828    2.33260   43.91931    0.19689    1.85883   82.93683  -34.20690    8.50000 30000.00000
 1400.40000    8.30168   34.31971   34.89487   34.22324    2.33648   43.03664    0.20001    1.85930   82.87247  -34.52777    8.50000 30000.00000
 1400.50000    8.30187   33.93208   33.97058   33.44969    2.33505   43.35848    0.20029    1.85491   82.45495  -34.12400    8.50000 30000.00000
 1400.60000    8.30476   34.62408   34.55838   34.08212    2.33905   43.64259    0.20269    1.85493   82.68049  -34.15656    8.50000 30000.00000
 1400.70000    8.30231   35.32906   35.21227   34.80701    2.33430   43.66512    0.20098    1.85567   82.96769  -33.53327    8.50000 30000.00000
 1400.80000    8.30224   34.86952   34.59420   34.29613    2.33473   44.17792    0.19739    1.85193   82.97032  -33.21997    8.50000 30000.00000
 1400.90000    8.30480   30.73107   30.65554   30.53857    2.33308   43.54853    0.20014    1.84017   83.25328  -33.17480    8.50000 30000.00000
 1401.00000    8.30860   34.49666   35.23858   35.12261    2.33696   44.27552    0.20282    1.84215   83.10841  -33.18874    8.50000 30000.00000
 1401.10000    8.31012   34.44370   35.17895   35.03994    2.33671   45.18744    0.20331    1.83798   82.53720  -33.37194    8.50000 30000.00000
 1401.20000    8.31042   33.31428   34.11194   34.17867    2.33822   45.37088    0.20505    1.83652   82.65434  -32.55902    8.50000 30000.00000
 1401.30000    8.30865   32.99380   33.88181   33.92649    2.33306   46.01017    0.20643    1.83224   82.49098  -32.84338    8.50000 30000.00000
 1401.40000    8.30820   32.18663   33.35050   33.29902    2.33503   45.36928    0.20724    1.82253   82.37395  -32.97430    8.50000 30000.00000
 1401.50000    8.31330   30.78231   31.87625   31.92222    2.33830   45.31531    0.21057    1.82241   82.03324  -33.02126    8.50000 30000.00000
 1401.60000    8.31115   29.73545   30.97695   30.88303    2.33749   45.22749    0.20603    1.83168   81.43040  -32.78007    8.50000 30000.00000
 1401.70000    8.31121   29.21755   30.01199   29.88627    2.34054   45.94801    0.20665    1.82932   81.28049  -33.45326    8.50000 30000.00000
 1401.80000    8.31542   29.29299   30.09321   29.93040    2.34101   46.05503    0.20571    1.83060   81.58511  -33.69742    8.50000 30000.00000
 1401.90000    8.31669   27.50266   27.81552   27.82283    2.34024   45.80745    0.20895    1.82764   82.03877  -33.95231    8.50000 30000.00000
 1402.00000    8.31498   26.74891   27.06197   27.09549    2.34358   46.55299    0.20878    1.83044   82.12173  -33.64404    8.50000 30000.00000
 1402.10000    8.31735   27.63553   27.82934   27.82604    2.34242   45.97684    0.20820    1.83787   81.89483  -33.39846    8.50000 30000.00000
 1402.20000    8.31985   27.06887   27.25825   27.16694    2.34403   46.57542    0.20551    1.84643   82.47181  -33.66196    8.50000 30000.00000
 1402.30000    8.32640   27.88104   28.23890   27.95445    2.34158   46.50963    0.20731    1.85111   83.16816  -33.85932    8.50000 30000.00000
 1402.40000    8.32989   26.73894   26.88158   26.58021    2.34530   46.69624    0.20496    1.85917   82.89220  -33.49618    8.50000 30000.00000
 1402.50000    8.33020   26.82254   27.00467   26.77391    2.33905   46.50520    0.20375    1.86303   82.73290  -33.04316    8.50000 30000.00000
 1402.60000    8.32985   26.68466   26.96342   26.67313    2.34079   46.72060    0.20525    1.86645   82.32412  -33.39079    8.50000 30000.00000
 1402.70000    8.32862   25.76717   26.13567   25.87107    2.34361   46.09090    0.20376    1.86967   82.35321  -33.54020    8.50000 30000.00000
 1402.80000    8.33103   24.78539   25.12779   24.86159    2.34436   45.78780    0.20255    1.85477   81.98657  -33.78791    8.50000 30000.00000
 1402.90000    8.32734   25.35112   25.85683   25.52672    2.34728   45.44948    0.20456    1.86286   82.05021  -33.99588    8.50000 30000.00000
 1403.00000    8.32570   25.86188   26.26745   25.97580    2.34979   45.79457    0.20255    1.86951   81.93036  -33.87156    8.50000 30000.00000
