~Version ---------------------------------------------------
VERS.   2.0 : CWLS log ASCII Standard -VERSION 2.0
WRAP.    NO : One line per depth step
DLM . SPACE : Column Data Section Delimiter
~Well ------------------------------------------------------
STRT.m          1000.00000 : START DEPTH
STOP.m          2000.00000 : STOP DEPTH
STEP.m             0.10000 : STEP
NULL.             -9999.25 : NULL VALUE
COMP. FORCE 2020 Recreator : 
WELL.   WELL_FORCE_2020_09 : 
FLD .                      : FIELD
LOC .                      : LOCATION
PROV.                      : PROVINCE
CNTY.                      : COUNTY
STAT.                      : STATE
CTRY.                      : COUNTRY
SRVC.                      : SERVICE COMPANY
DATE.                      : DATE
UWI .                      : UNIQUE WELL ID
API .                      : API NUMBER
~Curve Information -----------------------------------------
DEPT                            .m      : 
CALI                            .in     : 
RSHA                            .ohm.m  : 
RMED                            .ohm.m  : 
RDEP                            .ohm.m  : 
RHOB                            .g/cm3  : 
GR                              .gAPI   : 
NPHI                            .v/v    : 
PEF                             .b/e    : 
DTC                             .us/ft  : 
SP                              .mV     : 
BS                              .in     : 
FORCE_2020_LITHOFACIES_LITHOLOGY.code   : 
~Params ----------------------------------------------------
~Other -----------------------------------------------------
~ASCII -----------------------------------------------------
# ...
 1996.50000    8.57721 2142.82768 2097.77869 2103.72037    2.74157  140.28947    0.01553    3.68877   45.44911   11.35793    8.50000 93000.00000
 1996.60000    8.57890 2458.78835 2483.15853 2444.82480    2.74464  140.27959    0.01569    3.70219   45.63378   11.21759    8.50000 93000.00000
 1996.70000    8.57840 10785.00431 10150.71486 10532.04970    2.75035  143.04558    0.01581    3.76007   45.60656   11.35690    8.50000 93000.00000
 1996.80000    8.57668 10809.88863 10174.87530 10559.34917    2.74770  143.08013    0.01620    3.73624   46.05774   11.78263    8.50000 93000.00000
 1996.90000    8.57491 10810.04895 10172.88698 10558.41905    2.73224  143.56507    0.01576    3.76558   46.91880   11.84525    8.50000 93000.00000
 1997.00000    8.57405 11520.50809 10782.90975 11197.57766    2.72754  143.73446    0.01576    3.80778   46.90758   12.08208    8.50000 93000.00000
 1997.10000    8.57627 11907.83006 11175.67786 11636.36600    2.70249  145.57133    0.01496    3.82875   46.99996   12.77881    8.50000 93000.00000
 1997.20000    8.57908 11917.95437 11187.89319 11648.43721    2.71286  144.06475    0.01536    3.77727   47.08527   12.49507    8.50000 93000.00000
 1997.30000    8.57499 11910.32710 11146.11482 11620.27550    2.70892  141.40580    0.01553    3.77665   46.85252   12.16600    8.50000 93000.00000
 1997.40000    8.57365 11969.40004 11198.04583 11668.76941    2.69924  142.41882    0.01515    3.81083   46.56934   12.37495    8.50000 93000.00000
 1997.50000    8.57251 12266.94978 11603.36729 11995.87998    2.71294  143.82765    0.01552    3.81374   46.03811   12.55650    8.50000 93000.00000
 1997.60000    8.57217 13426.29151 12535.25170 12976.79501    2.69491  141.46919    0.01577    3.87014   45.88332   12.80276    8.50000 93000.00000
 1997.70000    8.57414 13307.17467 12421.81423 12861.78754    2.70242  141.46426    0.01646    3.87766   45.64863   12.81174    8.50000 93000.00000
 1997.80000    8.57241 12948.47809 12042.46255 12506.72280    2.73407  140.86796    0.01613    3.92768   45.03910   13.01448    8.50000 93000.00000
 1997.90000    8.57490 12940.07876 12031.70415 12496.57885    2.72637  141.94234    0.01616    3.95093   45.54656   13.33773    8.50000 93000.00000
 1998.00000    8.57669 12757.94382 11890.41938 12335.55743    2.70508  140.19766    0.01655    3.96616   45.41654   13.32086    8.50000 93000.00000
 1998.10000    8.57923 13370.81178 12443.91934 12906.25121    2.71644  141.77631    0.01657    3.92830   45.22220   12.64825    8.50000 93000.00000
 1998.20000    8.57650 13229.65461 12293.29560 12764.83138    2.72712  141.19613    0.01623    3.95245   45.59410   11.92788    8.50000 93000.00000
 1998.30000    8.57597 13245.08854 12310.45520 12781.37822    2.73584  141.33786    0.01622    3.94672   45.80869   11.81320    8.50000 93000.00000
 1998.40000    8.57686 13249.69864 12322.13454 12792.42088    2.74425  139.12697    0.01598    3.96458   46.29506   11.77455    8.50000 93000.00000
 1998.50000    8.57509 13532.89751 12613.74872 13089.40132    2.75056  136.61848    0.01607    3.99850   46.18075   11.85921    8.50000 93000.00000
 1998.60000    8.57610 13615.14894 12688.93129 13166.77398    2.74461  137.80478    0.01572    4.02371   45.25655   11.27988    8.50000 93000.00000
 1998.70000    8.57472 13989.74109 13024.85943 13583.32317    2.76601  138.58143    0.01549    4.09566   45.17898   11.07603    8.50000 93000.00000
 1998.80000    8.57257 5689.98564 5380.15561 5518.95174    2.76999  136.43863    0.01504    4.12318   45.25439   11.37147    8.50000 93000.00000
 1998.90000    8.57512 5617.07284 5315.95076 5450.83328    2.77061  136.27649    0.01432    4.14361   44.98980   11.34662    8.50000 93000.00000
 1999.00000    8.56383 5606.49814 5305.86453 5440.52685    2.75321  130.19893    0.02247    3.99137   46.63531    9.24533    8.50000 93000.00000
 1999.10000    8.56405 5136.93822 4926.20155 5037.21044    2.74925  129.02390    0.02256    3.98443   46.79632    9.13920    8.50000 93000.00000
 1999.20000    8.56150 4899.17634 4668.76341 4728.64488    2.77000  127.83539    0.02290    3.98364   46.32326    8.74965    8.50000 93000.00000
 1999.30000    8.55811 5123.39847 4877.90398 4941.32573    2.76307  127.15979    0.02296    4.03269   46.21876    8.70061    8.50000 93000.00000
 1999.40000    8.55707 5205.70407 4972.33204 5028.20239    2.76434  128.83843    0.02341    4.03376   46.28660    8.79275    8.50000 93000.00000
 1999.50000    8.55704 5415.39879 5173.65122 5238.85017    2.75972  128.18986    0.02407    4.01073   46.03670    8.77311    8.50000 93000.00000
 1999.60000    8.55779 4709.99229 4373.05513 4529.49855    2.75841  128.42358    0.02410    4.00137   46.61553    8.26022    8.50000 93000.00000
 1999.70000    8.55988 3197.34746 3165.83953 3263.62550    2.75565  129.75351    0.02488    3.98164   46.73340    7.90978    8.50000 93000.00000
 1999.80000    8.55864 3418.89773 3386.10096 3490.49665    2.74936  130.76267    0.02553    3.97171   46.87529    7.87108    8.50000 93000.00000
 1999.90000    8.55878 3614.92711 3575.53632 3681.90575    2.71821  130.38881    0.02659    3.97322   47.68158    7.76556    8.50000 93000.00000
 2000.00000    8.54989 3900.22021 3853.65234 3969.28847    2.72257  126.69489    0.02739    3.91726   47.59116    7.29084    8.50000 30000.00000
