~Version ---------------------------------------------------
VERS.   2.0 : CWLS log ASCII Standard -VERSION 2.0
WRAP.    NO : One line per depth step
DLM . SPACE : Column Data Section Delimiter
~Well ------------------------------------------------------
STRT.m          1000.00000 : START DEPTH
STOP.m          2000.00000 : STOP DEPTH
STEP.m             0.10000 : STEP
NULL.             -9999.25 : NULL VALUE
COMP. FORCE 2020 Recreator : 
WELL.   WELL_FORCE_2020_08 : 
FLD .                      : FIELD
LOC .                      : LOCATION
PROV.                      : PROVINCE
CNTY.                      : COUNTY
STAT.                      : STATE
CTRY.                      : COUNTRY
SRVC.                      : SERVICE COMPANY
DATE.                      : DATE
UWI .                      : UNIQUE WELL ID
API .                      : API NUMBER
~Curve Information -----------------------------------------
DEPT                            .m      : 
CALI                            .in     : 
RSHA                            .ohm.m  : 
RMED                            .ohm.m  : 
RDEP                            .ohm.m  : 
RHOB                            .g/cm3  : 
GR                              .gAPI   : 
NPHI                            .v/v    : 
PEF                             .b/e    : 
DTC                             .us/ft  : 
SP                              .mV     : 
BS                              .in     : 
FORCE_2020_LITHOFACIES_LITHOLOGY.code   : 
~Params ----------------------------------------------------
~Other -----------------------------------------------------
~ASCII -----------------------------------------------------
# ...
 1532.00000    8.59127   45.82712   46.60601   47.27819    2.68525   20.55497    0.10820    5.09472   57.67151   -6.55463    8.50000 70000.00000
 1532.10000    8.58922   45.74262   46.34429   46.91702    2.68677   20.70891    0.10642    5.09273   57.63801   -6.26584    8.50000 70000.00000
 1532.20000    8.59170   45.20984   45.87417   46.46443    2.68573   21.09138    0.10607    5.10951   57.81355   -6.37041    8.50000 70000.00000
 1532.30000    8.59027   44.93542   45.58389   46.15624    2.68687   21.41137    0.10814    5.09491   58.14838   -6.41231    8.50000 70000.00000
 1532.40000    8.58834   45.37481   46.34161   46.61171    2.69065   21.58057    0.10689    5.09339   57.88282   -6.48099    8.50000 70000.00000
 1532.50000    8.58629   44.04142   45.15684   45.62438    2.68836   21.04429    0.10691    5.10157   57.53812   -7.05235    8.50000 70000.00000
 1532.60000    8.58553   44.36461   45.57355   46.06504    2.68414   21.30000    0.10479    5.08805   57.39306   -7.01831    8.50000 70000.00000
 1532.70000    8.58499   43.77499   44.84983   45.39821    2.68615   21.05123    0.10466    5.07240   57.55619   -6.76103    8.50000 70000.00000
 1532.80000    8.58521   44.35463   45.53315   46.19385    2.68658   20.54704    0.10413    5.08342   57.37197   -6.94226    8.50000 70000.00000
 1532.90000    8.58775   44.42127   45.53035   46.28659    2.68635   20.60141    0.10350    5.08141   57.33167   -6.30097    8.50000 70000.00000
 1533.00000    8.58706   46.15662   47.55547   48.32400    2.68811   20.99014    0.10342    5.09766   57.50294   -6.06561    8.50000 70000.00000
 1533.10000    8.58288   44.94605   46.00595   46.86413    2.68703   20.97845    0.10520    5.10431   57.38987   -5.76126    8.50000 70000.00000
 1533.20000    8.58100   43.13946   44.54987   45.27746    2.68773   21.30878    0.10573    5.08099   57.37403   -5.48807    8.50000 70000.00000
 1533.30000    8.58002   42.74863   43.98771   44.80254    2.68750   21.04785    0.10577    5.07162   56.88831   -5.61153    8.50000 70000.00000
 1533.40000    8.57818   41.15322   41.44042   41.98887    2.68502   21.40921    0.10374    5.07149   56.94321   -5.43848    8.50000 70000.00000
 1533.50000    8.57789   40.06836   40.56612   41.12647    2.68742   20.93115    0.10427    5.06607   56.95644   -5.13578    8.50000 70000.00000
 1533.60000    8.57788   35.62872   36.64283   37.18465    2.68865   20.94103    0.10329    5.07844   57.03400   -4.90629    8.50000 70000.00000
 1533.70000    8.58087   36.06825   37.04776   37.55510    2.68746   20.34153    0.10083    5.07478   57.25642   -4.77820    8.50000 70000.00000
 1533.80000    8.57838   35.22308   35.76777   36.00500    2.68547   20.51121    0.10086    5.08190   57.37523   -4.59450    8.50000 70000.00000
 1533.90000    8.57536   38.79433   39.80097   39.85420    2.68619   20.98388    0.10107    5.07027   57.25879   -4.66784    8.50000 70000.00000
 1534.00000    8.57259   39.91964   41.12332   41.00397    2.68290   20.67223    0.10057    5.05623   57.35063   -4.52466    8.50000 70000.00000
 1534.10000    8.57209   38.51595   39.90664   39.65707    2.68133   20.53164    0.10102    5.07509   57.50514   -4.48713    8.50000 70000.00000
 1534.20000    8.57427   40.08333   41.68437   41.39170    2.68051   19.81576    0.10354    5.09000   57.71380   -4.77919    8.50000 70000.00000
 1534.30000    8.57462   41.92251   43.35512   43.22785    2.68170   20.05886    0.10521    5.08839   57.58752   -4.74969    8.50000 70000.00000
 1534.40000    8.57693   43.81874   45.10125   45.07345    2.67883   19.97796    0.10211    5.08580   57.58646   -4.46061    8.50000 70000.00000
 1534.50000    8.57654   41.42971   42.59271   42.84471    2.67544   19.69907    0.10213    5.08917   57.70887   -4.13053    8.50000 70000.00000
 1534.60000    8.57568   40.01713   40.78463   40.96486    2.67681   20.00498    0.10274    5.08337   57.78605   -3.89803    8.50000 70000.00000
 1534.70000    8.57515   44.18413   44.28278   44.59882    2.67860   19.76658    0.10308    5.09014   58.07571   -3.75415    8.50000 70000.00000
 1534.80000    8.57260   44.66379   44.68818   45.03259    2.67771   19.33866    0.10284    5.09765   58.49237   -3.77073    8.50000 70000.00000
 1534.90000    8.57101   45.07903   44.85018   45.17555    2.67859   19.46480    0.10399    5.08370   58.60993   -4.11379    8.50000 70000.00000
 1535.00000    8.57017   48.43278   47.45913   47.87282    2.67812   19.53945    0.10398    5.07939   58.68483   -4.58649    8.50000 70000.00000
 1535.10000    8.56905   46.20432   45.18004   45.63432    2.67582   19.37568    0.10454    5.07886   58.37355   -4.35884    8.50000 70000.00000
 1535.20000    8.57137   47.77618   46.59783   47.13170    2.67527   19.11547    0.10583    5.07760   58.54632   -4.21613    8.50000 70000.00000
 1535.30000    8.57084   54.69098   54.17448   54.59394    2.67278   18.63972    0.10682    5.09980   58.54430   -4.42592    8.50000 70000.00000
 1535.40000    8.57380   54.14328   53.52292   53.86983    2.67358   18.32076    0.10690    5.11065   58.95180   -4.14081    8.50000 70000.00000
 1535.50000    8.57574   54.01501   53.21167   53.28232    2.67433   18.42459    0.10684    5.11506   58.98924   -4.36418    8.50000 70000.00000
 1535.60000    8.57610   53.42586   52.51191   52.65560    2.66979   18.83020    0.10614    5.12554   59.05380   -4.64338    8.50000 70000.00000
 1535.70000    8.57580   51.43857   50.52603   50.65649    2.67051   18.58799    0.10822    5.12142   59.07624   -4.86745    8.50000 70000.00000
 1535.80000    8.57236   52.54157   51.68683   51.99238    2.66981   18.63333    0.10935    5.11506   58.79760   -5.03859    8.50000 70000.00000
 1535.90000    8.57260   51.29933   50.62167   50.97860    2.67244   18.51624    0.11032    5.11718   58.67265   -4.99442    8.50000 70000.00000
 1536.00000    8.57079   48.08496   46.97057   47.48868    2.67348   17.90671    0.10976    5.12223   58.62875   -4.81478    8.50000 70000.00000
 1536.10000    8.57748   54.44663   53.47675   53.77783    2.67724   18.12683    0.10886    5.12093   58.40692   -4.60454    8.50000 70000.00000
 1536.20000    8.57737   54.99063   54.23886   54.56036    2.67721   18.27837    0.10952    5.11513   58.30509   -4.53118    8.50000 70000.00000
 1536.30000    8.57499   53.64840   52.91944   53.42590    2.67601   18.80502    0.10977    5.11170   58.39489   -4.34415    8.50000 70000.00000
 1536.40000    8.57535   55.18910   54.57246   54.94790    2.67762   18.34584    0.10736    5.11814   58.63971   -4.55263    8.50000 70000.00000
 1536.50000    8.57349   56.50214   55.42735   56.10204    2.67949   18.58415    0.10802    5.12177   58.44870   -4.70866    8.50000 70000.00000
 1536.60000    8.57337   57.19612   56.18347   56.80866    2.68126   18.84016    0.10892    5.12939   58.34606   -5.27396    8.50000 70000.00000
 1536.70000    8.57140   57.63197   56.58517   57.25925    2.68426   18.66251    0.10788    5.13563   58.68069   -5.13891    8.50000 70000.00000
 1536.80000    8.57228   54.98569   54.67367   55.13676    2.68434   18.71030    0.10906    5.12750   58.32347   -5.01152    8.50000 70000.00000
 1536.90000    8.57586   55.09146   55.17798   55.49930    2.68426   18.76905    0.10958    5.14029   57.79736   -5.15101    8.50000 70000.00000
 1537.00000    8.57453   57.09391   56.94411   57.53874    2.68518   19.08881    0.10744    5.12880   58.13999   -5.06237    8.50000 70000.00000
 1537.10000    8.57512   54.28497   55.04029   55.45200    2.68472   19.24762    0.10752    5.13593   58.42584   -4.72825    8.50000 70000.00000
 1537.20000    8.57397   55.33638   55.94544   56.37022    2.68292   19.12376    0.10633    5.13680   58.64831   -5.10659    8.50000 70000.00000
 1537.30000    8.57391   55.93882   56.68722   56.99381    2.68301   19.39924    0.10383    5.13299   58.50249   -5.51163    8.50000 70000.00000
 1537.40000    8.57385   49.38937   49.26567   49.53686    2.68650   19.63029    0.10172    5.11153   58.47661   -5.36446    8.50000 70000.00000
 1537.50000    8.57367   51.31170   51.00978   51.18319    2.68582   20.32039    0.10189    5.09759   58.67218   -5.81760    8.50000 70000.00000
