~Version ---------------------------------------------------
VERS.   2.0 : CWLS log ASCII Standard -VERSION 2.0
WRAP.    NO : One line per depth step
DLM . SPACE : Column Data Section Delimiter
~Well ------------------------------------------------------
STRT.m          1000.00000 : START DEPTH
STOP.m          2000.00000 : STOP DEPTH
STEP.m             0.10000 : STEP
NULL.             -9999.25 : NULL VALUE
COMP. FORCE 2020 Recreator : 
WELL.   WELL_FORCE_2020_04 : 
FLD .                      : FIELD
LOC .                      : LOCATION
PROV.                      : PROVINCE
CNTY.                      : COUNTY
STAT.                      : STATE
CTRY.                      : COUNTRY
SRVC.                      : SERVICE COMPANY
DATE.                      : DATE
UWI .                      : UNIQUE WELL ID
API .                      : API NUMBER
~Curve Information -----------------------------------------
DEPT                            .m      : 
CALI                            .in     : 
RSHA                            .ohm.m  : 
RMED                            .ohm.m  : 
RDEP                            .ohm.m  : 
RHOB                            .g/cm3  : 
GR                              .gAPI   : 
NPHI                            .v/v    : 
PEF                             .b/e    : 
DTC                             .us/ft  : 
SP                              .mV     : 
BS                              .in     : 
FORCE_2020_LITHOFACIES_LITHOLOGY.code   : 
~Params ----------------------------------------------------
~Other -----------------------------------------------------
~ASCII -----------------------------------------------------
# ...
 1995.80000    8.57063 22823.45599 23393.89322 23664.07396    2.74465  137.39321    0.01531    3.82260   43.92321   10.85817    8.50000 93000.00000
 1995.90000    8.57446 23008.65384 23702.70048 23961.66883    2.72583  136.14965    0.01483    3.79487   44.07540   11.06291    8.50000 93000.00000
 1996.00000    8.57497 22897.12533 23540.02520 23824.98463    2.72004  136.38690    0.01421    3.77796   43.83044   11.47606    8.50000 93000.00000
 1996.10000    8.57413 20667.23237 21264.40392 21593.27800    2.72607  133.29975    0.01420    3.82080   43.52580   11.57882    8.50000 93000.00000
 1996.20000    8.57764 23850.28779 25042.87059 25351.72187    2.73763  136.54358    0.01452    3.84865   43.42845   11.84295    8.50000 93000.00000
 1996.30000    8.58188 24110.34327 25309.21036 25631.66638    2.72700  136.17566    0.01405    3.82608   43.66883   11.87550    8.50000 93000.00000
 1996.40000    8.58243 24242.90966 25466.10157 25773.84841    2.72155  135.38988    0.01414    3.76439   44.04200   11.42542    8.50000 93000.00000
 1996.50000    8.58424 24219.27957 25483.79688 25780.04692    2.73310  136.86071    0.01360    3.74161   43.86380   11.60953    8.50000 93000.00000
 1996.60000    8.58589 24111.88976 25354.07964 25652.05134    2.69209  141.62931    0.01404    3.75337   44.90354   11.94371    8.50000 93000.00000
 1996.70000    8.58182 23772.53254 25157.74577 25405.72878    2.68620  141.09458    0.01429    3.72991   45.25456   12.32047    8.50000 93000.00000
 1996.80000    8.58217 23809.31963 25196.23707 25451.96482    2.70274  141.74471    0.01391    3.72421   45.33222   12.03206    8.50000 93000.00000
 1996.90000    8.57776 10653.23936 12013.01694 11757.30807    2.70662  141.52289    0.01419    3.67730   44.31408   12.43412    8.50000 93000.00000
 1997.00000    8.57790 9327.72619 10359.03287 10219.83930    2.69773  142.74973    0.01425    3.69753   44.12588   13.13707    8.50000 93000.00000
 1997.10000    8.57489 9466.86351 10488.76745 10344.70972    2.69515  145.38239    0.01430    3.73019   44.36743   13.01735    8.50000 93000.00000
 1997.20000    8.57521 8659.95687 9538.90522 9475.31326    2.69511  148.95290    0.01485    3.68914   45.54266   13.34459    8.50000 93000.00000
 1997.30000    8.57821 8588.52886 9453.73054 9400.05041    2.69631  147.92350    0.01473    3.64458   45.01221   12.79479    8.50000 93000.00000
 1997.40000    8.57789 8482.23860 9377.96726 9322.70299    2.68325  148.42005    0.01435    3.66978   44.27851   13.36462    8.50000 93000.00000
 1997.50000    8.58207 8455.37082 9362.01704 9306.24795    2.67677  145.38176    0.01392    3.66100   44.29910   13.50043    8.50000 93000.00000
 1997.60000    8.58233 8347.28807 9265.82107 9191.70329    2.68523  142.80723    0.01405    3.69423   44.62049   13.20926    8.50000 93000.00000
 1997.70000    8.58188 7653.50896 8554.24470 8506.99732    2.70094  141.53820    0.01477    3.64615   44.65164   12.91879    8.50000 93000.00000
 1997.80000    8.58214 6688.08263 7390.19302 7404.10020    2.71051  141.26927    0.01458    3.67692   44.39101   13.49390    8.50000 93000.00000
 1997.90000    8.58096 6678.64016 7377.51873 7394.62936    2.69029  141.23712    0.01445    3.68098   44.30415   12.56118    8.50000 93000.00000
 1998.00000    8.57719 6164.49619 6799.50121 6800.94663    2.70734  138.87762    0.01495    3.67803   44.19014   12.16857    8.50000 93000.00000
 1998.10000    8.57524 5972.50526 6633.44300 6638.24747    2.70999  138.91989    0.01594    3.71537   43.60468   11.76207    8.50000 93000.00000
 1998.20000    8.57813 6658.08212 7250.81108 7253.09203    2.68869  140.93483    0.01612    3.65907   44.07551   11.33281    8.50000 93000.00000
 1998.30000    8.57726 3571.59370 3573.42272 3587.11621    2.68022  141.84628    0.01659    3.64976   43.88131   10.89964    8.50000 93000.00000
 1998.40000    8.57742 3564.00518 3600.59191 3597.34767    2.66522  140.78169    0.01666    3.64394   43.85659   11.10168    8.50000 93000.00000
 1998.50000    8.57790 3431.64851 3444.16433 3455.38803    2.68221  143.51409    0.01638    3.63839   43.61142   11.58507    8.50000 93000.00000
 1998.60000    8.57790 3222.13188 3185.79363 3210.76065    2.67559  141.37367    0.01610    3.63665   43.81570   11.70810    8.50000 93000.00000
 1998.70000    8.57954 3317.74063 3281.83498 3311.27421    2.67840  140.37268    0.01481    3.62220   43.99595   11.58831    8.50000 93000.00000
 1998.80000    8.58217 3004.67039 2950.90764 2980.24769    2.68309  140.81000    0.01435    3.68093   43.67125   11.10763    8.50000 93000.00000
 1998.90000    8.58258 3023.05473 2950.92985 2966.03639    2.66767  138.68577    0.01476    3.71657   43.97115   11.37688    8.50000 93000.00000
 1999.00000    8.57162 2783.80717   -9999.25 2715.59162    2.64813  134.73643    0.02450    3.62051   46.28344    9.19564    8.50000 93000.00000
 1999.10000    8.56974 2898.50252 2819.18234 2826.21396    2.64822  133.41365    0.02479    3.62167   46.35871    8.84567    8.50000 93000.00000
 1999.20000    8.57082 2883.73639 2812.36749 2824.57520    2.64371  133.33768    0.02552    3.58790   46.33142    8.55561    8.50000 93000.00000
 1999.30000    8.57184 2362.13544 2315.14634 2338.74839    2.65598  131.70008    0.02555    3.58237   45.73054    8.12574    8.50000 93000.00000
 1999.40000    8.57185 2361.08373 2307.06007 2320.52732    2.65734  133.76962    0.02642    3.59662   46.49326    8.44690    8.50000 93000.00000
 1999.50000    8.56944 2421.07039 2346.83525 2359.83491    2.66143  130.59554    0.02713    3.57478   46.57897    7.48298    8.50000 93000.00000
 1999.60000    8.56332 2552.89305 2470.84575 2484.56162    2.65644  132.23522    0.02835    3.59739   46.41321    7.30886    8.50000 93000.00000
 1999.70000    8.56454 2708.45442 2623.83604 2639.48040    2.63747  132.96056    0.02922    3.57007   46.24782    7.01465    8.50000 93000.00000
 1999.80000    8.56443 2902.52630 2813.17715 2829.87022    2.61897  132.30354    0.02942    3.59089   46.66265    6.56910    8.50000 93000.00000
 1999.90000    8.56162 2457.78635 2398.85863 2372.67796    2.60357  134.07766    0.03093    3.51026   47.97444    5.66483    8.50000 93000.00000
 2000.00000    8.56090 2635.55600 2564.74787 2534.17815    2.61652  133.33475    0.03262    3.45460   48.53439    5.69079    8.50000 30000.00000
