~Version ---------------------------------------------------
VERS.   2.0 : CWLS log ASCII Standard -VERSION 2.0
WRAP.    NO : One line per depth step
DLM . SPACE : Column Data Section Delimiter
~Well ------------------------------------------------------
STRT.m          1000.00000 : START DEPTH
STOP.m          2000.00000 : STOP DEPTH
STEP.m             0.10000 : STEP
NULL.             -9999.25 : NULL VALUE
COMP. FORCE 2020 Recreator : 
WELL.   WELL_FORCE_2020_04 : 
FLD .                      : FIELD
LOC .                      : LOCATION
PROV.                      : PROVINCE
CNTY.                      : COUNTY
STAT.                      : STATE
CTRY.                      : COUNTRY
SRVC.                      : SERVICE COMPANY
DATE.                      : DATE
UWI .                      : UNIQUE WELL ID
API .                      : API NUMBER
~Curve Information -----------------------------------------
DEPT                            .m      : 
CALI                            .in     : 
RSHA                            .ohm.m  : 
RMED                            .ohm.m  : 
RDEP                            .ohm.m  : 
RHOB                            .g/cm3  : 
GR                              .gAPI   : 
NPHI                            .v/v    : 
PEF                             .b/e    : 
DTC                             .us/ft  : 
SP                              .mV     : 
BS                              .in     : 
FORCE_2020_LITHOFACIES_LITHOLOGY.code   : 
~Params ----------------------------------------------------
~Other -----------------------------------------------------
~ASCII -----------------------------------------------------
# ...
 1599.10000    8.59428    8.02788    8.11563    8.07020    2.39085   77.72505    0.24505    2.56676   91.46195  -13.56806    8.50000 65030.00000
 1599.20000    8.59111    7.64523    7.76598    7.72079    2.39107   77.89769    0.24538    2.56507   90.30313  -13.28239    8.50000 65030.00000
 1599.30000    8.58946    7.31917    7.46128    7.41039    2.39116   76.82079    0.24985    2.57391   90.07478  -13.78244    8.50000 65030.00000
 1599.40000    8.59207    7.46954    7.58540    7.55338    2.39129   76.32361    0.25021    2.57865   90.30110  -13.58884    8.50000 65030.00000
 1599.50000    8.59108    7.71916    7.96840    7.86571    2.39236   76.28277    0.24965    2.56559   89.96214  -14.22818    8.50000 65030.00000
 1599.60000    8.58895    7.80019    8.02814    7.93165    2.39095   76.25230    0.24907    2.57420   91.37095  -14.62227    8.50000 65030.00000
 1599.70000    8.58524    7.98383    8.18180    8.10507    2.38439   76.34520    0.25263    2.58603   91.39872  -14.09608    8.50000 65030.00000
 1599.80000    8.58604    7.92986    8.20000    8.10076    2.38641   75.33559    0.25263    2.58611   91.54531  -13.59469    8.50000 65030.00000
 1599.90000    8.58679    8.30563    8.46884    8.39446    2.39067   76.93747    0.25403    2.58120   92.22267  -13.98531    8.50000 65030.00000
 1600.00000    8.58853    8.04436    8.16978    8.10567    2.39711   76.15691    0.25323    2.57994   92.03938  -13.88555    8.50000 65030.00000
 1600.10000    8.58706    7.80258    7.88620    7.83584    2.40086   74.54303    0.25666    2.58653   92.29169  -13.96747    8.50000 65030.00000
 1600.20000    8.58494    7.63425    7.69329    7.67022    2.40680   75.00450    0.25609    2.59544   92.46953  -14.45206    8.50000 65030.00000
 1600.30000    8.58579    7.71591    7.79486    7.77933    2.41017   74.82796    0.25534    2.59197   92.34047  -14.83799    8.50000 65030.00000
 1600.40000    8.58608    7.78040    7.93414    7.88725    2.41676   74.16284    0.25079    2.59811   92.71358  -15.05052    8.50000 65030.00000
 1600.50000    8.58514    7.29541    7.35015    7.30078    2.41903   72.94767    0.25074    2.58859   92.52416  -15.04231    8.50000 65030.00000
 1600.60000    8.58813    7.22761    7.32895    7.25884    2.41881   73.36529    0.25175    2.60139   92.96098  -14.76586    8.50000 65030.00000
 1600.70000    8.58913    7.02756    7.08671    7.02963    2.41097   72.97595    0.25286    2.59690   93.34130  -14.47055    8.50000 65030.00000
 1600.80000    8.58623    6.85333    6.93258    6.85349    2.41804   73.26188    0.25210    2.60131   93.04037  -14.88146    8.50000 65030.00000
 1600.90000    8.58418    6.91656    7.05744    6.95518    2.41612   72.50782    0.25040    2.60805   91.93298  -14.97249    8.50000 65030.00000
 1601.00000    8.58251    6.95716    7.15624    7.03307    2.41801   71.97693    0.25686    2.60216   92.17455  -15.37707    8.50000 65030.00000
 1601.10000    8.58222    6.88879    7.04068    6.95239    2.42219   71.50592    0.25523    2.59783   91.76125  -15.88463    8.50000 65030.00000
 1601.20000    8.57898    6.76650    7.04517    7.01284    2.42155   72.13728    0.25331    2.59909   92.04405  -15.94520    8.50000 65030.00000
 1601.30000    8.58314    7.08798    7.38077    7.34028    2.42483   71.32324    0.25240    2.59023   92.79341  -16.16428    8.50000 65030.00000
 1601.40000    8.58551    7.23599    7.55791    7.51275    2.42419   72.64358    0.25283    2.58132   93.61362  -16.02387    8.50000 65030.00000
 1601.50000    8.58588    7.29567    7.62666    7.55336    2.42529   72.41088    0.25468    2.56539   93.69059  -16.17975    8.50000 65030.00000
 1601.60000    8.58626    7.33297    7.58712    7.56360    2.42565   72.23647    0.25505    2.57475   94.05467  -16.32579    8.50000 65030.00000
 1601.70000    8.59111    7.53866    7.76842    7.73442    2.42704   73.28315    0.25646    2.56825   93.19764  -16.24714    8.50000 65030.00000
 1601.80000    8.59422    7.14082    7.47566    7.39450    2.42281   72.89206    0.25281    2.55086   93.00732  -16.35816    8.50000 65030.00000
 1601.90000    8.59470    7.08572    7.30525    7.24408    2.42202   74.09317    0.25371    2.56125   92.63888  -16.88068    8.50000 65030.00000
 1602.00000    8.59360    7.02710    7.31683    7.26421    2.41690   73.71067    0.25397    2.55145   92.30720  -16.87531    8.50000 65030.00000
 1602.10000    8.59243    8.20787    8.39839    8.30541    2.40899   73.96799    0.25595    2.55874   92.69303  -16.95467    8.50000 65030.00000
 1602.20000    8.59270    9.00525    9.24161    9.11889    2.40638   74.81845    0.25888    2.54757   91.66669  -16.74560    8.50000 65030.00000
 1602.30000    8.59321    9.24551    9.44927    9.31424    2.40671   74.77075    0.25884    2.54838   91.13858  -17.06750    8.50000 65030.00000
 1602.40000    8.59238    9.04438    9.19833    9.06631    2.40029   74.79936    0.26180    2.57169   91.89621  -16.72132    8.50000 65030.00000
 1602.50000    8.58875    8.95177    9.04822    8.93924    2.39410   75.49423    0.26659    2.57579   90.99722  -16.74259    8.50000 65030.00000
 1602.60000    8.58915    8.96999    9.05183    8.93778    2.39083   77.28493    0.26795    2.58763   91.06075  -17.10633    8.50000 65030.00000
 1602.70000    8.58899    9.11619    9.15821    9.06171    2.39561   78.32072    0.26708    2.57288   91.54614  -16.58240    8.50000 65030.00000
 1602.80000    8.58616    9.13155    9.19066    9.09701    2.40341   79.30691    0.27446    2.57565   90.47538  -16.88237    8.50000 65030.00000
 1602.90000    8.58623    9.16826    9.23277    9.13126    2.39606   79.83650    0.27417    2.57683   91.05654  -16.69914    8.50000 65030.00000
 1603.00000    8.58948    8.93957    8.97717    8.88818    2.39724   80.18406    0.27806    2.57984   91.43130  -16.85602    8.50000 65030.00000
 1603.10000    8.59039    8.83308    8.85004    8.75852    2.39687   80.00750    0.27744    2.58821   91.17130  -16.95412    8.50000 65030.00000
 1603.20000    8.58762    8.84550    8.80565    8.73305    2.39510   79.32287    0.27904    2.58103   91.15492  -16.86453    8.50000 65030.00000
 1603.30000    8.59066    8.59730    8.47689    8.39603    2.40027   78.99633    0.27595    2.57519   91.19962  -16.43299    8.50000 65030.00000
 1603.40000    8.59104    8.32976    8.23888    8.15745    2.39605   78.82446    0.27940    2.57868   91.49080  -16.23481    8.50000 65030.00000
 1603.50000    8.59008    8.46398    8.34392    8.28138    2.39903   78.46340    0.27791    2.59004   90.69771  -15.75754    8.50000 65030.00000
 1603.60000    8.58652    8.69656    8.57067    8.57788    2.39874   78.86447    0.27467    2.60449   90.65194  -16.08853    8.50000 65030.00000
 1603.70000    8.58641    8.52568    8.38028    8.40588    2.40878   79.20337    0.27742    2.61904   90.97470  -15.53412    8.50000 65030.00000
 1603.80000    8.58318    8.72710    8.60176    8.58668    2.40973   77.92487    0.27439    2.60783   90.77438  -15.48438    8.50000 65030.00000
 1603.90000    8.57994    8.77901    8.62389    8.62697    2.41153   77.82179    0.27289    2.61771   90.66553  -15.35538    8.50000 65030.00000
 1604.00000    8.57790    8.99810    8.94495    8.91765    2.41202   76.24582    0.27378    2.60903   90.98862  -15.66358    8.50000 65030.00000
 1604.10000    8.57990    9.22239    9.16386    9.14412    2.41833   75.84163    0.27345    2.62623   91.62573  -15.23969    8.50000 65030.00000
 1604.20000    8.58055    8.07430    8.10408    8.13136    2.42203   76.15935    0.27231    2.62678   90.87839  -15.18354    8.50000 65030.00000
 1604.30000    8.57920    7.25714    7.23918    7.31086    2.42622   76.05757    0.27303    2.62925   91.12388  -15.27702    8.50000 65030.00000
 1604.40000    8.57688    7.48183    7.37045    7.46749    2.42378   76.79537    0.27703    2.62329   90.66288  -15.36934    8.50000 65030.00000
 1604.50000    8.57376    7.44565    7.37516    7.44790    2.42328   77.10065    0.27390    2.61367   90.26504  -15.20254    8.50000 65030.00000
 1604.60000    8.57778    8.24606    8.13337    8.17748    2.42781   76.64680    0.27364    2.64085   89.96174  -15.52581    8.50000 65030.00000
