~Version ---------------------------------------------------
VERS.   2.0 : CWLS log ASCII Standard -VERSION 2.0
WRAP.    NO : One line per depth step
DLM . SPACE : Column Data Section Delimiter
~Well ------------------------------------------------------
STRT.m          1000.00000 : START DEPTH
STOP.m          2000.00000 : STOP DEPTH
STEP.m             0.10000 : STEP
NULL.             -9999.25 : NULL VALUE
COMP. FORCE 2020 Recreator : 
WELL.   WELL_FORCE_2020_08 : 
FLD .                      : FIELD
LOC .                      : LOCATION
PROV.                      : PROVINCE
CNTY.                      : COUNTY
STAT.                      : STATE
CTRY.                      : COUNTRY
SRVC.                      : SERVICE COMPANY
DATE.                      : DATE
UWI .                      : UNIQUE WELL ID
API .                      : API NUMBER
~Curve Information -----------------------------------------
DEPT                            .m      : 
CALI                            .in     : 
RSHA                            .ohm.m  : 
RMED                            .ohm.m  : 
RDEP                            .ohm.m  : 
RHOB                            .g/cm3  : 
GR                              .gAPI   : 
NPHI                            .v/v    : 
PEF                             .b/e    : 
DTC                             .us/ft  : 
SP                              .mV     : 
BS                              .in     : 
FORCE_2020_LITHOFACIES_LITHOLOGY.code   : 
~Params ----------------------------------------------------
~Other -----------------------------------------------------
~ASCII -----------------------------------------------------
# ...
 1263.20000    8.58367   10.15957    9.49376    9.69249    2.39318   71.54269    0.26319    2.59927   92.24865  -15.73263    8.50000 65030.00000
 1263.30000    8.58400   10.20811    9.53115    9.73508    2.39774   71.40692    0.26211    2.59958   92.65747  -16.17045    8.50000 65030.00000
 1263.40000    8.58398    9.90688    9.28506    9.44544    2.39861   71.32477    0.26666    2.59352   92.74492  -15.60116    8.50000 65030.00000
 1263.50000    8.58422    9.27356    8.75503    8.90618    2.39904   72.04973    0.26646    2.59092   92.64909  -15.57221    8.50000 65030.00000
 1263.60000    8.58471    8.62116    8.20087    8.35891    2.39271   72.96675    0.26755    2.59959   92.79331  -15.46827    8.50000 65030.00000
 1263.70000    8.58394    9.78867    9.14693    9.28715    2.38788   73.94998    0.26792    2.60280   92.56464  -14.73440    8.50000 65030.00000
 1263.80000    8.58140    9.74340    9.09754    9.22132    2.38987   73.99388    0.26916    2.60281   92.01037  -14.71807    8.50000 65030.00000
 1263.90000    8.58199   11.78044   11.11084   11.15132    2.38834   72.92233    0.26494    2.60556   91.53075  -13.76695    8.50000 65030.00000
 1264.00000    8.58190   10.89624   10.39315   10.43608    2.38871   73.11217    0.26643    2.59256   91.52593  -13.59078    8.50000 65030.00000
 1264.10000    8.58135   10.61228   10.11536   10.16023    2.39087   71.98937    0.27053    2.60079   92.31078  -14.28508    8.50000 65030.00000
 1264.20000    8.58411   10.71999   10.20279   10.24254    2.39816   72.22938    0.26964    2.60488   91.48185  -14.21194    8.50000 65030.00000
 1264.30000    8.58564   10.80226   10.30019   10.32564    2.39631   71.21126    0.26912    2.60657   90.92465  -14.14637    8.50000 65030.00000
 1264.40000    8.58562   10.86735   10.37341   10.39703    2.40262   72.28119    0.26840    2.62717   90.45262  -13.79123    8.50000 65030.00000
 1264.50000    8.58923   10.70849   10.22394   10.25682    2.40167   72.78667    0.26581    2.64469   90.06067  -13.59952    8.50000 65030.00000
 1264.60000    8.58692   10.90979   10.36110   10.38118    2.40277   72.33041    0.26902    2.65384   89.65939  -13.41142    8.50000 65030.00000
 1264.70000    8.58662   10.80181   10.33447   10.32271    2.40970   71.03286    0.26696    2.64915   89.13639  -13.66781    8.50000 65030.00000
 1264.80000    8.58498   10.42406    9.98441    9.94048    2.41007   71.18594    0.27041    2.63939   89.25344  -13.50617    8.50000 65030.00000
 1264.90000    8.58678   10.12257    9.66054    9.63844    2.41455   71.79170    0.26866    2.61603   89.45838  -13.46674    8.50000 65030.00000
 1265.00000    8.58710   10.37602    9.84009    9.87576    2.41595   72.69097    0.26946    2.62850   89.65024  -13.60381    8.50000 65030.00000
 1265.10000    8.58769   10.40655    9.87345    9.89553    2.41269   71.39168    0.26859    2.63591   88.87503  -13.81431    8.50000 65030.00000
 1265.20000    8.58476   10.09543    9.60223    9.64618    2.41395   71.74764    0.27029    2.62145   88.85291  -13.91303    8.50000 65030.00000
 1265.30000    8.58465    9.42965    9.00992    8.94911    2.41873   70.86874    0.26885    2.62337   89.01838  -14.03832    8.50000 65030.00000
 1265.40000    8.58335    9.44181    8.99694    8.94337    2.41572   70.90651    0.26974    2.63009   88.94101  -13.47789    8.50000 65030.00000
 1265.50000    8.58287    9.39613    8.90851    8.88141    2.41089   71.38015    0.26730    2.63007   89.81420  -13.96423    8.50000 65030.00000
 1265.60000    8.58250    9.29234    8.78519    8.78907    2.41066   72.30263    0.26765    2.62800   89.69131  -14.00203    8.50000 65030.00000
 1265.70000    8.58079    9.64260    9.09483    9.10285    2.40838   71.33374    0.26737    2.62550   90.07486  -14.33884    8.50000 65030.00000
 1265.80000    8.57945    8.43140    8.06468    8.07441    2.40833   71.50517    0.26617    2.63705   89.99008  -15.00871    8.50000 65030.00000
 1265.90000    8.58108    8.61722    8.28907    8.26563    2.40739   72.27465    0.26969    2.63350   90.20268  -14.87190    8.50000 65030.00000
 1266.00000    8.58033    6.29287    6.01848    6.07333    2.40656   72.85110    0.26862    2.63960   90.12027  -15.25190    8.50000 65030.00000
 1266.10000    8.58015    5.90938    5.71616    5.76858    2.40546   73.02401    0.26767    2.64985   89.42504  -15.40639    8.50000 65030.00000
 1266.20000    8.57920    5.85450    5.69107    5.71779    2.40648   73.72489    0.26708    2.64249   89.28675  -15.11356    8.50000 65030.00000
 1266.30000    8.58034    5.98233    5.90635    5.90524    2.40603   73.68735    0.26479    2.64747   90.01830  -15.12791    8.50000 65030.00000
 1266.40000    8.57898    6.26820    6.26579    6.26258    2.39986   74.88939    0.26794    2.64287   90.38564  -15.21934    8.50000 65030.00000
 1266.50000    8.57513   -9999.25    6.15263    6.15372    2.39360   75.36307    0.26453    2.63514   91.04017  -15.47104    8.50000 65030.00000
 1266.60000    8.57432    6.71724    6.69668    6.69189    2.39809   74.45153    0.26514    2.62348   91.62062  -15.85659    8.50000 65030.00000
 1266.70000    8.57419    6.88548    6.83895    6.86363    2.40351   74.88128    0.26732    2.61635   91.88424  -15.99489    8.50000 65030.00000
 1266.80000    8.57717    6.95149    6.93514    6.94671    2.40067   76.06835    0.26835    2.61278   92.23373  -15.47060    8.50000 65030.00000
 1266.90000    8.57743    6.89141    6.88089    6.89239    2.40324   76.41814    0.26884    2.61370   92.49196  -15.62938    8.50000 65030.00000
 1267.00000    8.57589    7.08694    7.10681    7.09144    2.39993   77.24263    0.26644    2.63159   92.26323  -15.59961    8.50000 65030.00000
 1267.10000    8.57475    6.74091    6.84712    6.76428    2.40386   77.07613    0.26665    2.62743   93.29722  -15.08672    8.50000 65030.00000
 1267.20000    8.57378    6.70805    6.81064    6.72495    2.40361   78.46819    0.26364    2.61280   93.65503  -15.27727    8.50000 65030.00000
 1267.30000    8.57317    6.82042    6.90746    6.82345    2.40644   79.31200    0.26298    2.61875   93.31555  -15.35093    8.50000 65030.00000
 1267.40000    8.57520    6.31975    6.48969    6.39063    2.40459   79.39762    0.26799    2.60950   92.94911  -15.55383    8.50000 65030.00000
 1267.50000    8.57787    6.41236    6.60350    6.51418    2.40350   79.78673    0.27036    2.60238   93.32899  -15.40268    8.50000 65030.00000
 1267.60000    8.57923    6.77894    6.90510    6.82094    2.39882   80.46260    0.26696    2.60182   92.32002  -15.27578    8.50000 65030.00000
 1267.70000    8.57831    6.76616    6.89123    6.79693    2.39864   79.05388    0.26664    2.60771   91.76009  -15.29310    8.50000 65030.00000
 1267.80000    8.57944    6.59108    6.74231    6.64775    2.39826   78.77200    0.26837    2.60902   90.92830  -15.37770    8.50000 65030.00000
 1267.90000    8.58018    6.51230    6.65879    6.59432    2.40422   77.52960    0.26925    2.58667   90.93772  -14.85369    8.50000 65030.00000
 1268.00000    8.57791    6.76028    6.88049    6.91008    2.40281   77.23627    0.26500    2.58987   91.13325  -15.19879    8.50000 65030.00000
 1268.10000    8.57823    7.03378    7.25275    7.26102    2.40880   77.88567    0.26912    2.57798   91.62224  -15.34545    8.50000 65030.00000
 1268.20000    8.58036    7.14340    7.35997    7.37392    2.41094   79.13288    0.26719    2.57414   92.66624  -15.68021    8.50000 65030.00000
 1268.30000    8.57937    7.32515    7.53766    7.53952    2.41934   77.99815    0.26695    2.57287   92.63701  -15.16507    8.50000 65030.00000
 1268.40000    8.57792    7.42423    7.62302    7.60735    2.41123   77.72084    0.26688    2.55546   92.65915  -15.02267    8.50000 65030.00000
 1268.50000    8.57768    7.62016    7.71933    7.77326    2.41541   76.05367    0.26404    2.54990   92.70567  -14.67910    8.50000 65030.00000
 1268.60000    8.58101    7.71340    7.82728    7.84773    2.41287   75.21573    0.26956    2.54451   92.46953  -14.75654    8.50000 65030.00000
 1268.70000    8.57794    7.59280    7.75003    7.79396    2.41494   76.01956    0.26846    2.54852   91.85703  -14.59971    8.50000 65030.00000
