~Version ---------------------------------------------------
VERS.   2.0 : CWLS log ASCII Standard -VERSION 2.0
WRAP.    NO : One line per depth step
DLM . SPACE : Column Data Section Delimiter
~Well ------------------------------------------------------
STRT.m          1000.00000 : START DEPTH
STOP.m          2000.00000 : STOP DEPTH
STEP.m             0.10000 : STEP
NULL.             -9999.25 : NULL VALUE
COMP. FORCE 2020 Recreator : 
WELL.   WELL_FORCE_2020_01 : 
FLD .                      : FIELD
LOC .                      : LOCATION
PROV.                      : PROVINCE
CNTY.                      : COUNTY
STAT.                      : STATE
CTRY.                      : COUNTRY
SRVC.                      : SERVICE COMPANY
DATE.                      : DATE
UWI .                      : UNIQUE WELL ID
API .                      : API NUMBER
~Curve Information -----------------------------------------
DEPT                            .m      : 
CALI                            .in     : 
RSHA                            .ohm.m  : 
RMED                            .ohm.m  : 
RDEP                            .ohm.m  : 
RHOB                            .g/cm3  : 
GR                              .gAPI   : 
NPHI                            .v/v    : 
PEF                             .b/e    : 
DTC                             .us/ft  : 
SP                              .mV     : 
BS                              .in     : 
FORCE_2020_LITHOFACIES_LITHOLOGY.code   : 
~Params ----------------------------------------------------
~Other -----------------------------------------------------
~ASCII -----------------------------------------------------
# ...
 1397.60000    9.81348    3.25024    3.14838    3.13807    2.46538  114.33551    0.36639    3.48496  108.77854    6.17577    8.50000 65000.00000
 1397.70000    9.78034    3.17737    3.08175    3.08081    2.46703  114.15142    0.36526    3.49807  109.48564    5.87746    8.50000 65000.00000
 1397.80000    9.79407    3.21643    3.12303    3.11274    2.46838  115.28094    0.36479    3.49399  109.68514    6.02584    8.50000 65000.00000
 1397.90000    9.77441    3.21600    3.13741    3.13698    2.47763  115.54244    0.36506    3.48449  109.86809    6.07659    8.50000 65000.00000
 1398.00000    9.76981    3.30456    3.27082    3.24445    2.47391  117.55755    0.36267    3.47333  110.20010    6.12352    8.50000 65000.00000
 1398.10000    9.78193    3.34822    3.35135    3.30170    2.47121  116.35261    0.36461    3.48862  109.44022    6.10667    8.50000 65000.00000
 1398.20000    9.80576    3.27214    3.29200    3.23522    2.47481  117.59714    0.35996    3.49614  110.28501    6.11784    8.50000 65000.00000
 1398.30000    9.83115    3.30192    3.29477    3.23757    2.47321  118.45035    0.36078    3.49786  110.10641    5.85380    8.50000 65000.00000
 1398.40000    9.84085    3.19451    3.19500    3.14459    2.47498  118.19403    0.35972    3.50634  109.49990    5.70360    8.50000 65000.00000
 1398.50000    9.86288    3.45202    3.40111    3.33836    2.47551  118.11847    0.35806    3.50396  108.83556    5.58155    8.50000 65000.00000
 1398.60000    9.87424    3.47700    3.43853    3.37119    2.47526  117.58120    0.35738    3.51343  109.48782    5.50860    8.50000 65000.00000
 1398.70000    9.89370    3.43650    3.38064    3.32399    2.47878  117.97342    0.35619    3.49252  109.08896    5.52594    8.50000 65000.00000
 1398.80000    9.87758    3.49022    3.40756    3.35054    2.47870  119.18689    0.35595    3.49526  108.43960    5.49374    8.50000 65000.00000
 1398.90000    9.88129    3.58767    3.47801    3.42307    2.48115  120.12798    0.35165    3.50182  108.46361    5.44889    8.50000 65000.00000
 1399.00000    9.86942    3.61471    3.52499    3.46486    2.47987  119.80131    0.35258    3.48653  107.98918    5.24822    8.50000 65000.00000
 1399.10000    9.84053    3.33900    3.24963    3.18912    2.47947  121.66765    0.34722    3.48013  107.32434    5.30113    8.50000 65000.00000
 1399.20000    9.84311    3.34161    3.26639    3.21128    2.48321  122.22821    0.34674    3.49714  106.56044    5.03996    8.50000 65000.00000
 1399.30000    9.84469    3.35615    3.29454    3.23100    2.47607  121.05486    0.34703    3.48966  106.53519    5.05810    8.50000 65000.00000
 1399.40000    9.83529    3.39539    3.35004    3.28705    2.47789  120.38369    0.34029    3.48203  106.58279    5.44337    8.50000 65000.00000
 1399.50000    9.83182    3.33413    3.28648    3.22774    2.47933  119.28027    0.34065    3.47182  106.47069    5.36670    8.50000 65000.00000
 1399.60000    9.84783    3.21411    3.19174    3.13196    2.48263  117.42134    0.34087    3.46237  106.46657    5.41058    8.50000 65000.00000
 1399.70000    9.88608    3.30423    3.25855    3.21310    2.48407  116.98340    0.34012    3.45870  107.33614    5.40929    8.50000 65000.00000
 1399.80000    9.89672    3.33130    3.28406    3.22651    2.48414  118.45109    0.34036    3.45548  107.04209    5.51926    8.50000 65000.00000
 1399.90000    9.88453    3.18166    3.14723    3.09504    2.48241  117.91723    0.34387    3.46189  107.57745    5.56402    8.50000 65000.00000
 1400.00000    9.91438    3.16469    3.11170    3.05286    2.47668  118.10418    0.34320    3.46962  107.87941    5.60690    8.50000 65000.00000
 1400.10000    9.92898    3.00438    2.91534    2.88306    2.48025  117.39598    0.34222    3.49017  107.65210    5.35423    8.50000 65000.00000
 1400.20000    9.92271    2.87071    2.77300    2.75340    2.48162  117.04271    0.33423    3.48013  108.25386    5.68196    8.50000 65000.00000
 1400.30000    9.89368    2.88898    2.77404    2.75954    2.48475  115.18991    0.33827    3.46404  107.83460    5.48369    8.50000 65000.00000
 1400.40000    9.88451    2.83238    2.73323    2.72381    2.48731  115.99179    0.33908    3.44867  108.10964    5.38490    8.50000 65000.00000
 1400.50000    9.88636    2.89626    2.79306    2.77798    2.48762  115.47960    0.33851    3.44462  107.99738    5.34506    8.50000 65000.00000
 1400.60000    9.88381    2.62702    2.56696    2.56230    2.48852  117.22539    0.34206    3.44602  108.97576    5.46638    8.50000 65000.00000
 1400.70000    9.84052    2.63109    2.53969    2.53349    2.49295  116.48830    0.34393    3.44644  108.86899    5.39582    8.50000 65000.00000
 1400.80000    9.78672    2.55287    2.46193    2.43865    2.49284  117.01558    0.34222    3.46928  107.99115    5.22931    8.50000 65000.00000
 1400.90000    9.82311    2.52469    2.45936    2.43508    2.49422  116.91283    0.34199    3.47216  108.48350    5.23946    8.50000 65000.00000
 1401.00000    9.84865    2.35652    2.32762    2.30362    2.49019  116.38446    0.34358    3.44244  108.13833    5.39202    8.50000 65000.00000
 1401.10000    9.87919    2.39658    2.36161    2.35245    2.49502  114.77441    0.34616    3.44679  107.78564    5.63549    8.50000 65000.00000
 1401.20000    9.87191    2.33833    2.32464    2.32801    2.49298  112.37235    0.35083    3.44211  107.87374    5.74851    8.50000 65000.00000
 1401.30000    9.86669    2.31930    2.30770    2.31950    2.49413  112.59571    0.34931    3.42845  108.32033    5.66226    8.50000 65000.00000
 1401.40000    9.87476    2.31524    2.32076    2.34558    2.49579  112.68493    0.34836    3.43806  109.09243    5.59564    8.50000 65000.00000
 1401.50000    9.93140    2.19453    2.21567    2.23870    2.49334  112.62443    0.35176    3.42711  109.02096    5.26587    8.50000 65000.00000
 1401.60000    9.95450    2.24216    2.27038    2.28297    2.49064  113.14901    0.35038    3.43257  108.73184    5.26055    8.50000 65000.00000
 1401.70000    9.91339    2.29932    2.33570    2.34209    2.48936  114.44611    0.35126    3.42049  108.66590    5.68292    8.50000 65000.00000
 1401.80000    9.89400    2.32065    2.39286    2.38437    2.48799  114.16919    0.35258    3.42801  108.01896    5.65264    8.50000 65000.00000
 1401.90000    9.91859    2.30228    2.37992    2.38550    2.49034  113.34181    0.35307    3.42604  107.58703    5.65846    8.50000 65000.00000
 1402.00000    9.92378    2.35448    2.43466    2.44125    2.49521  112.69179    0.34718    3.42266  106.93034    5.94153    8.50000 65000.00000
 1402.10000    9.93678    2.32937    2.40169    2.41752    2.49700  111.47896    0.34604    3.42781  106.82446    5.88918    8.50000 65000.00000
 1402.20000    9.90855    2.38439    2.47117    2.47909    2.49056  110.79362    0.34978    3.41196  106.07002    6.09429    8.50000 65000.00000
 1402.30000    9.91351    2.50334    2.55679    2.57392    2.49157  111.20741    0.35649    3.42846  106.03453    5.95804    8.50000 65000.00000
 1402.40000    9.92037    2.44060    2.51172    2.53078    2.48446  112.14042    0.35684    3.43049  105.87654    6.09509    8.50000 65000.00000
 1402.50000    9.87399    2.45730    2.51821    2.54045    2.48387  109.89634    0.35743    3.43905  105.46847    6.13873    8.50000 65000.00000
 1402.60000    9.88077    2.44954    2.52322    2.55593    2.48674  111.64302    0.35724    3.43830  105.79046    6.19007    8.50000 65000.00000
 1402.70000    9.87349    2.47222    2.55238    2.57888    2.48759  111.32934    0.35638    3.42309  105.29666    6.16010    8.50000 65000.00000
 1402.80000    9.91757    2.43920    2.51639    2.55467    2.48444  111.83750    0.35869    3.42175  105.03248    6.16862    8.50000 65000.00000
 1402.90000    9.92788    2.51772    2.57743    2.62257    2.48178  112.34396    0.36178    3.42617  106.68206    6.42188    8.50000 65000.00000
 1403.00000    9.90337    2.56228    2.60740    2.65175    2.48115  111.85428    0.36317    3.40808  106.75877    6.25049    8.50000 65000.00000
 1403.10000    9.93138    2.62317    2.66420    2.70193    2.48397  111.89543    0.36279    3.42404  107.37937    6.13773    8.50000 65000.00000
