~Version ---------------------------------------------------
VERS.   2.0 : CWLS log ASCII Standard -VERSION 2.0
WRAP.    NO : One line per depth step
DLM . SPACE : Column Data Section Delimiter
~Well ------------------------------------------------------
STRT.m          1000.00000 : START DEPTH
STOP.m          2000.00000 : STOP DEPTH
STEP.m             0.10000 : STEP
NULL.             -9999.25 : NULL VALUE
COMP. FORCE 2020 Recreator : 
WELL.   WELL_FORCE_2020_08 : 
FLD .                      : FIELD
LOC .                      : LOCATION
PROV.                      : PROVINCE
CNTY.                      : COUNTY
STAT.                      : STATE
CTRY.                      : COUNTRY
SRVC.                      : SERVICE COMPANY
DATE.                      : DATE
UWI .                      : UNIQUE WELL ID
API .                      : API NUMBER
~Curve Information -----------------------------------------
DEPT                            .m      : 
CALI                            .in     : 
RSHA                            .ohm.m  : 
RMED                            .ohm.m  : 
RDEP                            .ohm.m  : 
RHOB                            .g/cm3  : 
GR                              .gAPI   : 
NPHI                            .v/v    : 
PEF                             .b/e    : 
DTC                             .us/ft  : 
SP                              .mV     : 
BS                              .in     : 
FORCE_2020_LITHOFACIES_LITHOLOGY.code   : 
~Params ----------------------------------------------------
~Other -----------------------------------------------------
~ASCII -----------------------------------------------------
# ...
 1397.60000    8.57917   11.21986   11.44324   11.30331    2.18809   92.60484    0.31560    3.06308   97.75570    3.77060    8.50000 99000.00000
 1397.70000    8.57716   11.40642   11.54834   11.37278    2.18437   92.64439    0.31882    3.05925   97.25148    3.62099    8.50000 99000.00000
 1397.80000    8.57536   11.28554   11.42884   11.26094    2.18012   92.29118    0.31829    3.06719   97.74237    3.69288    8.50000 99000.00000
 1397.90000    8.57562   10.72849   10.93873   10.72109    2.17260   93.39849    0.32040    3.05536   97.55686    3.73866    8.50000 99000.00000
 1398.00000    8.57410   11.97879   12.02816   11.96478    2.17084   92.70049    0.32117    3.03821   98.06617    3.83439    8.50000 99000.00000
 1398.10000    8.57869   12.34758   12.31499   12.26772    2.17348   92.06461    0.31841    3.03650   98.77329    3.88109    8.50000 99000.00000
 1398.20000    8.57743   12.57054   12.60845   12.52462    2.17331   92.48786    0.32306    3.02154   99.21872    3.72818    8.50000 99000.00000
 1398.30000    8.57615   12.37965   12.29792   12.27031    2.16988   93.15427    0.31838    3.02686   99.19489    3.70412    8.50000 99000.00000
 1398.40000    8.57318   12.53704   12.42789   12.39916    2.16825   94.40398    0.31625    3.03507   99.28521    3.62569    8.50000 99000.00000
 1398.50000    8.57273   12.55152   12.39868   12.37645    2.17434   95.53304    0.31616    3.04969   99.36424    3.64646    8.50000 99000.00000
 1398.60000    8.57411   12.91921   12.83964   12.80926    2.17127   96.79104    0.31909    3.05091   99.87567    3.47873    8.50000 99000.00000
 1398.70000    8.57622   13.01328   12.95735   12.84142    2.18105   96.76346    0.31955    3.04245   99.97347    3.57411    8.50000 99000.00000
 1398.80000    8.57593   12.50716   12.46698   12.32902    2.17796   96.14672    0.32227    3.04288   99.87135    3.21660    8.50000 99000.00000
 1398.90000    8.57565   12.26027   12.21154   12.09401    2.17707   97.51117    0.31986    3.03704   99.66767    3.22897    8.50000 99000.00000
 1399.00000    8.57525   12.25621   12.21136   12.12933    2.17924   97.15283    0.32383    3.04110   99.23298    2.71639    8.50000 99000.00000
 1399.10000    8.57406   11.55977   11.50501   11.39922    2.17970   97.28327    0.32145    3.04790   98.61635    2.62008    8.50000 99000.00000
 1399.20000    8.57582   10.89698   10.76971   10.79319    2.17593   96.50335    0.32547    3.05815   99.42061    2.86622    8.50000 99000.00000
 1399.30000    8.57388   10.26356    9.96627   10.05882    2.17127   95.77869    0.32238    3.04518   99.73604    3.18137    8.50000 99000.00000
 1399.40000    8.57294   10.35055   10.06872   10.14959    2.16916   94.35672    0.32124    3.04871  100.50258    3.01143    8.50000 99000.00000
 1399.50000    8.57121   10.32463   10.07268   10.16159    2.16231   94.04157    0.33360    3.05691  100.10421    2.84788    8.50000 99000.00000
 1399.60000    8.57129    9.49895    9.23026    9.43258    2.16675   95.43270    0.33078    3.03734   99.24343    2.91635    8.50000 99000.00000
 1399.70000    8.57364    9.41477    9.15218    9.33176    2.16249   93.99574    0.33468    3.03864   99.03503    2.73250    8.50000 99000.00000
 1399.80000    8.57490   10.45674   10.12041   10.40666    2.16375   94.49834    0.33684    3.03667   99.71667    2.73377    8.50000 99000.00000
 1399.90000    8.57477   11.03246   10.76279   11.06275    2.17117   95.49375    0.34027    3.03552   99.58050    3.06095    8.50000 99000.00000
 1400.00000    8.57330   11.21286   10.95140   11.22543    2.17388   94.12041    0.34191    3.06973   99.17485    2.82814    8.50000 99000.00000
 1400.10000    8.57710    9.86216    9.68870    9.83196    2.17657   95.07523    0.33984    3.09558   98.89201    2.85583    8.50000 99000.00000
 1400.20000    8.57123    9.66100    9.56566    9.69548    2.16589   94.95135    0.34325    3.08143   98.31294    2.63616    8.50000 99000.00000
 1400.30000    8.57132    9.60992    9.41986    9.57935    2.16383   95.07261    0.33548    3.09376   97.69511    2.60411    8.50000 99000.00000
 1400.40000    8.57062    9.45432    9.41828    9.55099    2.16188   93.60269    0.33780    3.08212   97.50760    2.63214    8.50000 99000.00000
 1400.50000    8.57394    9.19084    9.23700    9.37483    2.16227   92.52120    0.33600    3.06338   97.38098    2.74046    8.50000 99000.00000
 1400.60000    8.57369    9.29536    9.48557    9.61062    2.16536   91.91608    0.33896    3.05407   97.40886    3.23522    8.50000 99000.00000
 1400.70000    8.57409    8.55256    8.66076    8.77681    2.16995   91.61307    0.33634    3.06419   96.85348    3.24388    8.50000 99000.00000
 1400.80000    8.57325    8.33488    8.41170    8.59064    2.15810   91.52452    0.33928    3.06305   96.66789    3.08829    8.50000 99000.00000
 1400.90000    8.57451    8.56669    8.66085    8.84185    2.15398   91.36798    0.33732    3.07358   96.44529    3.01480    8.50000 99000.00000
 1401.00000    8.57631    8.51938    8.61694    8.77981    2.14685   91.65155    0.33945    3.07235   96.07328    2.73402    8.50000 99000.00000
 1401.10000    8.57774    8.73206    8.79753    8.93040    2.15257   91.25006    0.34134    3.08601   96.05381    3.26358    8.50000 99000.00000
 1401.20000    8.57850    8.97557    9.01401    9.18426    2.15319   91.04377    0.33706    3.07542   96.87708    3.34571    8.50000 99000.00000
 1401.30000    8.57430    9.29552    9.20249    9.36768    2.16582   90.31252    0.33285    3.10641   96.24597    3.10751    8.50000 99000.00000
 1401.40000    8.57945    9.56436    9.47909    9.65317    2.16829   89.54977    0.33345    3.08838   96.45364    2.84993    8.50000 99000.00000
 1401.50000    8.58054    9.50488    9.41338    9.58028    2.16872   91.68300    0.33816    3.07732   96.06513    2.99103    8.50000 99000.00000
 1401.60000    8.58222    9.74839    9.82632   10.00062    2.17153   91.79198    0.32709    3.04807   95.55386    3.31900    8.50000 99000.00000
 1401.70000    8.58183    9.63915    9.69013    9.84891    2.17244   91.18360    0.32477    3.05483   95.58513    2.99941    8.50000 99000.00000
 1401.80000    8.58007    9.76984    9.78744    9.96510    2.18091   92.61165    0.32043    3.04854   95.06751    3.22203    8.50000 99000.00000
 1401.90000    8.57971    8.73293    8.78618    8.91045    2.18275   92.82047    0.32378    3.02471   94.75701    3.49241    8.50000 99000.00000
 1402.00000    8.58213    8.22991    8.36077    8.47334    2.18440   91.55199    0.32666    3.03714   94.84948    3.29598    8.50000 99000.00000
 1402.10000    8.58438    8.14301    8.30540    8.44167    2.18477   92.55653    0.32229    3.03137   95.38577    3.46840    8.50000 99000.00000
 1402.20000    8.58036    8.22679    8.43179    8.51215    2.18181   91.69239    0.32336    3.03753   95.40065    3.13714    8.50000 99000.00000
 1402.30000    8.58283    8.12816    8.36444    8.44586    2.18894   92.25337    0.32475    3.02652   95.35566    3.39117    8.50000 99000.00000
 1402.40000    8.58239    8.03165    8.28989    8.34237    2.19369   92.29628    0.32787    3.01187   95.77757    3.43482    8.50000 99000.00000
 1402.50000    8.58176    8.51329    8.58894    8.61994    2.20587   92.99339    0.32627    3.00352   95.93881    3.42983    8.50000 99000.00000
 1402.60000    8.58016    8.62535    8.65554    8.68151    2.20236   92.81427    0.32922    2.99969   96.63704    3.27786    8.50000 99000.00000
 1402.70000    8.57829    8.36531    8.31152    8.32427    2.19130   92.91895    0.32722    3.00167   97.04743    3.41351    8.50000 99000.00000
 1402.80000    8.57605    8.40024    8.33067    8.34850    2.19256   93.03637    0.32719    2.96271   97.54380    3.43370    8.50000 99000.00000
 1402.90000    8.57600    8.30616    8.32545    8.33613    2.18659   92.03644    0.32477    2.96386   98.36778    3.98605    8.50000 99000.00000
 1403.00000    8.57679    8.19215    8.19100    8.19987    2.18750   91.67774    0.32207    2.94767   98.76040    4.16107    8.50000 99000.00000
 1403.10000    8.57930    8.37443    8.40965    8.43620    2.19253   91.30091    0.31986    2.94657   98.85936    4.48328    8.50000 99000.00000
