~Version ---------------------------------------------------
VERS.   2.0 : CWLS log ASCII Standard -VERSION 2.0
WRAP.    NO : One line per depth step
DLM . SPACE : Column Data Section Delimiter
~Well ------------------------------------------------------
STRT.m          1000.00000 : START DEPTH
STOP.m          2000.00000 : STOP DEPTH
STEP.m             0.10000 : STEP
NULL.             -9999.25 : NULL VALUE
COMP. FORCE 2020 Recreator : 
WELL.   WELL_FORCE_2020_08 : 
FLD .                      : FIELD
LOC .                      : LOCATION
PROV.                      : PROVINCE
CNTY.                      : COUNTY
STAT.                      : STATE
CTRY.                      : COUNTRY
SRVC.                      : SERVICE COMPANY
DATE.                      : DATE
UWI .                      : UNIQUE WELL ID
API .                      : API NUMBER
~Curve Information -----------------------------------------
DEPT                            .m      : 
CALI                            .in     : 
RSHA                            .ohm.m  : 
RMED                            .ohm.m  : 
RDEP                            .ohm.m  : 
RHOB                            .g/cm3  : 
GR                              .gAPI   : 
NPHI                            .v/v    : 
PEF                             .b/e    : 
DTC                             .us/ft  : 
SP                              .mV     : 
BS                              .in     : 
FORCE_2020_LITHOFACIES_LITHOLOGY.code   : 
~Params ----------------------------------------------------
~Other -----------------------------------------------------
~ASCII -----------------------------------------------------
# ...
 1134.40000    9.82659    2.23970    2.34742    2.32501    2.48029  121.01977    0.35681    3.47683  106.18951    4.73896    8.50000 65000.00000
 1134.50000    9.83944    2.33261    2.46170    2.42672    2.47658  120.60966    0.35841    3.45812  106.12625    4.78774    8.50000 65000.00000
 1134.60000    9.83139    2.37198    2.48420    2.45394    2.47623  120.13802    0.35490    3.45779  105.97944    4.97859    8.50000 65000.00000
 1134.70000    9.81805    2.34007    2.46499    2.44243    2.47707  120.10781    0.35192    3.43956  106.25253    4.88390    8.50000 65000.00000
 1134.80000    9.81771    2.38547    2.50375    2.47747    2.47308  121.23464    0.34899    3.44576  106.55848    4.86292    8.50000 65000.00000
 1134.90000    9.78078    2.38487    2.49071    2.46998    2.47691  119.95773    0.35087    3.43107  106.95344    4.98993    8.50000 65000.00000
 1135.00000    9.79697    2.44082    2.55354    2.52452    2.47639  122.28073    0.34705    3.43216  107.13951    5.12652    8.50000 65000.00000
 1135.10000    9.85907    2.38114    2.44668    2.42870    2.47460  122.31467    0.35121    3.42855  108.13490    5.32756    8.50000 65000.00000
 1135.20000    9.85409    2.47804    2.51236    2.50526    2.47657  122.27049    0.35114    3.43146  108.25491    5.51547    8.50000 65000.00000
 1135.30000    9.82581    2.47384    2.53054    2.52826    2.47383  121.35647    0.35138    3.41960  109.06667    5.41016    8.50000 65000.00000
 1135.40000    9.81493    2.45897    2.53029    2.52491    2.47244  122.55554    0.35213    3.41646  109.21324    5.34629    8.50000 65000.00000
 1135.50000    9.81265    2.43305    2.49913    2.49195    2.47300  121.98238    0.35162    3.41169  109.44820    5.26376    8.50000 65000.00000
 1135.60000    9.81028    2.44130    2.50578    2.48569    2.47172  121.20637    0.35199    3.38547  108.62776    5.38106    8.50000 65000.00000
 1135.70000    9.83429    2.41770    2.48369    2.45674    2.47150  120.08907    0.35192    3.38534  109.03620    5.51563    8.50000 65000.00000
 1135.80000    9.86194    2.31250    2.37234    2.35063    2.46539  118.17829    0.35281    3.38586  109.37713    5.35392    8.50000 65000.00000
 1135.90000    9.87057   -9999.25    2.47897    2.46143    2.46623  117.34310    0.35481    3.38359  109.49388    5.44380    8.50000 65000.00000
 1136.00000    9.83015    2.42138    2.46303    2.45240    2.46821  117.89479    0.35106    3.39503  108.36765    5.43436    8.50000 65000.00000
 1136.10000    9.89213    2.44833    2.48451    2.46825    2.46735  118.32232    0.35054    3.39368  107.89237    5.39413    8.50000 65000.00000
 1136.20000    9.93412    2.34637    2.38618    2.36317    2.46384  116.49402    0.35204    3.38379  107.39268    4.89974    8.50000 65000.00000
 1136.30000    9.93540    2.43229    2.43706    2.42485    2.46714  116.35548    0.35125    3.37783  108.08413    4.76549    8.50000 65000.00000
 1136.40000    9.94662    2.48472    2.48324    2.46886    2.46949  114.82406    0.35159    3.40019  108.46746    4.58718    8.50000 65000.00000
 1136.50000    9.94511    2.52281    2.51696    2.50817    2.46621  113.29068    0.35290    3.39922  108.43913    4.53567    8.50000 65000.00000
 1136.60000    9.96956    2.45369    2.41909    2.42263    2.46886  112.84219    0.35033    3.40478  108.60012    4.55470    8.50000 65000.00000
 1136.70000    9.96531    2.49044    2.46689    2.46287    2.47310  113.07080    0.35231    3.40601  108.75455    4.53201    8.50000 65000.00000
 1136.80000    9.94053    2.49091    2.47298    2.46501    2.47558  111.73568    0.35331    3.38960  108.64502    4.30883    8.50000 65000.00000
 1136.90000    9.93198    2.58194    2.57130    2.56237    2.47785  110.09328    0.35606    3.38532  109.14491    4.17798    8.50000 65000.00000
 1137.00000    9.97239    2.58961    2.56388    2.56627    2.47878  110.56963    0.35508    3.40288  108.58975    4.02586    8.50000 65000.00000
 1137.10000    9.98241    2.55387    2.50434    2.52363    2.47491  111.09397    0.35424    3.39890  108.36399    3.91160    8.50000 65000.00000
 1137.20000    9.93397    2.52111    2.47845    2.49384    2.47813  110.82075    0.35393    3.39399  108.18596    3.77353    8.50000 65000.00000
 1137.30000    9.95265    2.47328    2.43445    2.45060    2.47806  110.24013    0.35116    3.38811  107.79781    3.62824    8.50000 65000.00000
 1137.40000    9.96848    2.49270    2.44723    2.45931    2.48121  109.53976    0.34904    3.39675  108.22379    3.71947    8.50000 65000.00000
 1137.50000    9.98034    2.50374    2.42721    2.44017    2.48011  109.87981    0.34791    3.40727  107.79533    3.59122    8.50000 65000.00000
 1137.60000    9.97050    2.49029    2.43448    2.43808    2.47961  110.45669    0.34925    3.40734  108.11088    3.74209    8.50000 65000.00000
 1137.70000    9.97802    2.55873    2.49361    2.49632    2.47370  112.17186    0.34961    3.40929  108.30033    3.64965    8.50000 65000.00000
 1137.80000    9.94846    2.60271    2.49912    2.52348    2.47180  113.07957    0.34921    3.40433  108.53534    3.32269    8.50000 65000.00000
 1137.90000    9.93285    2.67670    2.57955    2.60545    2.46842  115.01743    0.34903    3.37805  108.13953    3.49093    8.50000 65000.00000
 1138.00000    9.93908    2.59181    2.49219    2.51642    2.47083  115.91559    0.34823    3.37856  108.15467    3.51742    8.50000 65000.00000
 1138.10000    9.95312    2.58597    2.51966    2.53638    2.47235  115.74158    0.35024    3.35752  108.09338    3.90956    8.50000 65000.00000
 1138.20000    9.92594    2.53198    2.45724    2.48555    2.47273  113.99775    0.35113    3.36674  107.25878    3.68017    8.50000 65000.00000
 1138.30000    9.92139    2.55772    2.48040    2.50720    2.47366  115.17468    0.34982    3.37048  107.67913    3.93518    8.50000 65000.00000
 1138.40000    9.93244    2.45991    2.42304    2.44063    2.46595  114.94426    0.34983    3.38235  108.15537    3.94471    8.50000 65000.00000
 1138.50000    9.94451    2.52175    2.48861    2.51434    2.46411  115.67388    0.35107    3.37026  108.50412    4.28632    8.50000 65000.00000
 1138.60000    9.96937    2.48321    2.44662    2.47233    2.47030  116.39343    0.35343    3.37050  108.65197    3.95816    8.50000 65000.00000
 1138.70000    9.97786    2.52651    2.50040    2.51917    2.47235  116.55201    0.35621    3.38125  108.49895    3.88951    8.50000 65000.00000
 1138.80000    9.96936    2.45597    2.42331    2.44836    2.47405  117.13410    0.35669    3.38628  107.95266    3.94929    8.50000 65000.00000
 1138.90000    9.99078    2.49029    2.49057    2.49578    2.47164  117.84232    0.35783    3.40737  107.88887    4.25510    8.50000 65000.00000
 1139.00000   10.03855    2.37750    2.38187    2.38977    2.47315  119.13151    0.35840    3.41478  107.96165    4.51546    8.50000 65000.00000
 1139.10000   10.00326    2.45389    2.47475    2.46676    2.47182  118.49739    0.35608    3.41112  107.80313    4.70011    8.50000 65000.00000
 1139.20000    9.99663    2.45266    2.48616    2.46928    2.47628  117.31868    0.35505    3.38817  108.14006    5.02490    8.50000 65000.00000
 1139.30000   10.00361    2.49919    2.52914    2.51708    2.47450  116.21421    0.35191    3.39071  107.94027    4.97161    8.50000 65000.00000
 1139.40000    9.99858    2.44195    2.50294    2.48754    2.47164  117.44523    0.35316    3.37345  107.64780    4.86602    8.50000 65000.00000
 1139.50000    9.98460    2.43414    2.50938    2.49242    2.46796  118.89820    0.35647    3.35997  107.19070    4.79680    8.50000 65000.00000
 1139.60000    9.96466    2.43213    2.50980    2.50950    2.46745  119.44774    0.35078    3.31901  107.87292    4.98120    8.50000 65000.00000
 1139.70000    9.97494    2.43746    2.52129    2.52396    2.46618  119.74066    0.34928    3.32432  107.90687    4.92062    8.50000 65000.00000
 1139.80000    9.96301    2.42690    2.48972    2.50440    2.46734  120.09255    0.34945    3.32320  107.99511    4.92941    8.50000 65000.00000
 1139.90000    9.95890    2.37572    2.46218    2.44964    2.47210  120.87094    0.35094    3.33311  107.19305    5.00201    8.50000 65000.00000
