~Version ---------------------------------------------------
VERS.   2.0 : CWLS log ASCII Standard -VERSION 2.0
WRAP.    NO : One line per depth step
DLM . SPACE : Column Data Section Delimiter
~Well ------------------------------------------------------
STRT.m          1000.00000 : START DEPTH
STOP.m          2000.00000 : STOP DEPTH
STEP.m             0.10000 : STEP
NULL.             -9999.25 : NULL VALUE
COMP. FORCE 2020 Recreator : 
WELL.   WELL_FORCE_2020_09 : 
FLD .                      : FIELD
LOC .                      : LOCATION
PROV.                      : PROVINCE
CNTY.                      : COUNTY
STAT.                      : STATE
CTRY.                      : COUNTRY
SRVC.                      : SERVICE COMPANY
DATE.                      : DATE
UWI .                      : UNIQUE WELL ID
API .                      : API NUMBER
~Curve Information -----------------------------------------
DEPT                            .m      : 
CALI                            .in     : 
RSHA                            .ohm.m  : 
RMED                            .ohm.m  : 
RDEP                            .ohm.m  : 
RHOB                            .g/cm3  : 
GR                              .gAPI   : 
NPHI                            .v/v    : 
PEF                             .b/e    : 
DTC                             .us/ft  : 
SP                              .mV     : 
BS                              .in     : 
FORCE_2020_LITHOFACIES_LITHOLOGY.code   : 
~Params ----------------------------------------------------
~Other -----------------------------------------------------
~ASCII -----------------------------------------------------
# ...
 1532.00000    8.57786   14.15453   13.29006   13.52661    2.19355   95.01439    0.30869    2.92200   99.25426    2.48171    8.50000 99000.00000
 1532.10000    8.57710   13.93418   13.09043   13.32653    2.19709   95.82153    0.31519    2.91679   98.98729    2.89128    8.50000 99000.00000
 1532.20000    8.57565   13.09995   12.22351   12.56526    2.18895   96.46288    0.31655    2.94463   97.80681    3.03980    8.50000 99000.00000
 1532.30000    8.57556   13.27872   12.40786   12.77318    2.19355   96.28120    0.31356    2.94111   98.27276    2.94465    8.50000 99000.00000
 1532.40000    8.57296   12.87081   11.98895   12.39121    2.18970   94.97363    0.31110    2.92784   97.07989    2.89928    8.50000 99000.00000
 1532.50000    8.57387   12.68435   11.82170   12.22622    2.20087   95.99987    0.30931    2.92996   97.66230    2.90023    8.50000 99000.00000
 1532.60000    8.57291   12.54445   11.69134   12.07480    2.19603   97.69815    0.30462    2.96329   96.73935    2.75748    8.50000 99000.00000
 1532.70000    8.57147   11.47050   10.54364   10.82614    2.19568   96.11906    0.30719    2.98084   96.57842    2.76952    8.50000 99000.00000
 1532.80000    8.56534   11.31996   10.28200   10.55857    2.19807   95.28295    0.30690    3.01408   96.84368    2.56537    8.50000 99000.00000
 1532.90000    8.56523   11.51258   10.43565   10.69300    2.19916   93.58897    0.30535    3.02084   97.45166    2.36761    8.50000 99000.00000
 1533.00000    8.56612   10.81513    9.97475   10.23860    2.19932   94.32087    0.30925    3.02123   97.16329    2.38071    8.50000 99000.00000
 1533.10000    8.56534   10.64739    9.83055   10.08377    2.20487   94.16363    0.30896    3.01969   96.58830    2.26438    8.50000 99000.00000
 1533.20000    8.56790   10.73754    9.94578   10.20303    2.20570   94.80120    0.31206    3.03022   97.32479    2.05959    8.50000 99000.00000
 1533.30000    8.56807   10.65699    9.93266   10.15639    2.20577   94.31429    0.31446    3.01025   96.65776    2.29031    8.50000 99000.00000
 1533.40000    8.57028   10.12560    9.64742    9.79404    2.20152   94.64622    0.31526    3.02876   96.32084    2.31357    8.50000 99000.00000
 1533.50000    8.57231    9.36651    8.90782    9.07088    2.19614   94.61723    0.31606    3.02164   95.64211    2.97845    8.50000 99000.00000
 1533.60000    8.56873    9.40828    9.05108    9.19225    2.19701   93.77752    0.32140    3.07134   95.05703    3.00587    8.50000 99000.00000
 1533.70000    8.56804    9.12282    8.76076    8.89661    2.19582   95.26395    0.32586    3.04580   95.32498    3.08239    8.50000 99000.00000
 1533.80000    8.56865    8.82669    8.57154    8.68068    2.20358   94.48821    0.32462    3.04894   95.48106    2.88050    8.50000 99000.00000
 1533.90000    8.56604    7.83286    7.71463    7.81421    2.20616   94.38404    0.32487    3.06253   96.42142    2.79232    8.50000 99000.00000
 1534.00000    8.56906    7.44154    7.37365    7.51234    2.20254   93.33065    0.32588    3.04422   97.20083    2.53083    8.50000 99000.00000
 1534.10000    8.57106    7.24819    7.36042    7.41295    2.20166   92.44758    0.33066    3.07090   96.61560    2.38470    8.50000 99000.00000
 1534.20000    8.57092    7.60117    7.83544    7.89565    2.19410   92.76233    0.32934    3.09429   96.66842    2.16069    8.50000 99000.00000
 1534.30000    8.57087    7.61237    8.03207    8.05454    2.19872   92.17992    0.32960    3.07671   96.83293    2.25823    8.50000 99000.00000
 1534.40000    8.56683    7.67731    8.08732    8.09300    2.19623   92.79341    0.33225    3.08389   97.24797    2.42674    8.50000 99000.00000
 1534.50000    8.56929    7.37947    7.84301    7.80548    2.19399   92.63021    0.33516    3.07973   98.18289    2.32400    8.50000 99000.00000
 1534.60000    8.56986    7.76449    8.19403    8.14018    2.19499   92.14549    0.33231    3.08255   98.10838    2.23425    8.50000 99000.00000
 1534.70000    8.56968    8.32193    8.97104    8.88925    2.19691   89.95116    0.33374    3.07834   98.80962    2.18399    8.50000 99000.00000
 1534.80000    8.57209    8.55132    9.31898    9.18966    2.19570   90.47894    0.33139    3.07901   98.89143    2.41586    8.50000 99000.00000
 1534.90000    8.57645    8.41116    9.08239    9.00578    2.19725   90.55633    0.32978    3.05401   98.34225    2.57925    8.50000 99000.00000
 1535.00000    8.57580    8.24360    9.00643    8.92845    2.19445   90.73687    0.32745    3.04519   98.24529    2.80540    8.50000 99000.00000
 1535.10000    8.57401    8.54104    9.38696    9.22232    2.19707   89.16435    0.32859    3.03916   97.83155    2.87885    8.50000 99000.00000
 1535.20000    8.57370    8.49056    9.32258    9.17697    2.19575   87.55539    0.32849    3.02779   97.54571    2.66827    8.50000 99000.00000
 1535.30000    8.57405    8.62653    9.42964    9.27721    2.18897   86.39680    0.32702    3.02565   97.34249    2.93700    8.50000 99000.00000
 1535.40000    8.57028    8.65599    9.40776    9.26543    2.18236   86.57268    0.32541    3.03658   97.76593    2.79235    8.50000 99000.00000
 1535.50000    8.57014    8.47522    9.34204    9.14403    2.18005   87.45586    0.32870    3.03676   98.04532    2.72388    8.50000 99000.00000
 1535.60000    8.56878    8.50995    9.40671    9.18033    2.18460   88.23303    0.33458    3.04066   98.46497    2.38423    8.50000 99000.00000
 1535.70000    8.57068    8.44674    9.23618    9.03122    2.18758   87.54364    0.32798    2.99651   98.34735    2.54252    8.50000 99000.00000
 1535.80000    8.57293    8.73277    9.41996    9.21737    2.18503   86.28986    0.32173    3.02122   98.29633    2.58738    8.50000 99000.00000
 1535.90000    8.57332    8.67400    9.33439    9.13547    2.18271   87.46814    0.31804    3.02599   98.71778    2.89707    8.50000 99000.00000
 1536.00000    8.57708    8.79878    9.46567    9.25792    2.18436   87.84522    0.32498    2.98896   97.97187    2.86186    8.50000 99000.00000
 1536.10000    8.57474    8.60824    9.18674    8.99954    2.18596   88.36143    0.32532    3.00640   97.47784    2.93024    8.50000 99000.00000
 1536.20000    8.57497    8.49881    8.95154    8.88694    2.18730   89.14880    0.31978    2.98686   97.93371    2.81243    8.50000 99000.00000
 1536.30000    8.57756    8.09334    8.43809    8.35726    2.18499   89.27901    0.32118    2.98687   98.08202    2.91665    8.50000 99000.00000
 1536.40000    8.57754    7.96649    8.21049    8.15228    2.18104   89.23450    0.31992    2.97800   98.19721    3.23841    8.50000 99000.00000
 1536.50000    8.57871    8.67894    8.95303    8.80412    2.18169   90.14717    0.31816    2.97208   96.93296    3.76268    8.50000 99000.00000
 1536.60000    8.57876    8.68477    8.97234    8.83599    2.18604   92.24177    0.31696    2.98568   96.64523    3.77757    8.50000 99000.00000
 1536.70000    8.58004    8.76877    9.12009    9.00449    2.17675   92.33500    0.32723    2.98362   95.64071    3.84919    8.50000 99000.00000
 1536.80000    8.58338    8.32979    8.48893    8.41230    2.17702   90.76671    0.32569    2.95310   94.92342    3.90166    8.50000 99000.00000
 1536.90000    8.58149    8.18272    8.19574    8.16618    2.17580   90.06847    0.32923    2.94651   95.21353    3.53951    8.50000 99000.00000
 1537.00000    8.58226    8.37698    8.41804    8.38621    2.17365   90.48200    0.32881    2.95038   95.34086    3.32012    8.50000 99000.00000
 1537.10000    8.58596    8.88273    8.71131    8.68847    2.17399   91.30052    0.33257    2.94501   94.45505    3.29989    8.50000 99000.00000
 1537.20000    8.58766    9.20849    8.89446    8.93555    2.17287   92.07588    0.32644    2.92109   94.79543    3.30671    8.50000 99000.00000
 1537.30000    8.58794    9.48234    9.30767    9.31288    2.16426   93.53572    0.33022    2.95688   95.48072    3.20936    8.50000 99000.00000
 1537.40000    8.58727    9.75491    9.55747    9.54742    2.17022   93.57803    0.33367    2.94745   95.67870    3.58499    8.50000 99000.00000
 1537.50000    8.59201    9.85349    9.64514    9.67395    2.17683   93.48619    0.33986    2.96174   95.62744    3.59688    8.50000 99000.00000
