~Version ---------------------------------------------------
VERS.   2.0 : CWLS log ASCII Standard -VERSION 2.0
WRAP.    NO : One line per depth step
DLM . SPACE : Column Data Section Delimiter
~Well ------------------------------------------------------
STRT.m          1000.00000 : START DEPTH
STOP.m          2000.00000 : STOP DEPTH
STEP.m             0.10000 : STEP
NULL.             -9999.25 : NULL VALUE
COMP. FORCE 2020 Recreator : 
WELL.   WELL_FORCE_2020_07 : 
FLD .                      : FIELD
LOC .                      : LOCATION
PROV.                      : PROVINCE
CNTY.                      : COUNTY
STAT.                      : STATE
CTRY.                      : COUNTRY
SRVC.                      : SERVICE COMPANY
DATE.                      : DATE
UWI .                      : UNIQUE WELL ID
API .                      : API NUMBER
~Curve Information -----------------------------------------
DEPT                            .m      : 
CALI                            .in     : 
RSHA                            .ohm.m  : 
RMED                            .ohm.m  : 
RDEP                            .ohm.m  : 
RHOB                            .g/cm3  : 
GR                              .gAPI   : 
NPHI                            .v/v    : 
PEF                             .b/e    : 
DTC                             .us/ft  : 
SP                              .mV     : 
BS                              .in     : 
FORCE_2020_LITHOFACIES_LITHOLOGY.code   : 
~Params ----------------------------------------------------
~Other -----------------------------------------------------
~ASCII -----------------------------------------------------
# ...
 1330.40000    8.56986   11.86257   11.07179   11.09278    2.35048   54.88558    0.26824    3.45802   84.54903   -7.69062    8.50000 65030.00000
 1330.50000    8.56815   11.59389   10.72325   10.81150    2.35699   58.15834    0.26421    3.36433   85.40675   -8.26084    8.50000 65030.00000
 1330.60000    8.57058   10.74398   10.03717   10.10311    2.36254   61.08518    0.26166    3.26202   85.83586   -8.72121    8.50000 65030.00000
 1330.70000    8.56793   10.63218    9.94153   10.00143    2.37295   64.46906    0.25698    3.16254   86.11572   -9.94636    8.50000 65030.00000
 1330.80000    8.56570   10.54965    9.79785    9.85225    2.37495   67.38363    0.25760    3.06927   87.12251  -10.74978    8.50000 65030.00000
 1330.90000    8.56848   10.93848    9.98236   10.03498    2.37989   70.71430    0.25975    2.94942   87.12259  -11.00256    8.50000 65030.00000
 1331.00000    8.57125   10.31709    9.42056    9.46942    2.38446   74.30865    0.26127    2.84760   87.24578  -11.48590    8.50000 65030.00000
 1331.10000    8.57191    9.53056    8.67877    8.76277    2.39428   77.42901    0.25490    2.72757   88.74100  -12.10149    8.50000 65030.00000
 1331.20000    8.57151    8.71241    7.93534    7.99545    2.39922   80.83093    0.25472    2.62321   89.56062  -12.58151    8.50000 65030.00000
 1331.30000    8.56917    8.68475    7.82154    7.94056    2.40124   81.16365    0.25268    2.62351   89.49640  -12.37427    8.50000 65030.00000
 1331.40000    8.57034    8.48783    7.66263    7.81210    2.40246   81.69930    0.25249    2.62146   89.32360  -12.55172    8.50000 65030.00000
 1331.50000    8.56750    8.40985    7.71039    7.85744    2.40298   81.41627    0.25395    2.63067   90.28011  -13.04547    8.50000 65030.00000
 1331.60000    8.56429    8.20847    7.51201    7.69096    2.40657   81.28707    0.25286    2.61103   90.63690  -12.88064    8.50000 65030.00000
 1331.70000    8.56552    8.43278    7.67632    7.88191    2.41173   81.06154    0.25262    2.59713   90.61879  -12.64587    8.50000 65030.00000
 1331.80000    8.56310    8.59525    7.82404    8.03290    2.41467   80.53213    0.25012    2.59547   91.32422  -13.14942    8.50000 65030.00000
 1331.90000    8.56341    8.84405    8.02105    8.22242    2.41056   80.18067    0.24643    2.58354   91.39597  -12.72499    8.50000 65030.00000
 1332.00000    8.56753    8.74720    7.99214    8.18890    2.41061   79.13762    0.25476    2.60256   92.37598  -13.60682    8.50000 65030.00000
 1332.10000    8.57070    8.60217    7.82672    8.03859    2.41561   78.71911    0.25456    2.58256   92.56540  -13.87334    8.50000 65030.00000
 1332.20000    8.57269    8.54215    7.75065    7.93706    2.41784   78.81640    0.25091    2.56306   93.69874  -13.42890    8.50000 65030.00000
 1332.30000    8.57189    8.18942    7.55313    7.61409    2.41525   77.79120    0.25519    2.55681   94.08463  -13.60092    8.50000 65030.00000
 1332.40000    8.57286    7.97976    7.33160    7.39510    2.41282   78.66365    0.25743    2.55655   93.79904  -13.54630    8.50000 65030.00000
 1332.50000    8.57294    6.96216    6.56766    6.56312    2.40386   77.29830    0.25920    2.56427   93.61718  -13.61053    8.50000 65030.00000
 1332.60000    8.57595    6.93196    6.49949    6.46229    2.40094   76.19727    0.26139    2.55995   93.40899  -13.15821    8.50000 65030.00000
 1332.70000    8.57281    7.31023    6.81054    6.77872    2.40705   76.21205    0.26231    2.55333   94.16068  -13.65716    8.50000 65030.00000
 1332.80000    8.57308    7.18221    6.68400    6.65790    2.40189   75.92650    0.26178    2.54020   94.07109  -13.60681    8.50000 65030.00000
 1332.90000    8.57361    7.27699    6.79423    6.77469    2.40352   75.04870    0.26078    2.53635   93.72376  -12.98644    8.50000 65030.00000
 1333.00000    8.57352    6.47176    6.21015    6.16698    2.40195   74.56835    0.26027    2.54503   94.96748  -13.01716    8.50000 65030.00000
 1333.10000    8.57374    6.50839    6.16554    6.16467    2.40113   73.84291    0.26002    2.54704   95.33338  -13.47387    8.50000 65030.00000
 1333.20000    8.57551    7.44728    7.07691    7.08296    2.40175   74.43713    0.25687    2.56044   95.00213  -13.18529    8.50000 65030.00000
 1333.30000    8.57387    7.37625    7.04200    7.07930    2.40038   73.57401    0.25942    2.56637   95.64601  -12.94804    8.50000 65030.00000
 1333.40000    8.57556    7.32036    7.15444    7.17305    2.40099   73.45594    0.26364    2.56108   94.55825  -12.71054    8.50000 65030.00000
 1333.50000    8.57479    7.39245    7.15975    7.20072    2.39281   72.38646    0.26379    2.56332   94.84002  -12.49375    8.50000 65030.00000
 1333.60000    8.57727    7.51778    7.29224    7.31982    2.39728   71.50840    0.26471    2.56233   93.91071  -12.41220    8.50000 65030.00000
 1333.70000    8.57868    8.28741    8.15909    8.14315    2.39439   70.99847    0.26543    2.56835   93.90090  -12.05085    8.50000 65030.00000
 1333.80000    8.57774    8.03597    7.94857    7.91733    2.38980   70.89220    0.26482    2.56151   93.79102  -12.76426    8.50000 65030.00000
 1333.90000    8.58084    7.83961    7.78155    7.73946    2.38860   70.92048    0.26651    2.56326   93.68193  -12.70993    8.50000 65030.00000
 1334.00000    8.58237    8.02960    8.03560    7.98008    2.38947   70.49162    0.26708    2.56853   94.20631  -13.23668    8.50000 65030.00000
 1334.10000    8.58152    7.93282    7.91852    7.87345    2.38616   72.03751    0.26438    2.56469   93.48996  -13.04805    8.50000 65030.00000
 1334.20000    8.57926    8.00456    8.00211    7.95706    2.38598   72.44481    0.26455    2.58058   92.53596  -13.63213    8.50000 65030.00000
 1334.30000    8.57879    8.18989    8.11730    8.07877    2.38515   72.10014    0.26783    2.58672   92.54341  -13.75998    8.50000 65030.00000
 1334.40000    8.57864    8.19124    8.14941    8.11533    2.38474   74.34907    0.26577    2.58678   93.24417  -14.32365    8.50000 65030.00000
 1334.50000    8.57745    8.20454    8.11039    8.12478    2.38363   74.43652    0.26441    2.58282   92.57689  -14.27377    8.50000 65030.00000
 1334.60000    8.57756    8.38472    8.24587    8.28611    2.38499   73.69403    0.26292    2.58232   93.10867  -14.34499    8.50000 65030.00000
 1334.70000    8.57621    8.41082    8.30090    8.33030    2.38660   74.19274    0.26358    2.57640   92.82995  -14.54064    8.50000 65030.00000
 1334.80000    8.57592    8.01204    7.93884    7.96872    2.38376   73.73500    0.26315    2.55932   91.35913  -14.58774    8.50000 65030.00000
 1334.90000    8.57773    8.19035    8.13126    8.15003    2.38672   73.85936    0.26736    2.56200   91.95674  -14.36108    8.50000 65030.00000
 1335.00000    8.57555    8.14574    8.11302    8.11856    2.39005   74.60074    0.26690    2.56906   91.89878  -14.44181    8.50000 65030.00000
 1335.10000    8.57682    8.10289    8.04377    8.06162    2.39544   73.57865    0.26516    2.57100   91.45257  -15.24631    8.50000 65030.00000
 1335.20000    8.58098    8.40339    8.35637    8.34155    2.39742   74.14899    0.26845    2.56792   91.15976  -14.98700    8.50000 65030.00000
 1335.30000    8.57864    7.88696    7.84622    7.82358    2.39562   73.13592    0.27039    2.56258   91.46500  -15.19554    8.50000 65030.00000
 1335.40000    8.58012    7.90256    7.87306    7.83543    2.39470   73.26535    0.26627    2.56971   90.88171  -14.78279    8.50000 65030.00000
 1335.50000    8.58251    8.17399    8.01592    8.01823    2.39046   73.80138    0.26397    2.57649   91.75255  -15.06291    8.50000 65030.00000
 1335.60000    8.58620    7.98483    7.88320    7.86329    2.39544   73.27611    0.26786    2.57777   91.47489  -14.78973    8.50000 65030.00000
 1335.70000    8.58379    7.73159    7.63741    7.65279    2.39630   74.30073    0.26572    2.57010   91.43437  -14.92976    8.50000 65030.00000
 1335.80000    8.58635    7.46795    7.21402    7.33436    2.39570   74.85022    0.26585    2.56110   91.88806  -15.30478    8.50000 65030.00000
 1335.90000    8.58802    7.53528    7.36093    7.46015    2.39690   75.36346    0.26929    2.57300   91.54381  -15.17434    8.50000 65030.00000
