~Version ---------------------------------------------------
VERS.   2.0 : CWLS log ASCII Standard -VERSION 2.0
WRAP.    NO : One line per depth step
DLM . SPACE : Column Data Section Delimiter
~Well ------------------------------------------------------
STRT.m          1000.00000 : START DEPTH
STOP.m          2000.00000 : STOP DEPTH
STEP.m             0.10000 : STEP
NULL.             -9999.25 : NULL VALUE
COMP. FORCE 2020 Recreator : 
WELL.   WELL_FORCE_2020_01 : 
FLD .                      : FIELD
LOC .                      : LOCATION
PROV.                      : PROVINCE
CNTY.                      : COUNTY
STAT.                      : STATE
CTRY.                      : COUNTRY
SRVC.                      : SERVICE COMPANY
DATE.                      : DATE
UWI .                      : UNIQUE WELL ID
API .                      : API NUMBER
~Curve Information -----------------------------------------
DEPT                            .m      : 
CALI                            .in     : 
RSHA                            .ohm.m  : 
RMED                            .ohm.m  : 
RDEP                            .ohm.m  : 
RHOB                            .g/cm3  : 
GR                              .gAPI   : 
NPHI                            .v/v    : 
PEF                             .b/e    : 
DTC                             .us/ft  : 
SP                              .mV     : 
BS                              .in     : 
FORCE_2020_LITHOFACIES_LITHOLOGY.code   : 
~Params ----------------------------------------------------
~Other -----------------------------------------------------
~ASCII -----------------------------------------------------
# ...
 1067.20000    8.57608    9.81194    9.72267    9.85371    2.37153   71.88393    0.24808    2.60246   92.40122  -14.91499    8.50000 65030.00000
 1067.30000    8.57793    9.73762    9.64387    9.79380    2.37130   73.41694    0.24910    2.61934   92.10175  -15.47265    8.50000 65030.00000
 1067.40000    8.57882    9.61083    9.48765    9.67132    2.37774   72.15170    0.24790    2.63223   92.11138  -15.59611    8.50000 65030.00000
 1067.50000    8.58348    9.64078    9.49466    9.67367    2.37684   71.52429    0.24646    2.62147   91.50498  -14.95258    8.50000 65030.00000
 1067.60000    8.58456    9.84741    9.66086    9.85769    2.37827   70.40448    0.24508    2.62001   91.24513  -15.00026    8.50000 65030.00000
 1067.70000    8.58669    9.81647    9.68555    9.88408    2.37561   70.78176    0.24339    2.60457   91.76593  -15.35391    8.50000 65030.00000
 1067.80000    8.58374    9.88892    9.82041   10.01011    2.38293   71.65790    0.24590    2.59975   91.71909  -14.75198    8.50000 65030.00000
 1067.90000    8.58341    9.28852    9.23844    9.47894    2.38007   71.08535    0.24577    2.59241   91.04009  -15.00198    8.50000 65030.00000
 1068.00000    8.58605    9.32074    9.27846    9.54891    2.38716   71.03627    0.24840    2.60852   90.76711  -15.05826    8.50000 65030.00000
 1068.10000    8.58829    8.18203    7.98588    8.16412    2.39185   71.69495    0.24381    2.58959   90.98557  -14.92345    8.50000 65030.00000
 1068.20000    8.58971    9.48798    9.16495    9.33440    2.39421   71.75382    0.24381    2.59708   90.66858  -14.61682    8.50000 65030.00000
 1068.30000    8.58992    8.68080    8.47377    8.63901    2.39218   72.19006    0.24788    2.59048   91.78187  -14.75241    8.50000 65030.00000
 1068.40000    8.59174    8.54690    8.38687    8.59964    2.39075   73.11279    0.25450    2.57751   91.63361  -14.58094    8.50000 65030.00000
 1068.50000    8.59310    8.32006    8.20373    8.41340    2.39216   74.22176    0.25420    2.56127   91.10901  -14.16021    8.50000 65030.00000
 1068.60000    8.59121    8.48496    8.34419    8.55337    2.39599   74.72921    0.25169    2.55979   91.15599  -14.01622    8.50000 65030.00000
 1068.70000    8.59255    8.92505    8.77240    8.95022    2.39706   74.62903    0.25342    2.56028   90.91893  -14.06835    8.50000 65030.00000
 1068.80000    8.59228    9.43325    9.17944    9.33972    2.39437   76.47090    0.25448    2.56653   91.12135  -14.43718    8.50000 65030.00000
 1068.90000    8.58890    9.20674    9.04440    9.19403    2.40048   76.63126    0.25936    2.58278   91.20552  -14.35292    8.50000 65030.00000
 1069.00000    8.58938    9.00949    8.85577    9.00263    2.39608   77.41345    0.26099    2.58224   91.89939  -14.57199    8.50000 65030.00000
 1069.10000    8.59076    8.96628    8.77932    8.93174    2.39142   78.33505    0.26177    2.57569   92.13616  -14.17256    8.50000 65030.00000
 1069.20000    8.59269    8.88856    8.51092    8.56753    2.39478   77.86589    0.25740    2.57311   91.31211  -14.29247    8.50000 65030.00000
 1069.30000    8.58871    9.54390    8.96935    9.11419    2.40005   77.44106    0.25780    2.56928   90.30918  -14.27177    8.50000 65030.00000
 1069.40000    8.58954    9.74158    9.17333    9.30674    2.40268   75.55224    0.25922    2.56718   90.39446  -13.58943    8.50000 65030.00000
 1069.50000    8.59200    9.77918    9.26438    9.36383    2.40212   75.87827    0.26120    2.56423   89.93511  -13.86387    8.50000 65030.00000
 1069.60000    8.58677    9.72673    9.22527    9.33647    2.40607   75.46025    0.26214    2.59414   89.59181  -14.30895    8.50000 65030.00000
 1069.70000    8.58693    9.47492    9.03176    9.11997    2.40393   76.23004    0.26469    2.58546   89.64940  -14.07650    8.50000 65030.00000
 1069.80000    8.58381    9.50752    9.04831    9.12199    2.40255   76.73955    0.26742    2.60630   89.37475  -14.07820    8.50000 65030.00000
 1069.90000    8.58445    8.99647    8.58424    8.63463    2.39910   76.85880    0.26794    2.61424   89.12786  -14.53906    8.50000 65030.00000
 1070.00000    8.58380    8.88034    8.54743    8.56730    2.40143   76.95022    0.27106    2.60942   89.82793  -14.41528    8.50000 65030.00000
 1070.10000    8.58348    9.36083    8.96348    8.99242    2.39666   76.82838    0.26998    2.60330   89.82608  -14.93717    8.50000 65030.00000
 1070.20000    8.58172    9.33882    8.89183    8.93301    2.39580   75.58456    0.27266    2.62478   88.62436  -15.33555    8.50000 65030.00000
 1070.30000    8.58104    8.72864    8.48033    8.52638    2.38881   73.66894    0.27410    2.74242   88.40237  -15.16278    8.50000 65030.00000
 1070.40000    8.58060    8.97995    8.65516    8.73115    2.38551   70.49464    0.27730    2.85979   87.44324  -14.66311    8.50000 65030.00000
 1070.50000    8.57878    8.87386    8.46242    8.51971    2.37425   66.68393    0.27577    2.94751   86.77304  -13.97960    8.50000 65030.00000
 1070.60000    8.57749    9.93672    9.42418    9.58104    2.37282   63.96941    0.28053    3.06550   86.21244  -13.87334    8.50000 65030.00000
 1070.70000    8.57949   10.02666    9.47189    9.61544    2.36203   60.72667    0.27936    3.16678   85.51357  -12.91592    8.50000 65030.00000
 1070.80000    8.57620    9.75392    9.10015    9.32199    2.35601   57.21521    0.27900    3.25583   84.52154  -12.39695    8.50000 65030.00000
 1070.90000    8.58093    9.57144    9.13377    9.33598    2.35563   53.82043    0.28051    3.36044   83.18996  -11.58185    8.50000 65030.00000
 1071.00000    8.58106    9.85507    9.34756    9.57170    2.35155   51.32814    0.27810    3.46114   82.54817  -10.65475    8.50000 65030.00000
 1071.10000    8.58060   10.02455    9.49980    9.73902    2.34711   48.02212    0.27733    3.57629   81.04504   -9.81156    8.50000 65030.00000
 1071.20000    8.58004   10.41495    9.87782   10.05255    2.34805   45.10295    0.27813    3.68037   80.91931   -9.07771    8.50000 65030.00000
 1071.30000    8.57953    9.88824    9.54623    9.77993    2.34464   41.71941    0.27853    3.79331   80.53209   -8.44093    8.50000 70032.00000
 1071.40000    8.58282    9.57218    9.46718    9.59989    2.33806   39.44110    0.28177    3.89328   79.83160   -7.78250    8.50000 70032.00000
 1071.50000    8.58013    9.77215    9.94750   10.07766    2.32888   37.74266    0.28371    4.00000   78.19469   -7.50428    8.50000 70032.00000
 1071.60000    8.57699    9.87985   10.07970   10.19908    2.32270   35.21165    0.28548    4.09789   78.01959   -6.58741    8.50000 70032.00000
 1071.70000    8.57610   10.05550   10.26279   10.38739    2.31439   33.10209    0.28602    4.19059   76.94627   -5.74799    8.50000 70032.00000
 1071.80000    8.57569   10.73706   10.82673   11.01656    2.30489   30.22894    0.28363    4.30254   76.67656   -4.91575    8.50000 70032.00000
 1071.90000    8.57793   10.97173   10.94579   11.14952    2.30247   26.53414    0.28347    4.40319   76.18669   -4.15145    8.50000 70032.00000
 1072.00000    8.57878   11.20662   11.22903   11.41817    2.30020   24.40135    0.28233    4.50753   76.15246   -3.92945    8.50000 70032.00000
 1072.10000    8.57840   11.41607   11.41643   11.59245    2.29204   21.36794    0.28316    4.61108   74.80786   -3.34883    8.50000 70032.00000
 1072.20000    8.57829   11.03099   11.16093   11.27897    2.29393   18.39542    0.28602    4.71382   74.01635   -2.13140    8.50000 70032.00000
 1072.30000    8.57845   11.18078   11.30412   11.42684    2.28501   16.24107    0.28969    4.82258   74.16665   -1.39487    8.50000 70032.00000
 1072.40000    8.57937   11.09344   11.10987   11.21900    2.28365   16.06174    0.29200    4.81234   74.76332   -1.29159    8.50000 70032.00000
 1072.50000    8.58000   11.41057   11.39695   11.45757    2.28032   16.03426    0.28890    4.80160   74.75031   -1.10886    8.50000 70032.00000
 1072.60000    8.58077   11.54561   11.68740   11.64595    2.28172   15.64616    0.28891    4.82628   74.02956   -1.39161    8.50000 70032.00000
 1072.70000    8.58081   10.44811   10.69761   10.54082    2.27892   15.64083    0.28601    4.82038   74.42034   -1.27677    8.50000 70032.00000
