~Version ---------------------------------------------------
VERS.   2.0 : CWLS log ASCII Standard -VERSION 2.0
WRAP.    NO : One line per depth step
DLM . SPACE : Column Data Section Delimiter
~Well ------------------------------------------------------
STRT.m          1000.00000 : START DEPTH
STOP.m          2000.00000 : STOP DEPTH
STEP.m             0.10000 : STEP
NULL.             -9999.25 : NULL VALUE
COMP. FORCE 2020 Recreator : 
WELL.   WELL_FORCE_2020_07 : 
FLD .                      : FIELD
LOC .                      : LOCATION
PROV.                      : PROVINCE
CNTY.                      : COUNTY
STAT.                      : STATE
CTRY.                      : COUNTRY
SRVC.                      : SERVICE COMPANY
DATE.                      : DATE
UWI .                      : UNIQUE WELL ID
API .                      : API NUMBER
~Curve Information -----------------------------------------
DEPT                            .m      : 
CALI                            .in     : 
RSHA                            .ohm.m  : 
RMED                            .ohm.m  : 
RDEP                            .ohm.m  : 
RHOB                            .g/cm3  : 
GR                              .gAPI   : 
NPHI                            .v/v    : 
PEF                             .b/e    : 
DTC                             .us/ft  : 
SP                              .mV     : 
BS                              .in     : 
FORCE_2020_LITHOFACIES_LITHOLOGY.code   : 
~Params ----------------------------------------------------
~Other -----------------------------------------------------
~ASCII -----------------------------------------------------
# ...
 1134.40000    8.30998   25.84950   25.45163   25.50570    2.33827   41.32738    0.19715    1.87880   80.31971  -35.22738    8.50000 30000.00000
 1134.50000    8.31113   26.47197   26.16680   26.44138    2.34410   40.79449    0.19626    1.86940   79.87889  -35.16876    8.50000 30000.00000
 1134.60000    8.31511   26.37131   26.04548   26.31744    2.34172   41.27000    0.19761    1.87885   79.94512  -34.95402    8.50000 30000.00000
 1134.70000    8.31316   25.18187   24.09907   24.64506    2.34890   41.26738    0.19973    1.88340   79.58626  -34.97576    8.50000 30000.00000
 1134.80000    8.31400   25.48726   24.40086   24.99563    2.35598   42.71723    0.20045    1.87970   79.39593  -34.97266    8.50000 30000.00000
 1134.90000    8.31369   25.21478   24.10844   24.65790    2.35322   42.29027    0.20065    1.87768   79.05438  -34.82855    8.50000 30000.00000
 1135.00000    8.31781   27.23880   26.75403   27.13709    2.35174   41.99546    0.20100    1.87313   79.75755  -35.43624    8.50000 30000.00000
 1135.10000    8.31563   28.27204   27.74137   28.07460    2.35370   41.86693    0.20163    1.86815   80.36328  -35.78960    8.50000 30000.00000
 1135.20000    8.31750   26.57736   26.12778   26.25365    2.35447   41.06818    0.20341    1.87005   80.40252  -36.39224    8.50000 30000.00000
 1135.30000    8.31824   27.40139   27.23705   27.35395    2.34721   42.00659    0.20494    1.87923   80.60453  -36.15601    8.50000 30000.00000
 1135.40000    8.31988   27.05239   26.81349   26.97730    2.34895   42.01231    0.20457    1.88315   80.06830  -35.47916    8.50000 30000.00000
 1135.50000    8.32251   27.22023   27.12912   27.26351    2.35188   41.90430    0.20423    1.87038   80.30500  -35.75076    8.50000 30000.00000
 1135.60000    8.31986   27.36489   27.26070   27.38763    2.35111   42.89471    0.20679    1.87001   80.31330  -35.80400    8.50000 30000.00000
 1135.70000    8.32102   27.69326   27.79404   27.97515    2.35089   42.94160    0.20862    1.86579   79.93736  -35.75309    8.50000 30000.00000
 1135.80000    8.32085   28.64557   28.84761   28.92582    2.35436   43.75334    0.21042    1.86519   79.92075  -35.07607    8.50000 30000.00000
 1135.90000    8.32016   29.36505   29.60086   29.75207    2.35467   44.76391    0.21204    1.85608   80.31929  -35.00204    8.50000 30000.00000
 1136.00000    8.32070   29.21979   29.64538   29.67184    2.35276   45.15684    0.21275    1.85206   81.11931  -34.82125    8.50000 30000.00000
 1136.10000    8.31939   28.96059   29.09213   29.21948    2.35448   44.80656    0.21270    1.84804   81.62311  -34.44888    8.50000 30000.00000
 1136.20000    8.31720   31.80412   31.74249   31.96376    2.35316   44.97750    0.21209    1.85944   81.97152  -34.65741    8.50000 30000.00000
 1136.30000    8.32049   29.48883   29.82814   30.16252    2.35726   44.91166    0.21631    1.86340   82.11413  -34.28823    8.50000 30000.00000
 1136.40000    8.32383   29.96616   30.36999   30.68218    2.35884   44.98345    0.21852    1.86923   81.89411  -34.17874    8.50000 30000.00000
 1136.50000    8.32467   29.71750   29.92600   30.10971    2.35319   44.47775    0.21615    1.87238   81.61960  -34.82530    8.50000 30000.00000
 1136.60000    8.32396   26.69070   26.83947   26.75618    2.35228   44.86725    0.21684    1.87032   81.86048  -35.15419    8.50000 30000.00000
 1136.70000    8.32331   26.75129   27.11714   27.03346    2.36196   44.62587    0.21330    1.87726   82.06199  -35.49082    8.50000 30000.00000
 1136.80000    8.32462   27.98990   28.36531   28.21998    2.35933   43.74075    0.21362    1.87734   82.74388  -35.90177    8.50000 30000.00000
 1136.90000    8.32297   28.29138   28.84419   28.62999    2.35413   43.18122    0.21333    1.87084   82.99322  -36.25361    8.50000 30000.00000
 1137.00000    8.32240   28.54743   29.32664   29.12592    2.35364   43.14422    0.21111    1.87123   83.86695  -35.96373    8.50000 30000.00000
 1137.10000    8.31950   26.93704   27.32094   27.25912    2.35662   43.96413    0.21135    1.88348   83.33576  -35.49787    8.50000 30000.00000
 1137.20000    8.31963   25.76131   26.17634   26.12946    2.35563   44.91542    0.21224    1.89393   82.59849  -35.52679    8.50000 30000.00000
 1137.30000    8.32058   25.81089   26.29068   26.24236    2.35484   45.26259    0.20967    1.89363   83.03110  -34.80743    8.50000 30000.00000
 1137.40000    8.31981   26.00321   26.31295   26.25452    2.36353   45.03913    0.20708    1.88295   82.77325  -35.33254    8.50000 30000.00000
 1137.50000    8.31542   26.50864   26.84546   26.74319    2.36027   45.35492    0.20539    1.88369   83.14699  -35.69120    8.50000 30000.00000
 1137.60000    8.31560   25.63594   26.08510   25.99283    2.36163   45.25280    0.20713    1.88971   82.72328  -35.73489    8.50000 30000.00000
 1137.70000    8.31642   26.00347   26.17108   26.09469    2.36332   45.47565    0.20446    1.87566   82.87054  -35.66992    8.50000 30000.00000
 1137.80000    8.31562   27.84470   28.28841   28.01589    2.36313   45.50705    0.20483    1.87035   83.22203  -35.27979    8.50000 30000.00000
 1137.90000    8.31677   27.02852   27.29772   27.10381    2.36141   45.91402    0.20459    1.86756   82.88857  -35.77977    8.50000 30000.00000
 1138.00000    8.31729   25.86603   26.00855   25.78497    2.35762   45.20216    0.20389    1.86322   82.57976  -36.32322    8.50000 30000.00000
 1138.10000    8.31597   25.32989   25.45932   25.27982    2.35980   45.26744    0.20230    1.85602   82.46575  -36.52824    8.50000 30000.00000
 1138.20000    8.31952   25.24814   25.34412   25.16195    2.35468   45.34880    0.19940    1.85650   82.52143  -36.63483    8.50000 30000.00000
 1138.30000    8.32299   22.55050   22.75907   22.59483    2.35619   44.80985    0.20345    1.85981   82.17672  -36.55906    8.50000 30000.00000
 1138.40000    8.32210   21.46075   21.59380   21.47424    2.35569   45.13815    0.20235    1.85320   82.53234  -36.34704    8.50000 30000.00000
 1138.50000    8.31802   20.93256   21.07873   20.90929    2.35794   44.73141    0.19929    1.84623   82.89533  -36.40810    8.50000 30000.00000
 1138.60000    8.32136   23.76452   23.89350   23.66919    2.36074   44.90475    0.20008    1.83856   83.13741  -35.71499    8.50000 30000.00000
 1138.70000    8.32263   23.15056   23.24789   23.11504    2.35804   44.75283    0.20234    1.84496   82.55790  -36.15895    8.50000 30000.00000
 1138.80000    8.32081   23.15996   23.16110   23.02107    2.35174   45.30849    0.20386    1.83694   82.58714  -35.79297    8.50000 30000.00000
 1138.90000    8.32077   21.50824   21.59177   21.48776    2.35307   46.16643    0.20267    1.83183   82.09164  -35.49108    8.50000 30000.00000
 1139.00000    8.32081   21.38169   21.21507   21.24751    2.35403   46.22012    0.20297    1.83729   82.02346  -35.44566    8.50000 30000.00000
 1139.10000    8.32174   23.10332   22.93864   23.00393    2.35718   46.28135    0.20506    1.83620   81.46912  -35.29280    8.50000 30000.00000
 1139.20000    8.31882   22.45126   22.14489   22.30714    2.35655   44.99260    0.20389    1.82908   81.96153  -35.59434    8.50000 30000.00000
 1139.30000    8.31852   23.21130   22.95755   23.14805    2.35897   44.20846    0.20233    1.83026   82.68950  -35.42419    8.50000 30000.00000
 1139.40000    8.31493   22.69335   22.43470   22.62145    2.35914   45.51082    0.20371    1.83239   82.41998  -35.76238    8.50000 30000.00000
 1139.50000    8.31332   24.03783   23.71865   23.97126    2.36361   45.53647    0.20344    1.82931   82.79220  -35.72431    8.50000 30000.00000
 1139.60000    8.31538   23.27214   22.93452   23.22506    2.35884   45.48315    0.20237    1.83824   82.43670  -35.96104    8.50000 30000.00000
 1139.70000    8.32187   24.20203   23.73335   24.04393    2.35320   45.83033    0.20118    1.84354   82.29867  -35.50100    8.50000 30000.00000
 1139.80000    8.32369   23.34297   23.11512   23.43157    2.35372   45.40564    0.20189    1.85832   82.21048  -35.59446    8.50000 30000.00000
 1139.90000    8.32109   20.56554   19.96490   20.41673    2.35498   45.29871    0.19862    1.86027   81.92363  -35.43292    8.50000 30000.00000
