~Version ---------------------------------------------------
VERS.   2.0 : CWLS log ASCII Standard -VERSION 2.0
WRAP.    NO : One line per depth step
DLM . SPACE : Column Data Section Delimiter
~Well ------------------------------------------------------
STRT.m          1000.00000 : START DEPTH
STOP.m          2000.00000 : STOP DEPTH
STEP.m             0.10000 : STEP
NULL.             -9999.25 : NULL VALUE
COMP. FORCE 2020 Recreator : 
WELL.   WELL_FORCE_2020_05 : 
FLD .                      : FIELD
LOC .                      : LOCATION
PROV.                      : PROVINCE
CNTY.                      : COUNTY
STAT.                      : STATE
CTRY.                      : COUNTRY
SRVC.                      : SERVICE COMPANY
DATE.                      : DATE
UWI .                      : UNIQUE WELL ID
API .                      : API NUMBER
~Curve Information -----------------------------------------
DEPT                            .m      : 
CALI                            .in     : 
RSHA                            .ohm.m  : 
RMED                            .ohm.m  : 
RDEP                            .ohm.m  : 
RHOB                            .g/cm3  : 
GR                              .gAPI   : 
NPHI                            .v/v    : 
PEF                             .b/e    : 
DTC                             .us/ft  : 
SP                              .mV     : 
BS                              .in     : 
FORCE_2020_LITHOFACIES_LITHOLOGY.code   : 
~Params ----------------------------------------------------
~Other -----------------------------------------------------
~ASCII -----------------------------------------------------
# ...
 1531.90000    8.57392   51.65632   52.77538   52.03716    2.67622   21.62175    0.10314   -9999.25   58.08755   -3.74090    8.50000 70000.00000
 1532.00000    8.57511   45.73613   46.18084   46.17464    2.67891   21.39204    0.10260   -9999.25   58.46980   -3.84773    8.50000 70000.00000
 1532.10000    8.57371   46.15335   46.34374   46.47463    2.68019   21.23954    0.10451   -9999.25   58.72977   -3.76025    8.50000 70000.00000
 1532.20000    8.57174   44.84396   44.87392   45.35043    2.67751   21.87587    0.10268   -9999.25   58.90258   -3.51363    8.50000 70000.00000
 1532.30000    8.57205   43.55548   43.45764   43.93710    2.67607   21.83106    0.10147   -9999.25   59.02123   -3.30364    8.50000 70000.00000
 1532.40000    8.57099   41.80190   41.33895   41.71040    2.67714   21.81177    0.10236   -9999.25   59.10083   -2.83772    8.50000 70000.00000
 1532.50000    8.56941   40.40503   39.82938   40.11008    2.67662   21.53712    0.10242   -9999.25   59.03073   -3.03912    8.50000 70000.00000
 1532.60000    8.56731   38.98711   38.41599   38.71865    2.67597   22.26479    0.10327   -9999.25   58.97279   -3.04108    8.50000 70000.00000
 1532.70000    8.57012   39.29539   38.84399   39.16996    2.67772   21.81617    0.10193   -9999.25   59.29537   -3.26255    8.50000 70000.00000
 1532.80000    8.56996   39.93849   39.14949   39.52464    2.67406   21.37658    0.10279   -9999.25   59.27071   -3.11573    8.50000 70000.00000
 1532.90000    8.57055   38.63365   37.29385   37.93222    2.67290   21.64450    0.10301   -9999.25   58.99595   -2.96537    8.50000 70000.00000
 1533.00000    8.57075   40.29550   39.29160   39.68112    2.67126   21.27160    0.10163   -9999.25   58.74959   -3.43885    8.50000 70000.00000
 1533.10000    8.57222   40.79672   39.55192   39.90672    2.66945   21.53407    0.10215   -9999.25   59.15263   -3.34161    8.50000 70000.00000
 1533.20000    8.57388   37.95886   36.81567   37.29566    2.66746   21.27271    0.10231   -9999.25   58.71277   -3.43936    8.50000 70000.00000
 1533.30000    8.57269   45.12391   42.79712   43.24256    2.66668   21.21727    0.10134   -9999.25   58.88917   -3.77169    8.50000 70000.00000
 1533.40000    8.57384   44.10774   41.90149   42.45098    2.66842   21.01819    0.10038   -9999.25   58.90687   -3.78132    8.50000 70000.00000
 1533.50000    8.57185   45.94529   43.96278   44.71048    2.66979   20.73388    0.09942   -9999.25   58.79895   -3.89942    8.50000 70000.00000
 1533.60000    8.56810   46.49974   44.87735   45.57391    2.67240   20.58698    0.09949   -9999.25   58.93880   -3.61526    8.50000 70000.00000
 1533.70000    8.56981   51.86615   49.76346   50.69864    2.67100   20.36299    0.10037   -9999.25   59.13542   -3.63318    8.50000 70000.00000
 1533.80000    8.56830   51.53370   49.42080   49.85071    2.66997   20.28247    0.10084   -9999.25   59.10537   -3.60092    8.50000 70000.00000
 1533.90000    8.56656   50.04560   47.80525   48.19937    2.67030   19.99608    0.10075   -9999.25   59.20962   -3.48966    8.50000 70000.00000
 1534.00000    8.56692   49.75470   47.35651   47.71466    2.66784   19.94972    0.10078   -9999.25   59.16444   -3.59334    8.50000 70000.00000
 1534.10000    8.56468   50.12279   47.78565   48.22599    2.66672   19.76837    0.10320   -9999.25   59.08841   -3.20776    8.50000 70000.00000
 1534.20000    8.56693   49.15967   47.05466   47.58851    2.66532   19.47068    0.10164   -9999.25   59.10998   -3.74867    8.50000 70000.00000
 1534.30000    8.56945   48.63927   46.49762   46.85241    2.66776   18.53178    0.10165   -9999.25   59.03167   -4.21405    8.50000 70000.00000
 1534.40000    8.56878   50.03645   47.87236   48.53013    2.67039   18.25258    0.10343   -9999.25   58.71259   -4.09662    8.50000 70000.00000
 1534.50000    8.56857   49.76929   47.82702   48.46474    2.67054   18.30635    0.10118   -9999.25   58.47574   -4.59840    8.50000 70000.00000
 1534.60000    8.56819   49.69914   47.69233   48.28450    2.67008   18.19846    0.09942   -9999.25   58.18785   -4.30591    8.50000 70000.00000
 1534.70000    8.57028   49.62306   47.61215   48.07734    2.66771   18.13860    0.09845   -9999.25   58.39191   -4.55168    8.50000 70000.00000
 1534.80000    8.56905   48.87943   46.86516   -9999.25    2.66839   18.62893    0.10059   -9999.25   58.27761   -4.32741    8.50000 70000.00000
 1534.90000    8.57225   46.13180   44.56005   44.92569    2.66712   18.84632    0.10011   -9999.25   58.62757   -4.28453    8.50000 70000.00000
 1535.00000    8.57130   46.75753   45.46584   46.06923    2.66650   18.87556    0.10112   -9999.25   58.97851   -4.37065    8.50000 70000.00000
 1535.10000    8.57307   45.21554   43.72669   44.43431    2.66844   19.55829    0.09927   -9999.25   59.20078   -3.98887    8.50000 70000.00000
 1535.20000    8.57439   48.42909   47.25762   47.95736    2.66995   19.30685    0.09882   -9999.25   59.36537   -4.14335    8.50000 70000.00000
 1535.30000    8.57485   49.71667   48.18322   49.02141    2.67263   19.80663    0.09936   -9999.25   59.70700   -4.51417    8.50000 70000.00000
 1535.40000    8.57627   43.36585   42.65898   43.46615    2.67399   19.98705    0.10018   -9999.25   59.69900   -4.48131    8.50000 70000.00000
 1535.50000    8.57549   43.29687   42.96417   43.62133    2.67523   20.81751    0.10034   -9999.25   59.47323   -4.39583    8.50000 70000.00000
 1535.60000    8.57782   42.46086   41.78910   42.08034    2.67442   21.28223    0.10340   -9999.25   59.47602   -4.47234    8.50000 70000.00000
 1535.70000    8.58302   43.79049   42.99714   43.41016    2.67425   21.66154    0.10278   -9999.25   59.55729   -5.05405    8.50000 70000.00000
 1535.80000    8.57937   38.70811   38.22702   38.37140    2.67551   21.92814    0.10145   -9999.25   59.58634   -5.40813    8.50000 70000.00000
 1535.90000    8.57867   36.38088   36.26236   36.62716    2.67430   22.30021    0.10157   -9999.25   59.51350   -5.33212    8.50000 70000.00000
 1536.00000    8.58298   38.94947   38.54038   39.13105    2.67615   22.26378    0.10129   -9999.25   59.20107   -5.50368    8.50000 70000.00000
 1536.10000    8.58234   39.21711   38.79894   39.38783    2.67711   21.69183    0.10027   -9999.25   59.48141   -5.65505    8.50000 70000.00000
 1536.20000    8.58380   39.38758   38.76490   39.19673    2.67578   22.05227    0.09800   -9999.25   59.47236   -5.80440    8.50000 70000.00000
 1536.30000    8.58284   38.18216   37.62410   37.95965    2.67779   22.01320    0.09874   -9999.25   59.62873   -5.48933    8.50000 70000.00000
 1536.40000    8.58438   38.77350   38.16583   38.63245    2.67935   22.80742    0.09696   -9999.25   59.45967   -5.27175    8.50000 70000.00000
 1536.50000    8.58333   37.29151   36.69733   36.83164    2.68023   22.81192    0.09575   -9999.25   59.64310   -5.50504    8.50000 70000.00000
 1536.60000    8.58157   37.20894   36.55350   36.68709   -9999.25   23.25699    0.09575   -9999.25   60.20965   -5.55155    8.50000 70000.00000
 1536.70000    8.57991   37.51426   36.81381   37.01291    2.67988   23.30613    0.09761   -9999.25   60.30727   -5.94339    8.50000 70000.00000
 1536.80000    8.57990   37.73937   37.12114   37.38402    2.68145   23.04744    0.09697   -9999.25   59.94049   -5.64516    8.50000 70000.00000
 1536.90000    8.57553   38.22656   37.71547   37.96583    2.68408   23.22684    0.09606   -9999.25   59.94308   -5.73350    8.50000 70000.00000
 1537.00000    8.57291   38.48042   38.16896   38.38513    2.68953   22.83378    0.09379   -9999.25   59.79212   -5.64764    8.50000 70000.00000
 1537.10000    8.57224   42.33178   42.65564   42.63193    2.69007   22.58695    0.09492   -9999.25   59.00000   -5.93487    8.50000 70000.00000
 1537.20000    8.57239   42.58166   42.67609   42.80635    2.69082   22.42434    0.09714   -9999.25   58.92385   -5.69500    8.50000 70000.00000
 1537.30000    8.57080   52.74819   51.62153   52.19788    2.68860   22.30898    0.09677   -9999.25   58.84454   -5.25155    8.50000 70000.00000
 1537.40000    8.57076   53.07727   52.53334   53.06578    2.68748   22.01868    0.09487   -9999.25   58.83902   -5.08808    8.50000 70000.00000
