~Version ---------------------------------------------------
VERS.   2.0 : CWLS log ASCII Standard -VERSION 2.0
WRAP.    NO : One line per depth step
DLM . SPACE : Column Data Section Delimiter
~Well ------------------------------------------------------
STRT.m          1000.00000 : START DEPTH
STOP.m          2000.00000 : STOP DEPTH
STEP.m             0.10000 : STEP
NULL.             -9999.25 : NULL VALUE
COMP. FORCE 2020 Recreator : 
WELL.   WELL_FORCE_2020_04 : 
FLD .                      : FIELD
LOC .                      : LOCATION
PROV.                      : PROVINCE
CNTY.                      : COUNTY
STAT.                      : STATE
CTRY.                      : COUNTRY
SRVC.                      : SERVICE COMPANY
DATE.                      : DATE
UWI .                      : UNIQUE WELL ID
API .                      : API NUMBER
~Curve Information -----------------------------------------
DEPT                            .m      : 
CALI                            .in     : 
RSHA                            .ohm.m  : 
RMED                            .ohm.m  : 
RDEP                            .ohm.m  : 
RHOB                            .g/cm3  : 
GR                              .gAPI   : 
NPHI                            .v/v    : 
PEF                             .b/e    : 
DTC                             .us/ft  : 
SP                              .mV     : 
BS                              .in     : 
FORCE_2020_LITHOFACIES_LITHOLOGY.code   : 
~Params ----------------------------------------------------
~Other -----------------------------------------------------
~ASCII -----------------------------------------------------
 1000.00000    8.56959   60.99017   62.22269   59.89266    2.81838   23.24714    0.05911    3.13750   51.78706    2.94895    8.50000 74000.00000
 1000.10000    8.56721   58.75217   59.70758   57.87242    2.82127   23.38623    0.05573    3.12764   51.67377    2.05879    8.50000 74000.00000
 1000.20000    8.56699   57.34107   57.64742   56.24901    2.81848   23.61562    0.05588    3.11305   51.77496    2.37448    8.50000 74000.00000
 1000.30000    8.57222   67.88123   65.33610   64.06899    2.81737   23.52102    0.05400    3.10700   51.80225    2.32852    8.50000 74000.00000
 1000.40000    8.57743   71.83527   68.67058   67.44543    2.82018   24.32096    0.05449    3.10606   51.65918    2.46210    8.50000 74000.00000
 1000.50000    8.57834   68.56725   65.73305   64.52777    2.81937   24.71196    0.05513    3.11043   51.60764    2.76799    8.50000 74000.00000
 1000.60000    8.57782   65.91094   63.05502   61.88933    2.81942   24.38946    0.05195    3.11485   51.77594    3.06711    8.50000 74000.00000
 1000.70000    8.57527   63.37260   60.59011   59.57721    2.81943   24.12058    0.05387    3.12973   51.85163    2.97001    8.50000 74000.00000
 1000.80000    8.57632   61.84597   58.83055   57.98533    2.81604   24.18978    0.05425    3.12928   51.68539    2.66877    8.50000 74000.00000
 1000.90000    8.57648   60.71534   58.28876   57.53337    2.81775   24.16631    0.05524    3.13396   51.66560    2.70797    8.50000 74000.00000
 1001.00000    8.57815   58.95452   56.59678   55.91480    2.81630   24.05816    0.05421    3.13209   51.87757    2.84732    8.50000 74000.00000
 1001.10000    8.57747   68.48707   66.95894   65.34356    2.81658   24.12610    0.05278    3.13446   51.80203    2.64797    8.50000 74000.00000
 1001.20000    8.57509   74.96534   72.57978   70.91073    2.81105   23.96880    0.05335    3.12649   51.83507    2.40296    8.50000 74000.00000
 1001.30000    8.57714   82.63805   80.34005   78.51140    2.80889   23.79040    0.05398    3.12948   52.01440    2.50628    8.50000 74000.00000
 1001.40000    8.57823   84.29223   82.44858   80.76060    2.80736   24.10405    0.05273    3.13120   51.82932    2.29326    8.50000 74000.00000
 1001.50000    8.57631   80.78329   78.76171   77.83155    2.80664   24.05447    0.05391    3.13059   51.93546    2.61549    8.50000 74000.00000
 1001.60000    8.57886   81.36591   79.48839   78.63261    2.80741   24.09580    0.05572    3.12905   51.77997    3.03243    8.50000 74000.00000
 1001.70000    8.58402   80.23433   78.78160   77.66798    2.80367   24.33509    0.05615    3.13444   52.05057    3.16378    8.50000 74000.00000
 1001.80000    8.58608   80.14352   79.07927   77.75760    2.80254   23.97133    0.05781    3.12975   52.12536    3.39621    8.50000 74000.00000
 1001.90000    8.58433   86.11166   84.97731   84.00631    2.80275   24.41817    0.05634    3.12671   52.00816    2.98995    8.50000 74000.00000
 1002.00000    8.58863   83.59908   82.50372   82.03928    2.79769   24.79573    0.05645    3.12521   52.01869    2.64856    8.50000 74000.00000
 1002.10000    8.58506   89.72315   88.64989   88.60570    2.79865   24.87399    0.05808    3.11895   52.23823    2.61098    8.50000 74000.00000
 1002.20000    8.58763   90.41023   89.64769   89.38146    2.79895   25.04938    0.05860    3.12815   52.17970    3.17824    8.50000 74000.00000
 1002.30000    8.58778   91.31648   91.38297   90.74936    2.80375   25.08137    0.05791    3.14275   52.16892    3.28121    8.50000 74000.00000
 1002.40000    8.58448   88.01083   89.91889   89.37561    2.80601   25.50644    0.06073    3.14423   52.06370    3.26962    8.50000 74000.00000
 1002.50000    8.58022   85.55991   87.61138   87.06538    2.80111   24.77527    0.05920    3.14415   51.99436    3.16814    8.50000 74000.00000
 1002.60000    8.57879  103.93996   99.93114  102.31549    2.80085   24.60410    0.05901    3.14157   52.12797    2.68379    8.50000 74000.00000
 1002.70000    8.58041  104.06738  100.08846  102.47862    2.79930   24.79018    0.06230    3.14485   51.97210    2.35326    8.50000 74000.00000
 1002.80000    8.58480  107.43641  104.42911  106.43279    2.79933   24.99189    0.06163    3.13448   52.10812    2.34512    8.50000 74000.00000
 1002.90000    8.58594  119.70604  116.46266  118.18544    2.80200   25.23115    0.06189    3.12584   52.38806    2.62384    8.50000 74000.00000
 1003.00000    8.58620  119.67638  116.06741  117.68173    2.80010   25.56891    0.06118    3.12036   52.55190    2.57443    8.50000 74000.00000
 1003.10000    8.58471  120.84275  117.03478  118.56548    2.80308   25.60243    0.06153    3.12872   52.26747    2.07439    8.50000 74000.00000
 1003.20000    8.58612  111.66229  106.80311  109.38394    2.80459   25.36304    0.06205    3.13091   52.10936    1.84587    8.50000 74000.00000
 1003.30000    8.58750  103.51658   99.51538  102.10133    2.81026   25.20085    0.06294    3.13841   51.75302    1.44592    8.50000 74000.00000
 1003.40000    8.58410   95.69208   91.63940   94.35305    2.80905   24.88111    0.06172    3.13160   51.75613    1.42318    8.50000 74000.00000
 1003.50000    8.58373  100.67830   94.96116   97.26284    2.80943   25.62611    0.06469    3.13410   51.76816    1.48319    8.50000 74000.00000
 1003.60000    8.58640   97.79435   92.01604   94.13741    2.80801   26.16640    0.06125    3.12922   51.33528    1.00937    8.50000 74000.00000
 1003.70000    8.58317   99.80782   93.63250   95.78032    2.81107   25.96037    0.06142    3.12436   51.37849    0.63061    8.50000 74000.00000
 1003.80000    8.58045   99.47647   92.68293   95.12969    2.81769   25.91205    0.06157    3.12466   51.39303    0.18273    8.50000 74000.00000
 1003.90000    8.58097   98.49228   91.31092   94.02532    2.81775   25.82545    0.06032    3.12679   51.12963    0.01437    8.50000 74000.00000
 1004.00000    8.58131  101.17164   92.21465   95.33124    2.81612   25.67397    0.06078    3.13494   50.95310    0.25445    8.50000 74000.00000
 1004.10000    8.57861  101.53823   92.38863   95.74593    2.81878   25.13421    0.06019    3.12979   50.96202    0.45771    8.50000 74000.00000
 1004.20000    8.58087   94.89857   85.42343   88.45323    2.81869   25.68803    0.05878    3.13964   50.84968    0.30587    8.50000 74000.00000
 1004.30000    8.58028   99.26952   90.83615   93.59329    2.81788   25.50851    0.06046    3.13595   50.80567    0.17666    8.50000 74000.00000
 1004.40000    8.57825   99.59698   91.35694   94.17869    2.81270   25.29152    0.06353    3.12948   50.65884   -0.24862    8.50000 74000.00000
 1004.50000    8.57914   93.98467   85.87973   88.63375    2.81259   24.75473    0.06074    3.13537   50.76465   -0.42947    8.50000 74000.00000
 1004.60000    8.58158   91.42271   83.57696   86.46436    2.81400   25.11606    0.06170    3.13718   51.07728    0.00901    8.50000 74000.00000
 1004.70000    8.58377   83.36145   82.62301   81.42317    2.81295   25.08501    0.06124    3.14002   51.05673    0.35795    8.50000 74000.00000
 1004.80000    8.57950   83.79932   82.81582   81.76393    2.81717   25.42161    0.06200    3.12794   51.21849    0.49133    8.50000 74000.00000
 1004.90000    8.57744   81.26157   79.65611   78.76626    2.81731   25.28253    0.06137    3.12293   51.06643    0.89547    8.50000 74000.00000
 1005.00000    8.57537   79.00372   76.63374   76.07394    2.81871   25.47093    0.06097    3.13737   50.92516    0.71519    8.50000 74000.00000
 1005.10000    8.57712   97.41894   93.68648   92.68282    2.81875   25.40586    0.06192    3.14167   50.78797    0.62341    8.50000 74000.00000
 1005.20000    8.57727  106.95286  101.91833  100.67335    2.81835   26.07696    0.06287    3.13071   50.92786    0.84392    8.50000 74000.00000
 1005.30000    8.57629  109.54671  104.93718  103.24731    2.81714   26.63280    0.06359    3.13459   51.11000    0.82446    8.50000 74000.00000
 1005.40000    8.57389  113.44484  109.57028  107.72552    2.81651   27.00342    0.06253    3.13002   51.42331    1.67454    8.50000 74000.00000
 1005.50000    8.57577  118.18422  114.65652  112.25078    2.81590   27.56663    0.06357    3.13470   51.23100    1.51946    8.50000 74000.00000
