~Version ---------------------------------------------------
VERS.   2.0 : CWLS log ASCII Standard -VERSION 2.0
WRAP.    NO : One line per depth step
DLM . SPACE : Column Data Section Delimiter
~Well ------------------------------------------------------
STRT.m          1000.00000 : START DEPTH
STOP.m          2000.00000 : STOP DEPTH
STEP.m             0.10000 : STEP
NULL.             -9999.25 : NULL VALUE
COMP. FORCE 2020 Recreator : 
WELL.   WELL_FORCE_2020_10 : 
FLD .                      : FIELD
LOC .                      : LOCATION
PROV.                      : PROVINCE
CNTY.                      : COUNTY
STAT.                      : STATE
CTRY.                      : COUNTRY
SRVC.                      : SERVICE COMPANY
DATE.                      : DATE
UWI .                      : UNIQUE WELL ID
API .                      : API NUMBER
~Curve Information -----------------------------------------
DEPT                            .m      : 
CALI                            .in     : 
RSHA                            .ohm.m  : 
RMED                            .ohm.m  : 
RDEP                            .ohm.m  : 
RHOB                            .g/cm3  : 
GR                              .gAPI   : 
NPHI                            .v/v    : 
PEF                             .b/e    : 
DTC                             .us/ft  : 
SP                              .mV     : 
BS                              .in     : 
FORCE_2020_LITHOFACIES_LITHOLOGY.code   : 
~Params ----------------------------------------------------
~Other -----------------------------------------------------
~ASCII -----------------------------------------------------
# ...
 1733.60000    8.58057    3.84654    4.00052    3.97550    2.52278   79.59099    0.30419    3.21663   94.36387   -0.55982    8.50000 80000.00000
 1733.70000    8.58350    3.86081    4.03594    3.98596    2.52247   78.15081    0.30116    3.21564   94.12613   -0.83990    8.50000 80000.00000
 1733.80000    8.58291    3.81646    3.94465    3.91965    2.52167   78.02216    0.30049    3.22721   94.26516   -0.55044    8.50000 80000.00000
 1733.90000    8.58098    3.73803    3.78489    3.79524    2.52053   77.49240    0.29913    3.22252   95.14835   -0.33742    8.50000 80000.00000
 1734.00000    8.58003    3.76548    3.82108    3.83489    2.52376   77.11982    0.29926    3.21767   95.43629    0.03351    8.50000 80000.00000
 1734.10000    8.58167    3.69001    3.72406    3.73608    2.51824   77.51532    0.29757    3.21357   95.66144    0.27156    8.50000 80000.00000
 1734.20000    8.57834    3.68855    3.72876    3.75648    2.51281   76.91468    0.29642    3.19816   95.43493    0.48714    8.50000 80000.00000
 1734.30000    8.57670    3.76191    3.79416    3.81057    2.51133   76.07112    0.29591    3.18789   95.30749    0.35088    8.50000 80000.00000
 1734.40000    8.57849    3.87646    3.92417    3.93556    2.51027   75.92711    0.29499    3.20268   94.83578   -0.04018    8.50000 80000.00000
 1734.50000    8.58102    4.41357    4.50084    4.50597    2.50789   75.69587    0.29713    3.19552   94.52442   -0.18307    8.50000 80000.00000
 1734.60000    8.58378    4.45718    4.52395    4.52744    2.50341   75.56054    0.29578    3.19878   94.60626   -0.41467    8.50000 80000.00000
 1734.70000    8.58530    4.86779    4.90265    4.88842    2.49853   75.37764    0.29387    3.19148   95.18304   -0.83024    8.50000 80000.00000
 1734.80000    8.58625    4.86815    4.86150    4.83670    2.50159   76.06186    0.29603    3.21262   94.59588   -0.94307    8.50000 80000.00000
 1734.90000    8.58323    4.90669    4.91925    4.88126    2.50443   76.29452    0.29694    3.20448   95.53940   -0.37592    8.50000 80000.00000
 1735.00000    8.58325    5.03268    4.99039    4.95172    2.50988   75.59125    0.29301    3.21843   95.94005   -0.64264    8.50000 80000.00000
 1735.10000    8.58290    5.04391    4.97651    4.96299    2.51324   76.41613    0.29266    3.21603   95.68310   -0.91155    8.50000 80000.00000
 1735.20000    8.58301    5.15804    5.08099    5.07490    2.51734   76.92901    0.29257    3.22904   95.82401   -1.14254    8.50000 80000.00000
 1735.30000    8.58213    5.35446    5.31879    5.25274    2.52286   77.44195    0.29170    3.21964   95.71475   -0.86514    8.50000 80000.00000
 1735.40000    8.58477    5.38408    5.36668    5.30152    2.51926   77.57706    0.29218    3.23075   95.84031   -1.21925    8.50000 80000.00000
 1735.50000    8.58537    5.49958    5.48753    5.42624    2.51861   78.27526    0.28993    3.22692   96.01738   -1.40936    8.50000 80000.00000
 1735.60000    8.58304    5.39129    5.35563    5.31103    2.52014   78.18307    0.28964    3.22849   95.80882   -1.57430    8.50000 80000.00000
 1735.70000    8.58287    5.60930    5.52533    5.49072    2.51028   78.06717    0.29024    3.21537   95.89419   -1.25255    8.50000 80000.00000
 1735.80000    8.58022    5.40653    5.29933    5.26269    2.51179   79.23489    0.29237    3.21286   95.86336   -1.21464    8.50000 80000.00000
 1735.90000    8.58166    5.37082    5.25894    5.21833    2.50826   79.23249    0.29153    3.20792   95.44982   -0.96286    8.50000 80000.00000
 1736.00000    8.58198    5.24740    5.16044    5.12915    2.50819   79.93294    0.29143    3.19222   94.41030   -0.94806    8.50000 80000.00000
 1736.10000    8.58091    5.17493    5.07456    5.03908    2.50453   79.37888    0.29030    3.20502   94.32212   -1.26122    8.50000 80000.00000
 1736.20000    8.57947    5.28956    5.20422    5.18590    2.50446   79.70425    0.29299    3.19854   94.20605   -1.68676    8.50000 80000.00000
 1736.30000    8.58121    5.26092    5.15887    5.14215    2.50541   79.56422    0.29316    3.20320   94.50878   -1.45370    8.50000 80000.00000
 1736.40000    8.57967    5.42037    5.37139    5.31032    2.50577   80.20535    0.29354    3.21223   94.03707   -1.72297    8.50000 80000.00000
 1736.50000    8.57959    5.31745    5.29199    5.23082    2.50525   80.88056    0.29638    3.20798   93.95771   -1.17729    8.50000 80000.00000
 1736.60000    8.57982    4.95783    4.85506    4.81731    2.51202   81.89584    0.29534    3.21123   94.52820   -0.65169    8.50000 80000.00000
 1736.70000    8.57675    5.25407    5.13298    5.05057    2.51331   81.55108    0.29629    3.21489   95.04121   -0.42462    8.50000 80000.00000
 1736.80000    8.57371    4.94119    4.89831    4.83258    2.52054   81.43820    0.29689    3.20719   95.01571   -0.01677    8.50000 80000.00000
 1736.90000    8.57370    4.90797    4.89531    4.83817    2.52085   80.72504    0.29697    3.20619   95.83904    0.19796    8.50000 80000.00000
 1737.00000    8.57204    5.27373    5.18410    5.13867    2.52297   80.66402    0.29656    3.21632   95.05771    0.11705    8.50000 80000.00000
 1737.10000    8.57509    5.12803    5.07865    5.03254    2.51447   80.54988    0.29766    3.21341   94.67792   -0.00734    8.50000 80000.00000
 1737.20000    8.57517    5.03612    5.00990    4.95145    2.51521   81.60612    0.29825    3.20651   94.99916    0.20639    8.50000 80000.00000
 1737.30000    8.57810    4.99954    4.96291    4.89757    2.51098   81.68985    0.30118    3.20107   95.20512    0.19387    8.50000 80000.00000
 1737.40000    8.57688    4.51101    4.50208    4.48135    2.50935   80.97882    0.30280    3.21237   95.71020    0.05811    8.50000 80000.00000
 1737.50000    8.57465    4.39062    4.36995    4.35040    2.51180   81.61224    0.30256    3.20603   95.57147    0.53673    8.50000 80000.00000
 1737.60000    8.57433    4.36361    4.35709    4.33206    2.51457   81.41194    0.30634    3.21250   95.97740    0.87207    8.50000 80000.00000
 1737.70000    8.57704    4.34130    4.36664    4.34564    2.51257   81.94885    0.30783    3.22031   96.22327    1.25357    8.50000 80000.00000
 1737.80000    8.57650    4.16745    4.25313    4.20969    2.51252   81.69516    0.30843    3.20835   96.09549    1.32623    8.50000 80000.00000
 1737.90000    8.57639    4.37860    4.44866    4.41889    2.51116   81.29629    0.30816    3.22013   96.14482    1.47182    8.50000 80000.00000
 1738.00000    8.57577    4.36252    4.43233    4.39576    2.51458   81.14129    0.30887    3.22060   96.47232    1.16369    8.50000 80000.00000
 1738.10000    8.57881    4.37220    4.45487    4.40318    2.51689   80.66516    0.31053    3.23041   97.05304    1.04163    8.50000 80000.00000
 1738.20000    8.58117    4.46510    4.54278    4.49347    2.51758   81.42581    0.31147    3.21652   97.17666    1.41550    8.50000 80000.00000
 1738.30000    8.58140    4.56653    4.63169    4.55404    2.52260   80.70598    0.31094    3.23200   97.22049    1.82484    8.50000 80000.00000
 1738.40000    8.58123    4.76700    4.83278    4.74806    2.52376   81.25509    0.31254    3.23810   97.34668    1.63640    8.50000 80000.00000
 1738.50000    8.58167    4.54179    4.57770    4.53385    2.52542   80.70397    0.31163    3.23688   97.49404    1.75158    8.50000 80000.00000
 1738.60000    8.58126    4.54077    4.54344    4.49717    2.52888   80.25617    0.31050    3.22265   97.62910    1.56357    8.50000 80000.00000
 1738.70000    8.58110    4.36815    4.41778    4.35386    2.52641   78.89556    0.31223    3.21526   97.23432    0.75632    8.50000 80000.00000
 1738.80000    8.58271    4.08582    4.15349    4.12308    2.52384   79.57989    0.31265    3.21003   96.83585    0.76400    8.50000 80000.00000
 1738.90000    8.58292    4.06540    4.13310    4.08298    2.52149   79.47544    0.31151    3.20522   96.42407    0.27453    8.50000 80000.00000
 1739.00000    8.58423    4.38234    4.43009    4.43963    2.52494   80.02839    0.31072    3.19145   96.28799    0.11902    8.50000 80000.00000
 1739.10000    8.58517    3.99587    4.09092    4.10535    2.51624   79.79601    0.31047    3.20210   96.82353   -0.35055    8.50000 80000.00000
