~Version ---------------------------------------------------
VERS.   2.0 : CWLS log ASCII Standard -VERSION 2.0
WRAP.    NO : One line per depth step
DLM . SPACE : Column Data Section Delimiter
~Well ------------------------------------------------------
STRT.m          1000.00000 : START DEPTH
STOP.m          2000.00000 : STOP DEPTH
STEP.m             0.10000 : STEP
NULL.             -9999.25 : NULL VALUE
COMP. FORCE 2020 Recreator : 
WELL.   WELL_FORCE_2020_09 : 
FLD .                      : FIELD
LOC .                      : LOCATION
PROV.                      : PROVINCE
CNTY.                      : COUNTY
STAT.                      : STATE
CTRY.                      : COUNTRY
SRVC.                      : SERVICE COMPANY
DATE.                      : DATE
UWI .                      : UNIQUE WELL ID
API .                      : API NUMBER
~Curve Information -----------------------------------------
DEPT                            .m      : 
CALI                            .in     : 
RSHA                            .ohm.m  : 
RMED                            .ohm.m  : 
RDEP                            .ohm.m  : 
RHOB                            .g/cm3  : 
GR                              .gAPI   : 
NPHI                            .v/v    : 
PEF                             .b/e    : 
DTC                             .us/ft  : 
SP                              .mV     : 
BS                              .in     : 
FORCE_2020_LITHOFACIES_LITHOLOGY.code   : 
~Params ----------------------------------------------------
~Other -----------------------------------------------------
~ASCII -----------------------------------------------------
# ...
 1666.40000    9.88255    2.65245    2.55449    2.57240    2.49277  110.12300    0.35578    3.36202  108.83203    4.26503    8.50000 65000.00000
 1666.50000    9.87520    2.65072    2.55139    2.57686    2.49691  109.66632    0.35950    3.36898  108.45016    4.02887    8.50000 65000.00000
 1666.60000    9.87200    2.66296    2.57440    2.59164    2.49454  112.13927    0.36222    3.35822  107.93723    4.02205    8.50000 65000.00000
 1666.70000    9.86405    2.58989    2.51188    2.52678    2.49618  111.14477    0.35997    3.35537  107.43211    3.92944    8.50000 65000.00000
 1666.80000    9.89579    2.55029    2.48655    2.50916    2.49697  111.56612    0.35815    3.36870  107.00971    3.87403    8.50000 65000.00000
 1666.90000    9.89304    2.67017    2.61815    2.64024    2.49877  110.76600    0.35262    3.38205  107.98269    4.16763    8.50000 65000.00000
 1667.00000    9.88935    2.68395    2.63095    2.66251    2.50509  111.24366    0.35448    3.40550  108.16731    4.08829    8.50000 65000.00000
 1667.10000    9.92462    2.73434    2.68827    2.72646    2.50104  111.10633    0.35491    3.38668  107.91322    4.08997    8.50000 65000.00000
 1667.20000    9.95228    2.64197    2.60342    2.62559    2.49655  112.26375    0.35621    3.41099  107.87203    4.15598    8.50000 65000.00000
 1667.30000    9.96249    2.69128    2.65701    2.68121    2.50271  112.73749    0.35725    3.43177  107.41390    4.52643    8.50000 65000.00000
 1667.40000    9.99046    2.66051    2.64804    2.65670    2.50429  112.09178    0.35752    3.43632  106.88210    4.67540    8.50000 65000.00000
 1667.50000    9.97597    2.67266    2.64745    2.65260    2.50277  112.93404    0.35667    3.41910  107.17926    5.15860    8.50000 65000.00000
 1667.60000    9.95534    2.65064    2.63490    2.63990    2.51032  112.63285    0.35598    3.43226  107.12334    5.16631    8.50000 65000.00000
 1667.70000    9.95159    2.64887    2.63356    2.64407    2.50684  111.12835    0.35350    3.44637  107.68010    5.07693    8.50000 65000.00000
 1667.80000    9.99196    2.66390    2.62279    2.62458    2.50844  111.18818    0.35194    3.46475  107.89069    5.11033    8.50000 65000.00000
 1667.90000    9.98767    2.78758    2.73093    2.73770    2.50132  112.98194    0.35192    3.44975  108.38947    5.11234    8.50000 65000.00000
 1668.00000   10.00050    2.77955    2.71863    2.72453    2.49743  114.27901    0.35444    3.43329  108.34275    4.99257    8.50000 65000.00000
 1668.10000    9.96555    2.70666    2.66099    2.64869    2.49404  114.74689    0.35430    3.41406  109.08592    4.94094    8.50000 65000.00000
 1668.20000    9.99159    2.69914    2.66588    2.65898    2.49377  115.49506    0.35231    3.42742  108.41492    5.04034    8.50000 65000.00000
 1668.30000    9.98596    2.64025    2.60623    2.60026    2.49531  114.58497    0.35019    3.40831  107.40750    4.88286    8.50000 65000.00000
 1668.40000    9.99486    2.63585    2.61649    2.60459    2.49115  113.82349    0.35351    3.42687  107.13924    5.12612    8.50000 65000.00000
 1668.50000    9.98360    2.63070    2.61099    2.61201    2.48496  113.17212    0.35936    3.42500  107.53537    5.20680    8.50000 65000.00000
 1668.60000    9.97518    2.66541    2.65531    2.64131    2.48533  112.94022    0.35482    3.42753  107.72929    5.29101    8.50000 65000.00000
 1668.70000    9.95687    2.66217    2.63867    2.63541    2.48178  112.85994    0.35354    3.42519  107.70731    5.39533    8.50000 65000.00000
 1668.80000    9.94808    2.75172    2.73369    2.72640    2.48173  114.72343    0.35432    3.40752  107.76667    5.48186    8.50000 65000.00000
 1668.90000    9.92567    2.85993    2.83296    2.83402    2.47527  113.68558    0.35589    3.40489  107.05849    5.68618    8.50000 65000.00000
 1669.00000    9.90764    2.79997    2.74066    2.75307    2.47481  113.48108    0.35548    3.40356  106.59511    5.73984    8.50000 65000.00000
 1669.10000    9.88554    2.73857    2.65709    2.66441    2.46552  112.98462    0.35549    3.38850  106.31964    5.80089    8.50000 65000.00000
 1669.20000    9.83349    2.68898    2.59945    2.60456    2.46532  112.09876    0.35549    3.40843  106.17199    5.68817    8.50000 65000.00000
 1669.30000    9.82283    2.70786    2.59513    2.60660    2.47200  111.68879    0.35492    3.37884  106.96923    5.60910    8.50000 65000.00000
 1669.40000    9.78175    2.67953    2.56095    2.58148    2.46806  111.50394    0.35404    3.37413  107.26058    5.16908    8.50000 65000.00000
 1669.50000    9.75123    2.72168    2.58365    2.60704    2.46654  111.72660    0.35986    3.35972  107.80541    4.81636    8.50000 65000.00000
 1669.60000    9.73783    2.70856    2.56441    2.58962    2.46260  111.40415    0.36031    3.37719  107.34961    4.38338    8.50000 65000.00000
 1669.70000    9.73253    2.78111    2.64520    2.66458    2.45715  110.32653    0.36362    3.36559  107.43207    4.46667    8.50000 65000.00000
 1669.80000    9.74850    2.82627    2.68397    2.70151    2.45864  111.67110    0.36718    3.37157  106.60070    4.54303    8.50000 65000.00000
 1669.90000    9.71755    2.88701    2.73126    2.75753    2.45508  112.67497    0.36998    3.35737  106.17435    4.63029    8.50000 65000.00000
 1670.00000    9.68059    2.77665    2.62664    2.65092    2.45903  111.30912    0.37075    3.38307  105.89365    4.42625    8.50000 65000.00000
 1670.10000    9.67835    2.80138    2.69694    2.73122    2.45662  110.86818    0.37050    3.39021  105.38405    4.64681    8.50000 65000.00000
 1670.20000    9.69323    2.80995    2.71333    2.76559    2.45973  111.01428    0.37337    3.40728  104.94417    4.90919    8.50000 65000.00000
 1670.30000    9.67826    2.77474    2.67305    2.71905    2.45696  110.78453    0.37302    3.39950  106.04221    4.65122    8.50000 65000.00000
 1670.40000    9.68010    2.67520    2.62790    2.65848    2.45383  110.96442    0.37747    3.40865  106.09466    4.78645    8.50000 65000.00000
 1670.50000    9.69050    2.68582    2.65229    2.68100    2.45785  112.30677    0.37581    3.39011  106.60051    4.43503    8.50000 65000.00000
 1670.60000    9.71127    2.73425    2.73375    2.75656    2.46251  114.40911    0.37352    3.38409  106.88455    4.39208    8.50000 65000.00000
 1670.70000    9.71415    2.69981    2.67458    2.70653    2.46406  117.50260    0.37473    3.34522  107.44199    4.73752    8.50000 65000.00000
 1670.80000    9.73766    2.70805    2.66918    2.70502    2.47118  115.68513    0.37294    3.34920  107.58928    4.77144    8.50000 65000.00000
 1670.90000    9.72724    2.66915    2.62708    2.66451    2.46720  115.18860    0.37186    3.35984  107.74624    4.78134    8.50000 65000.00000
 1671.00000    9.72422    2.62440    2.59261    2.62173    2.46703  116.32742    0.36935    3.37043  108.79641    4.46996    8.50000 65000.00000
 1671.10000    9.76419    2.65062    2.63367    2.65947    2.46418  116.27352    0.36872    3.36196  109.46215    4.30060    8.50000 65000.00000
 1671.20000    9.77497    2.60944    2.63746    2.66650    2.46981  115.77252    0.36672    3.34475  110.44719    4.14441    8.50000 65000.00000
 1671.30000    9.75714    2.68690    2.71181    2.74081    2.47112  117.40680    0.36863    3.33046  110.13092    4.45956    8.50000 65000.00000
 1671.40000    9.77090    2.71683    2.78672    2.81811    2.47179  117.11547    0.36752    3.33670  109.04541    4.65487    8.50000 65000.00000
 1671.50000    9.78889    2.68165    2.73667    2.76069    2.46679  117.97955    0.36840    3.34281  109.64587    4.89463    8.50000 65000.00000
 1671.60000    9.76255    2.66750    2.73680    2.75734    2.46264  119.64682    0.36695    3.35588  109.21007    4.83794    8.50000 65000.00000
 1671.70000    9.77871    2.63202    2.70553    2.73676    2.46568  119.91293    0.36412    3.35212  109.66759    5.18850    8.50000 65000.00000
 1671.80000    9.82486    2.54363    2.60060    2.62883    2.46381  121.76178    0.35918    3.34156  109.50204    5.12533    8.50000 65000.00000
 1671.90000    9.81777    2.55548    2.61585    2.64247    2.46680  121.56166    0.36024    3.34774  110.65868    5.34745    8.50000 65000.00000
