~Version ---------------------------------------------------
VERS.   2.0 : CWLS log ASCII Standard -VERSION 2.0
WRAP.    NO : One line per depth step
DLM . SPACE : Column Data Section Delimiter
~Well ------------------------------------------------------
STRT.m          1000.00000 : START DEPTH
STOP.m          2000.00000 : STOP DEPTH
STEP.m             0.10000 : STEP
NULL.             -9999.25 : NULL VALUE
COMP. FORCE 2020 Recreator : 
WELL.   WELL_FORCE_2020_02 : 
FLD .                      : FIELD
LOC .                      : LOCATION
PROV.                      : PROVINCE
CNTY.                      : COUNTY
STAT.                      : STATE
CTRY.                      : COUNTRY
SRVC.                      : SERVICE COMPANY
DATE.                      : DATE
UWI .                      : UNIQUE WELL ID
API .                      : API NUMBER
~Curve Information -----------------------------------------
DEPT                            .m      : 
CALI                            .in     : 
RSHA                            .ohm.m  : 
RMED                            .ohm.m  : 
RDEP                            .ohm.m  : 
RHOB                            .g/cm3  : 
GR                              .gAPI   : 
NPHI                            .v/v    : 
PEF                             .b/e    : 
DTC                             .us/ft  : 
SP                              .mV     : 
BS                              .in     : 
FORCE_2020_LITHOFACIES_LITHOLOGY.code   : 
~Params ----------------------------------------------------
~Other -----------------------------------------------------
~ASCII -----------------------------------------------------
# ...
 1599.20000    8.58322    8.01656    7.83070    7.74314    2.42591   75.34924    0.26443    2.62417   92.60274  -15.15042    8.50000 65030.00000
 1599.30000    8.58143    8.08017    7.92357    7.84232    2.42819   75.98533    0.27017    2.61348   92.38722  -15.36273    8.50000 65030.00000
 1599.40000    8.57922    7.67836    7.61955    7.55986    2.43311   75.16752    0.27188    2.61217   92.28891  -15.41855    8.50000 65030.00000
 1599.50000    8.58080    7.58623    7.49608    7.43296    2.42959   75.43720    0.27097    2.60926   93.37910  -15.47427    8.50000 65030.00000
 1599.60000    8.57853    7.02201    7.03478    6.96949    2.42737   75.63655    0.27185    2.60526   93.12648  -15.25790    8.50000 65030.00000
 1599.70000    8.57775    6.49573    6.61647    6.54723    2.42021   75.55865    0.26889    2.61192   93.85349  -15.72469    8.50000 65030.00000
 1599.80000    8.57976    6.29575    6.44445    6.37036    2.41733   74.48657    0.26938    2.61268   94.92258  -15.75347    8.50000 65030.00000
 1599.90000    8.58142    6.72164    6.92053    6.82034    2.42059   76.33668    0.26192    2.61808   95.23245  -15.54018    8.50000 65030.00000
 1600.00000    8.57968    6.97937    7.26336    7.13701    2.41716   76.25356    0.26108    2.62030   95.67292  -15.98503    8.50000 65030.00000
 1600.10000    8.58056    6.79165    7.12377    6.97829    2.42046   76.92824    0.26332    2.61413   95.32276  -15.08112    8.50000 65030.00000
 1600.20000    8.57942    7.06912    7.42837    7.26300    2.42403   77.12557    0.26136    2.61507   94.81966  -15.11805    8.50000 65030.00000
 1600.30000    8.57762    7.44864    7.71344    7.59096    2.42085   77.23046    0.26405    2.59810   94.24480  -14.74253    8.50000 65030.00000
 1600.40000    8.57927    7.35778    7.63350    7.53727    2.42279   77.53480    0.26506    2.60746   95.26237  -15.23863    8.50000 65030.00000
 1600.50000    8.58141    8.00944    8.17953    8.10671    2.42082   77.95537    0.26495    2.61737   95.03739  -14.89382    8.50000 65030.00000
 1600.60000    8.58252    8.12068    8.34108    8.29694    2.41442   77.67627    0.26368    2.62184   94.62172  -15.16371    8.50000 65030.00000
 1600.70000    8.58179    7.82738    8.00393    7.96020    2.40797   78.74851    0.26189    2.62491   94.73716  -15.61291    8.50000 65030.00000
 1600.80000    8.58173    7.45499    7.56390    7.53730    2.40829   79.35006    0.25474    2.61620   94.72369  -15.73498    8.50000 65030.00000
 1600.90000    8.57971    8.19751    8.34085    8.29547    2.40670   78.34747    0.25347    2.63390   94.75792  -15.93906    8.50000 65030.00000
 1601.00000    8.57756    8.77475    8.87429    8.86317    2.40384   79.15484    0.25623    2.61251   94.17039  -15.37199    8.50000 65030.00000
 1601.10000    8.57715    8.77500    8.90049    8.88580    2.40314   78.32605    0.25344    2.60882   94.08644  -15.82116    8.50000 65030.00000
 1601.20000    8.57423    8.68074    8.80240    8.74856    2.40148   77.73383    0.25078    2.61852   93.88630  -15.47794    8.50000 65030.00000
 1601.30000    8.57166    8.55846    8.68188    8.69974    2.40467   77.61054    0.24911    2.62139   94.40936  -15.61781    8.50000 65030.00000
 1601.40000    8.57408    9.04109    9.03951    9.11525    2.39796   77.69059    0.24918    2.64279   94.63508  -15.25349    8.50000 65030.00000
 1601.50000    8.57268    9.40591    9.38434    9.47121    2.39853   78.06529    0.24652    2.63717   94.53373  -15.16829    8.50000 65030.00000
 1601.60000    8.57479    9.77405    9.71163    9.78622    2.39473   78.64701    0.24364    2.64418   93.63459  -15.19782    8.50000 65030.00000
 1601.70000    8.57394    9.86588    9.74013    9.84625    2.40096   79.05682    0.24257    2.62631   93.21039  -14.80203    8.50000 65030.00000
 1601.80000    8.57675   10.55453   10.52379   10.62284    2.40367   79.10116    0.24143    2.63053   93.00260  -14.73519    8.50000 65030.00000
 1601.90000    8.57552   10.90161   10.84921   10.94071    2.40811   79.79826    0.24022    2.63161   91.59398  -14.37829    8.50000 65030.00000
 1602.00000    8.57419   11.55187   11.34027   11.49182    2.40591   78.85634    0.24455    2.62587   90.59552  -14.28555    8.50000 65030.00000
 1602.10000    8.57447   11.48733   11.25789   11.42836    2.41435   79.42739    0.24548    2.63051   90.91828  -14.20105    8.50000 65030.00000
 1602.20000    8.57711   11.40053   11.18425   11.36482    2.40937   78.82486    0.24270    2.61957   91.15188  -14.89056    8.50000 65030.00000
 1602.30000    8.57623   10.96661   10.78250   10.98166    2.40739   78.98197    0.24649    2.61260   91.80201  -14.85309    8.50000 65030.00000
 1602.40000    8.57837   10.74435   10.65126   10.80531    2.40064   78.74269    0.24585    2.63025   92.71072  -14.95804    8.50000 65030.00000
 1602.50000    8.57521   10.67372   10.52335   10.70548    2.39513   77.74207    0.24439    2.61914   91.35527  -14.28513    8.50000 65030.00000
 1602.60000    8.57160    9.88644    9.83364    9.99705    2.39557   76.67553    0.24397    2.59675   91.35191  -14.49208    8.50000 65030.00000
 1602.70000    8.57334    9.69883    9.61152    9.73800    2.39768   78.35845    0.24429    2.60104   91.31468  -14.70596    8.50000 65030.00000
 1602.80000    8.57411    9.84057    9.73974    9.84273    2.40495   77.48273    0.24694    2.59999   91.08528  -14.72684    8.50000 65030.00000
 1602.90000    8.57455    9.82582    9.71800    9.83968    2.40642   77.10990    0.25117    2.59305   91.09515  -14.73814    8.50000 65030.00000
 1603.00000    8.57550    9.46681    9.33523    9.44898    2.40235   77.03769    0.25152    2.57397   90.40833  -14.32266    8.50000 65030.00000
 1603.10000    8.57780    8.78219    8.67038    8.76419    2.40484   76.62553    0.24993    2.59484   90.64106  -14.28693    8.50000 65030.00000
 1603.20000    8.57964    8.65418    8.50642    8.59922    2.40861   76.74117    0.24842    2.61057   91.31085  -14.28300    8.50000 65030.00000
 1603.30000    8.58061    9.20590    8.99984    9.07914    2.40663   75.65955    0.25511    2.60174   91.71253  -14.27219    8.50000 65030.00000
 1603.40000    8.57952    8.91517    8.77394    8.79492    2.40288   75.57875    0.25817    2.61086   91.41527  -13.90739    8.50000 65030.00000
 1603.50000    8.58009    9.20591    8.97378    8.94308    2.40600   74.21510    0.25835    2.59877   91.05234  -13.88630    8.50000 65030.00000
 1603.60000    8.58033    9.06387    8.83708    8.79322    2.39728   73.53265    0.25896    2.58600   91.27252  -13.95023    8.50000 65030.00000
 1603.70000    8.57700    9.62046    9.35887    9.45349    2.39703   71.82094    0.25915    2.58105   91.59834  -14.23438    8.50000 65030.00000
 1603.80000    8.57975    9.67523    9.43963    9.49394    2.39184   71.50026    0.25613    2.59026   91.46214  -15.00646    8.50000 65030.00000
 1603.90000    8.57865    8.87689    8.47514    8.53269    2.39285   70.64198    0.25930    2.58204   91.10130  -15.05987    8.50000 65030.00000
 1604.00000    8.57973    8.96535    8.53134    8.66261    2.39481   71.12499    0.25913    2.59089   91.86250  -15.47924    8.50000 65030.00000
 1604.10000    8.58007    7.89845    7.57943    7.67978    2.39359   71.83806    0.25829    2.59487   92.87252  -16.17453    8.50000 65030.00000
 1604.20000    8.57667    8.29929    7.92220    8.04150    2.39227   71.82314    0.25795    2.60157   93.00266  -16.27021    8.50000 65030.00000
 1604.30000    8.57201    8.29703    7.89950    8.01147    2.39224   71.88312    0.25509    2.61838   92.32331  -15.78740    8.50000 65030.00000
 1604.40000    8.57100    8.41680    8.03631    8.16962    2.39692   71.67092    0.25587    2.61767   92.10229  -15.74736    8.50000 65030.00000
 1604.50000    8.57039    8.25681    7.87209    8.00362    2.39906   70.67131    0.25629    2.60186   91.80600  -16.04296    8.50000 65030.00000
 1604.60000    8.56860    8.54530    8.15110    8.23732    2.40164   70.74188    0.25769    2.61740   92.53222  -16.38157    8.50000 65030.00000
 1604.70000    8.57162    8.62870    8.23750    8.32183    2.40216   70.50619    0.25673    2.61167   92.20883  -16.38893    8.50000 65030.00000
