~Version ---------------------------------------------------
VERS.   2.0 : CWLS log ASCII Standard -VERSION 2.0
WRAP.    NO : One line per depth step
DLM . SPACE : Column Data Section Delimiter
~Well ------------------------------------------------------
STRT.m          1000.00000 : START DEPTH
STOP.m          2000.00000 : STOP DEPTH
STEP.m             0.10000 : STEP
NULL.             -9999.25 : NULL VALUE
COMP. FORCE 2020 Recreator : 
WELL.   WELL_FORCE_2020_10 : 
FLD .                      : FIELD
LOC .                      : LOCATION
PROV.                      : PROVINCE
CNTY.                      : COUNTY
STAT.                      : STATE
CTRY.                      : COUNTRY
SRVC.                      : SERVICE COMPANY
DATE.                      : DATE
UWI .                      : UNIQUE WELL ID
API .                      : API NUMBER
~Curve Information -----------------------------------------
DEPT                            .m      : 
CALI                            .in     : 
RSHA                            .ohm.m  : 
RMED                            .ohm.m  : 
RDEP                            .ohm.m  : 
RHOB                            .g/cm3  : 
GR                              .gAPI   : 
NPHI                            .v/v    : 
PEF                             .b/e    : 
DTC                             .us/ft  : 
SP                              .mV     : 
BS                              .in     : 
FORCE_2020_LITHOFACIES_LITHOLOGY.code   : 
~Params ----------------------------------------------------
~Other -----------------------------------------------------
~ASCII -----------------------------------------------------
# ...
 1067.20000    8.48865   14.80858   14.04974   14.25832    2.39532   61.92684    0.24537    2.34651   89.01840  -24.67334    8.50000 65030.00000
 1067.30000    8.49814   13.09479   12.67768   12.88763    2.39844   64.46482    0.24734    2.39076   90.25426  -23.62540    8.50000 65030.00000
 1067.40000    8.50881   13.25276   12.99823   13.21227    2.40266   66.26962    0.25189    2.44003   91.43848  -22.48954    8.50000 65030.00000
 1067.50000    8.51800   11.52532   11.20941   11.41393    2.40043   67.53758    0.25408    2.46901   91.88369  -21.65447    8.50000 65030.00000
 1067.60000    8.52720   10.44197   10.09437   10.29276    2.39883   69.76529    0.25866    2.50123   92.69184  -20.56104    8.50000 65030.00000
 1067.70000    8.54177    9.29489    9.19087    9.23797    2.39535   70.30441    0.26062    2.53991   93.65310  -19.22013    8.50000 65030.00000
 1067.80000    8.55688    8.37666    8.53608    8.55981    2.39912   71.95432    0.26516    2.58302   93.96787  -17.84648    8.50000 65030.00000
 1067.90000    8.56752    8.19087    8.18335    8.28005    2.39450   73.37119    0.27100    2.61956   94.65457  -17.11409    8.50000 65030.00000
 1068.00000    8.58099    7.91139    7.97590    8.05512    2.39841   75.42538    0.27591    2.65937   95.10969  -15.94548    8.50000 65030.00000
 1068.10000    8.58365    7.87066    7.89611    7.96431    2.40112   75.61501    0.27368    2.64808   96.37838  -15.43296    8.50000 65030.00000
 1068.20000    8.58072    7.79166    7.80190    7.87186    2.40178   73.84313    0.27332    2.64677   96.35881  -16.40719    8.50000 65030.00000
 1068.30000    8.58097    7.68046    7.69616    7.75225    2.39806   73.22566    0.27586    2.64632   95.63989  -16.19186    8.50000 65030.00000
 1068.40000    8.57919    7.79660    7.79975    7.86992    2.39360   73.50175    0.27330    2.64255   96.57995  -16.05014    8.50000 65030.00000
 1068.50000    8.57665    7.86679    7.73386    7.79267    2.39909   73.12588    0.26982    2.63704   97.07273  -15.88972    8.50000 65030.00000
 1068.60000    8.57192    8.10666    8.08696    8.16641    2.39643   73.27004    0.26767    2.62375   96.29332  -15.39758    8.50000 65030.00000
 1068.70000    8.57415    8.49328    8.58653    8.60602    2.39382   73.67869    0.26737    2.64252   96.64035  -15.32409    8.50000 65030.00000
 1068.80000    8.57403    8.84723    8.89823    8.90354    2.38643   74.55068    0.26668    2.64300   96.74199  -15.73293    8.50000 65030.00000
 1068.90000    8.57560    8.25916    8.28594    8.37046    2.38277   74.57972    0.26490    2.62802   96.53976  -15.54923    8.50000 65030.00000
 1069.00000    8.57576    8.24201    8.26539    8.34306    2.38748   74.88886    0.25884    2.63986   97.44073  -15.29532    8.50000 65030.00000
 1069.10000    8.57428    8.23727    8.26651    8.32992    2.38597   75.73522    0.25663    2.64646   96.69825  -14.93117    8.50000 65030.00000
 1069.20000    8.57341    8.40182    8.41752    8.48219    2.38576   75.66966    0.25838    2.65445   96.32230  -15.04152    8.50000 65030.00000
 1069.30000    8.57319    7.96544    8.11583    8.10901    2.37927   76.66198    0.25902    2.64093   95.38395  -14.54073    8.50000 65030.00000
 1069.40000    8.57753    7.66322    7.82849    7.81591    2.38010   76.82057    0.25565    2.64019   95.22544  -14.61035    8.50000 65030.00000
 1069.50000    8.58085    7.23017    7.27821    7.25301    2.37717   75.85048    0.25530    2.63451   94.40847  -14.88204    8.50000 65030.00000
 1069.60000    8.58238    7.63128    7.71677    7.68376    2.37484   77.48815    0.25571    2.63921   95.43566  -14.51544    8.50000 65030.00000
 1069.70000    8.58126    7.87065    7.94725    7.92862    2.37675   76.82202    0.25685    2.65180   94.58895  -14.28372    8.50000 65030.00000
 1069.80000    8.58057    7.51521    7.53098    7.52601    2.37469   77.11994    0.25545    2.63047   94.84719  -14.12148    8.50000 65030.00000
 1069.90000    8.57862    7.35773    7.36092    7.36326    2.36777   77.47651    0.25363    2.62818   94.42694  -13.96891    8.50000 65030.00000
 1070.00000    8.57698    7.13984    7.12446    7.08918    2.37714   77.33313    0.25287    2.63617   94.64344  -13.57593    8.50000 65030.00000
 1070.10000    8.57916    7.15310    7.06219    7.04554    2.37311   76.11175    0.25248    2.62211   94.55245  -13.58526    8.50000 65030.00000
 1070.20000    8.57904    7.41216    7.34110    7.30400    2.37100   76.00079    0.24943    2.64297   93.59657  -13.74246    8.50000 65030.00000
 1070.30000    8.57865    8.13020    7.87456    7.82187    2.36998   76.19290    0.24964    2.62423   93.70898  -13.22802    8.50000 65030.00000
 1070.40000    8.57930    9.61126    9.37912    9.30007    2.37406   76.01896    0.25011    2.61673   93.09552  -13.49016    8.50000 65030.00000
 1070.50000    8.58088    9.67909    9.45367    9.37985    2.37692   76.44584    0.25167    2.61144   92.02773  -13.55219    8.50000 65030.00000
 1070.60000    8.58303    9.17530    9.03765    8.97254    2.37622   76.35982    0.25331    2.60391   91.77732  -14.16717    8.50000 65030.00000
 1070.70000    8.58400    9.05171    8.82125    8.71019    2.38063   75.93142    0.25604    2.60564   92.23304  -14.25163    8.50000 65030.00000
 1070.80000    8.58121    8.26862    8.03530    7.92652    2.38729   76.62148    0.25418    2.59500   91.96163  -13.79513    8.50000 65030.00000
 1070.90000    8.57941    8.03619    7.90627    7.78297    2.39463   76.35669    0.25262    2.58367   92.27471  -13.82643    8.50000 65030.00000
 1071.00000    8.58054    8.23521    8.08625    7.96331    2.39554   76.20603    0.25410    2.60618   92.26387  -14.36971    8.50000 65030.00000
 1071.10000    8.58155    8.26497    8.10393    7.99769    2.39314   75.96313    0.25541    2.60172   92.07828  -15.45955    8.50000 65030.00000
 1071.20000    8.58122    8.75204    8.53591    8.42929    2.39591   75.50953    0.25652    2.59173   91.99314  -15.56873    8.50000 65030.00000
 1071.30000    8.58191    8.44729    8.18528    8.10953    2.39874   75.51867    0.25406    2.59567   92.15141  -15.49264    8.50000 65030.00000
 1071.40000    8.58179    8.37945    8.12616    8.04463    2.40232   75.07767    0.25614    2.58675   91.99108  -15.62838    8.50000 65030.00000
 1071.50000    8.58085    8.41460    8.14298    8.06870    2.40097   74.05470    0.26142    2.59943   91.94986  -15.56362    8.50000 65030.00000
 1071.60000    8.58043    8.90611    8.66904    8.60726    2.39785   74.68935    0.26054    2.59795   92.32347  -15.30789    8.50000 65030.00000
 1071.70000    8.58035    8.65287    8.41666    8.34297    2.40748   73.95164    0.26475    2.61152   91.62894  -15.46862    8.50000 65030.00000
 1071.80000    8.58466    8.60708    8.39177    8.27177    2.40864   73.43880    0.26370    2.58743   92.39367  -15.79582    8.50000 65030.00000
 1071.90000    8.58538    8.56857    8.33795    8.20530    2.40291   72.69988    0.26551    2.60374   91.56079  -15.94949    8.50000 65030.00000
 1072.00000    8.58486    8.68502    8.49976    8.35944    2.40997   73.64259    0.26709    2.60360   91.93273  -16.19395    8.50000 65030.00000
 1072.10000    8.58587    8.74420    8.62736    8.47535    2.40061   73.91785    0.26380    2.58544   91.58780  -16.54651    8.50000 65030.00000
 1072.20000    8.58223    8.91726    8.81004    8.65875    2.40509   75.50038    0.26213    2.59910   91.24433  -16.70887    8.50000 65030.00000
 1072.30000    8.58180    8.65773    8.54413    8.42051    2.40209   75.21382    0.26732    2.56361   91.72306  -16.43511    8.50000 65030.00000
 1072.40000    8.58476    7.89279    7.95418    7.85286    2.40761   75.01786    0.26941    2.58980   90.88051  -16.72144    8.50000 65030.00000
 1072.50000    8.58531    6.40199    6.44159    6.35721    2.40811   74.69759    0.26981    2.58818   91.13946  -16.11522    8.50000 65030.00000
 1072.60000    8.58445    6.42456    6.48963    6.35836    2.40945   74.13506    0.27135    2.58748   91.86237  -16.81136    8.50000 65030.00000
 1072.70000    8.58112    6.56230    6.66202    6.52510    2.40791   73.79671    0.27181    2.59888   92.46797  -16.14154    8.50000 65030.00000
