~Version ---------------------------------------------------
VERS.   2.0 : CWLS log ASCII Standard -VERSION 2.0
WRAP.    NO : One line per depth step
DLM . SPACE : Column Data Section Delimiter
~Well ------------------------------------------------------
STRT.m          1000.00000 : START DEPTH
STOP.m          2000.00000 : STOP DEPTH
STEP.m             0.10000 : STEP
NULL.             -9999.25 : NULL VALUE
COMP. FORCE 2020 Recreator : 
WELL.   WELL_FORCE_2020_09 : 
FLD .                      : FIELD
LOC .                      : LOCATION
PROV.                      : PROVINCE
CNTY.                      : COUNTY
STAT.                      : STATE
CTRY.                      : COUNTRY
SRVC.                      : SERVICE COMPANY
DATE.                      : DATE
UWI .                      : UNIQUE WELL ID
API .                      : API NUMBER
~Curve Information -----------------------------------------
DEPT                            .m      : 
CALI                            .in     : 
RSHA                            .ohm.m  : 
RMED                            .ohm.m  : 
RDEP                            .ohm.m  : 
RHOB                            .g/cm3  : 
GR                              .gAPI   : 
NPHI                            .v/v    : 
PEF                             .b/e    : 
DTC                             .us/ft  : 
SP                              .mV     : 
BS                              .in     : 
FORCE_2020_LITHOFACIES_LITHOLOGY.code   : 
~Params ----------------------------------------------------
~Other -----------------------------------------------------
~ASCII -----------------------------------------------------
 1000.00000    8.57169  113.48216  113.18065  116.49777    2.82467   25.23001    0.06353    3.18230   51.97026    0.99125    8.50000 74000.00000
 1000.10000    8.57302  109.81235  109.65014  112.49300    2.82570   24.68835    0.06591    3.17745   52.05404    1.20904    8.50000 74000.00000
 1000.20000    8.56859  102.66344  102.59359  105.16978    2.82576   24.56002    0.06596    3.17541   52.01147    0.84656    8.50000 74000.00000
 1000.30000    8.56937   99.34614  100.25164  102.61923    2.82579   24.56067    0.06726    3.16029   52.01013    0.76904    8.50000 74000.00000
 1000.40000    8.57073   97.42917   98.28384  100.73985    2.82680   24.74241    0.06657    3.14953   51.95573    0.79321    8.50000 74000.00000
 1000.50000    8.57101   93.24401   93.58552   96.06480    2.82792   24.42659    0.06456    3.15102   52.31609    0.78960    8.50000 74000.00000
 1000.60000    8.57365   89.79481   90.19122   92.54108    2.83086   24.49542    0.06330    3.14994   52.61776    1.48432    8.50000 74000.00000
 1000.70000    8.57319   90.27484   89.90645   92.32603    2.82969   24.33806    0.06127    3.14776   52.14917    1.35384    8.50000 74000.00000
 1000.80000    8.57571   86.38164   85.96550   88.29733    2.82621   24.77429    0.06243    3.14290   52.02011    1.83160    8.50000 74000.00000
 1000.90000    8.57585   84.69699   84.37688   86.49562    2.82740   24.83283    0.06321    3.14575   52.02020    2.08696    8.50000 74000.00000
 1001.00000    8.57412   81.49319   81.14386   83.27321    2.82683   24.17856    0.06390    3.15202   51.84650    1.72352    8.50000 74000.00000
 1001.10000    8.57714   70.09566   72.02564   71.74087    2.82504   24.20274    0.06193    3.14835   51.77803    1.30912    8.50000 74000.00000
 1001.20000    8.57460   69.47149   70.45226   70.11365    2.82565   24.11592    0.06155    3.15202   51.58698    1.43714    8.50000 74000.00000
 1001.30000    8.57578   69.24773   70.67937   70.10776    2.81861   24.43614    0.06248    3.15132   51.77808    1.59840    8.50000 74000.00000
 1001.40000    8.57455   66.28422   67.79828   67.30171    2.81894   24.60375    0.06177    3.14308   52.17811    1.85460    8.50000 74000.00000
 1001.50000    8.57459   73.53726   75.29654   74.28570    2.81104   25.08945    0.05941    3.14121   52.07878    2.25956    8.50000 74000.00000
 1001.60000    8.57217   84.22017   86.29051   84.77149    2.81467   24.87141    0.05994    3.14488   52.05850    2.27793    8.50000 74000.00000
 1001.70000    8.57407  104.16853  101.83424  101.92059    2.81294   25.18939    0.05942    3.13845   51.88996    2.23215    8.50000 74000.00000
 1001.80000    8.57223  104.76111  101.23902  101.45276    2.81453   25.53759    0.05980    3.14400   52.20013    2.27422    8.50000 74000.00000
 1001.90000    8.57205  104.97078  101.29381  102.02824    2.81467   24.63197    0.06168    3.14262   52.27318    2.79770    8.50000 74000.00000
 1002.00000    8.57567  109.00332  104.81804  105.43665    2.81609   24.98309    0.06045    3.14325   52.35019    2.93294    8.50000 74000.00000
 1002.10000    8.57472  108.75675  104.56473  105.22939    2.81417   25.39899    0.06211    3.12460   52.33077    3.13101    8.50000 74000.00000
 1002.20000    8.57517  109.45372  105.34749  105.87362    2.81371   26.36103    0.06216    3.11902   52.29886    3.20606    8.50000 74000.00000
 1002.30000    8.57897  115.44054  110.61866  111.99430    2.81345   26.54115    0.06173    3.11533   52.53611    3.51969    8.50000 74000.00000
 1002.40000    8.58036  116.13328  110.64110  111.88350    2.81320   26.74118    0.05876    3.11879   52.66099    3.32523    8.50000 74000.00000
 1002.50000    8.57877  113.50696  108.06761  109.10301    2.81302   26.55455    0.05980    3.12495   52.61585    3.19007    8.50000 74000.00000
 1002.60000    8.58000  112.82388  107.81014  108.74554    2.81307   27.04349    0.05940    3.12135   52.46871    3.36905    8.50000 74000.00000
 1002.70000    8.57898  111.73332  106.70085  107.59616    2.81014   26.98973    0.06001    3.12765   52.06337    2.82778    8.50000 74000.00000
 1002.80000    8.58076  107.67567  103.38386  104.04526    2.81011   26.94332    0.06204    3.13670   52.17889    2.94292    8.50000 74000.00000
 1002.90000    8.57904  113.27000  109.61745  109.78092    2.81011   26.01359    0.06194    3.14097   52.43446    2.66999    8.50000 74000.00000
 1003.00000    8.57925  114.05026  110.45182  110.93758    2.80942   25.74808    0.06331    3.14348   52.47848    2.50144    8.50000 74000.00000
 1003.10000    8.58077  114.51896  110.96031  111.32831    2.80511   26.39302    0.06304    3.13253   52.41081    2.80152    8.50000 74000.00000
 1003.20000    8.57807  103.60949  100.61522  101.04723    2.80639   26.70769    0.06282    3.12495   52.54057    3.69163    8.50000 74000.00000
 1003.30000    8.58011   94.98394   91.91128   92.11252    2.80684   26.50124    0.06342    3.12034   52.77173    3.17383    8.50000 74000.00000
 1003.40000    8.57920   94.48928   91.20759   91.47873    2.81243   26.24961    0.06232    3.11767   52.93685    2.90676    8.50000 74000.00000
 1003.50000    8.57797   98.71089   94.81112   94.61835    2.81240   26.44349    0.06134    3.11955   52.88087    2.84624    8.50000 74000.00000
 1003.60000    8.57828   97.96013   93.32607   93.88859    2.81715   26.51495    0.06230    3.11864   53.08723    2.55688    8.50000 74000.00000
 1003.70000    8.58138   87.88266   82.41715   83.61611    2.82079   27.17198    0.06156    3.11513   53.22327    2.61823    8.50000 74000.00000
 1003.80000    8.58425   65.36263   63.53716   63.68446    2.81706   27.22483    0.06106    3.11964   53.29010    2.87789    8.50000 74000.00000
 1003.90000    8.58816   64.33560   62.83572   62.94736    2.81674   26.90042    0.06017    3.12601   53.02410    2.81712    8.50000 74000.00000
 1004.00000    8.59150   65.10850   63.44806   63.64905    2.81633   27.20641    0.05919    3.11964   52.75213    2.88464    8.50000 74000.00000
 1004.10000    8.59108   60.66947   59.63877   59.92132    2.81109   26.96403    0.06339    3.11516   52.56421    2.83085    8.50000 74000.00000
 1004.20000    8.59404   63.22037   62.63725   62.46850    2.81009   26.69552    0.06347    3.11734   52.15883    2.83944    8.50000 74000.00000
 1004.30000    8.59373   62.89827   62.84519   62.80484    2.81458   26.50605    0.06045    3.13192   52.17452    2.79067    8.50000 74000.00000
 1004.40000    8.59437   58.39492   58.81193   57.92036    2.81244   26.04624    0.06023    3.13198   51.99503    2.37147    8.50000 74000.00000
 1004.50000    8.59355   58.47892   58.33614   57.49951    2.80958   25.86336    0.06069    3.13683   51.74266    2.63232    8.50000 74000.00000
 1004.60000    8.59343   62.77208   61.75939   60.90559    2.80706   25.48327    0.06030    3.13352   52.04578    2.65392    8.50000 74000.00000
 1004.70000    8.59255   74.12237   73.69340   73.04934    2.80478   25.09948    0.06124    3.14156   51.74356    2.85827    8.50000 74000.00000
 1004.80000    8.59339   76.61050   75.94102   75.45628    2.79952   25.35080    0.06076    3.12875   51.87785    3.02643    8.50000 74000.00000
 1004.90000    8.59316   81.15191   80.63851   80.24128    2.80130   25.13601    0.05943    3.12524   52.12660    2.85425    8.50000 74000.00000
 1005.00000    8.59438   85.65550   83.41352   83.52198    2.80543   25.50905    0.05695    3.13254   51.84319    2.78664    8.50000 74000.00000
 1005.10000    8.59457   86.59784   83.83450   83.70469    2.80848   25.67100    0.05500    3.12729   51.76298    2.88470    8.50000 74000.00000
 1005.20000    8.59399   85.93500   83.12551   82.98947    2.81274   26.10559    0.05556    3.12672   51.82181    2.97381    8.50000 74000.00000
 1005.30000    8.59273   87.27375   84.28696   84.23397    2.81413   25.52839    0.05653    3.12348   51.58132    2.37578    8.50000 74000.00000
 1005.40000    8.58778  115.58617  115.87975  115.59294    2.81076   26.25334    0.05559    3.12003   51.67629    2.55624    8.50000 74000.00000
 1005.50000    8.58818  116.11567  116.60425  116.35166    2.81076   25.95919    0.05677    3.12297   51.53509    2.78609    8.50000 74000.00000
