~Version ---------------------------------------------------
VERS.   2.0 : CWLS log ASCII Standard -VERSION 2.0
WRAP.    NO : One line per depth step
DLM . SPACE : Column Data Section Delimiter
~Well ------------------------------------------------------
STRT.m          1000.00000 : START DEPTH
STOP.m          2000.00000 : STOP DEPTH
STEP.m             0.10000 : STEP
NULL.             -9999.25 : NULL VALUE
COMP. FORCE 2020 Recreator : 
WELL.   WELL_FORCE_2020_06 : 
FLD .                      : FIELD
LOC .                      : LOCATION
PROV.                      : PROVINCE
CNTY.                      : COUNTY
STAT.                      : STATE
CTRY.                      : COUNTRY
SRVC.                      : SERVICE COMPANY
DATE.                      : DATE
UWI .                      : UNIQUE WELL ID
API .                      : API NUMBER
~Curve Information -----------------------------------------
DEPT                            .m      : 
CALI                            .in     : 
RSHA                            .ohm.m  : 
RMED                            .ohm.m  : 
RDEP                            .ohm.m  : 
RHOB                            .g/cm3  : 
GR                              .gAPI   : 
NPHI                            .v/v    : 
PEF                             .b/e    : 
DTC                             .us/ft  : 
SP                              .mV     : 
BS                              .in     : 
FORCE_2020_LITHOFACIES_LITHOLOGY.code   : 
~Params ----------------------------------------------------
~Other -----------------------------------------------------
~ASCII -----------------------------------------------------
 1000.00000    8.31210   38.13315   35.84491   36.44829    2.35665   46.68955    0.21306    1.85729   84.28746  -33.55706    8.50000 30000.00000
 1000.10000    8.30791   37.09962   35.40715   35.73174    2.35925   46.63826    0.21282    1.85117   84.66822  -34.25739    8.50000 30000.00000
 1000.20000    8.31030   37.84523   36.53730   36.85641    2.35705   46.28807    0.21083    1.85131   84.43389  -34.49700    8.50000 30000.00000
 1000.30000    8.31045   36.06611   35.19336   35.36836    2.35757   46.58500    0.20843    1.85399   84.03938  -34.10816    8.50000 30000.00000
 1000.40000    8.30487   34.55698   33.91883   34.07668    2.35725   47.34964    0.20700    1.85947   83.60630  -34.24420    8.50000 30000.00000
 1000.50000    8.31005   32.56848   31.96104   32.10491    2.35139   47.16553    0.20643    1.85171   83.75545  -34.75985    8.50000 30000.00000
 1000.60000    8.30965   32.02418   31.43975   31.62034    2.34715   46.90796    0.20987    1.84272   83.54928  -34.60247    8.50000 30000.00000
 1000.70000    8.30746   34.87930   34.01178   34.26181    2.34906   46.45152    0.21016    1.83965   83.39897  -34.83745    8.50000 30000.00000
 1000.80000    8.31237   33.26717   32.44863   32.68346    2.34491   46.19819    0.20847    1.84173   83.62556  -35.08479    8.50000 30000.00000
 1000.90000    8.31303   34.09446   33.17322   33.43629    2.34464   46.74662    0.20837    1.83902   83.63074  -35.36359    8.50000 30000.00000
 1001.00000    8.31447   33.84712   33.00908   33.25013    2.34697   46.68498    0.20779    1.84365   83.41685  -34.85622    8.50000 30000.00000
 1001.10000    8.31544   33.72830   32.89699   33.03334    2.34982   46.07663    0.20410    1.83880   83.51184  -34.72916    8.50000 30000.00000
 1001.20000    8.31579   33.98841   33.08144   33.14989    2.35275   45.62510    0.20285    1.84887   83.33166  -34.01597    8.50000 30000.00000
 1001.30000    8.31552   33.55972   32.84126   32.85673    2.35346   45.00387    0.20491    1.84177   83.35111  -34.35910    8.50000 30000.00000
 1001.40000    8.31642   33.84283   33.01578   33.14662    2.35059   44.97001    0.20378    1.83529   82.85881  -34.59593    8.50000 30000.00000
 1001.50000    8.31657   32.66258   31.68126   31.75594    2.35468   44.78725    0.20297    1.85339   82.88981  -34.83819    8.50000 30000.00000
 1001.60000    8.31907   32.93714   31.92382   32.01810    2.35049   45.08849    0.20225    1.86091   83.21320  -34.93581    8.50000 30000.00000
 1001.70000    8.31799   33.88030   32.52673   32.65542    2.34931   45.59542    0.20551    1.85916   82.83198  -34.79297    8.50000 30000.00000
 1001.80000    8.31849   35.62196   33.73619   33.98943    2.35194   44.32972    0.20922    1.85896   82.56517  -34.63784    8.50000 30000.00000
 1001.90000    8.32046   33.65994   32.33020   32.46345    2.34750   44.36422    0.20668    1.85274   82.36323  -35.12416    8.50000 30000.00000
 1002.00000    8.32421   28.89097   28.71322   28.78886    2.34462   43.99703    0.20764    1.84180   81.91794  -34.72195    8.50000 30000.00000
 1002.10000    8.32158   27.51194   27.13867   27.22811    2.34950   44.09789    0.20810    1.83322   82.13780  -35.20107    8.50000 30000.00000
 1002.20000    8.32586   27.04272   26.56433   26.81812    2.34663   43.83034    0.20631    1.83295   82.03431  -34.89278    8.50000 30000.00000
 1002.30000    8.32344   25.10061   24.46144   24.72120    2.34830   44.14462    0.20649    1.82962   81.98329  -35.02303    8.50000 30000.00000
 1002.40000    8.32260   25.14017   24.34400   24.66494    2.34827   43.63760    0.20753    1.82630   82.21219  -35.37660    8.50000 30000.00000
 1002.50000    8.32713   26.41022   26.08338   26.19140    2.34708   42.81700    0.20834    1.82432   82.38907  -35.37115    8.50000 30000.00000
 1002.60000    8.32194   26.87055   26.55589   26.64457    2.35224   42.72345    0.20919    1.83629   82.23899  -35.02886    8.50000 30000.00000
 1002.70000    8.32225   26.18949   25.86878   25.90359    2.35616   42.78356    0.20748    1.84871   82.49465  -35.07281    8.50000 30000.00000
 1002.80000    8.32831   23.45234   23.50905   23.33668    2.36037   42.76009    0.20909    1.85745   82.49186  -34.67478    8.50000 30000.00000
 1002.90000    8.32399   24.40492   24.53666   24.31585    2.36616   42.31950    0.20665    1.85347   82.10147  -34.53107    8.50000 30000.00000
 1003.00000    8.32077   22.86605   23.16376   22.90598    2.36700   41.80841    0.20619    1.85155   82.05726  -34.58182    8.50000 30000.00000
 1003.10000    8.31975   23.00299   23.44330   23.08147    2.36889   41.62154    0.20808    1.85041   82.48994  -35.35394    8.50000 30000.00000
 1003.20000    8.31756   23.29438   23.74542   23.43574    2.36955   41.11753    0.21077    1.85363   82.17535  -35.24223    8.50000 30000.00000
 1003.30000    8.31753   23.63885   24.20545   23.76305    2.36667   41.87769    0.20996    1.84314   82.43226  -35.42705    8.50000 30000.00000
 1003.40000    8.31901   24.21145   24.69131   24.26071    2.36513   42.50680    0.21047    1.84630   82.56232  -35.49396    8.50000 30000.00000
 1003.50000    8.31969   24.10338   24.69726   24.16053    2.37033   43.14498    0.21120    1.85682   82.13429  -35.33961    8.50000 30000.00000
 1003.60000    8.31910   23.52726   24.21136   23.72639    2.36795   43.96675    0.21249    1.84741   82.58149  -35.52070    8.50000 30000.00000
 1003.70000    8.31312   22.84538   23.74742   23.25305    2.37190   43.46818    0.21224    1.83628   82.48197  -35.64782    8.50000 30000.00000
 1003.80000    8.31386   22.27475   23.33762   22.89225    2.37074   43.28587    0.21134    1.83701   82.78611  -35.87014    8.50000 30000.00000
 1003.90000    8.31462   19.66534   20.88288   20.34520    2.36559   44.33977    0.20779    1.82940   83.01490  -35.71492    8.50000 30000.00000
 1004.00000    8.31244   20.34667   21.56064   20.88811    2.36712   44.46975    0.20752    1.82915   83.10096  -35.94129    8.50000 30000.00000
 1004.10000    8.31307   20.27057   21.47366   20.80947    2.37121   43.89166    0.20962    1.83331   83.19082  -35.81102    8.50000 30000.00000
 1004.20000    8.31552   20.42688   21.57892   20.98792    2.36095   43.53143    0.20777    1.83615   83.32862  -35.29760    8.50000 30000.00000
 1004.30000    8.31216   19.88432   20.92295   20.30269    2.36349   43.72973    0.21004    1.83843   82.69553  -34.97815    8.50000 30000.00000
 1004.40000    8.31655   20.38831   21.46824   20.84600    2.36120   43.70073    0.20804    1.84697   82.90596  -34.61771    8.50000 30000.00000
 1004.50000    8.31727   20.50660   21.45909   20.86856    2.36268   44.40901    0.20784    1.83757   83.04556  -34.53767    8.50000 30000.00000
 1004.60000    8.31738   21.43528   21.75617   21.12246    2.36329   44.08765    0.20575    1.83022   83.32318  -34.57517    8.50000 30000.00000
 1004.70000    8.32027   21.57307   21.84452   21.20803    2.36092   44.61691    0.20521    1.81804   83.29683  -34.65945    8.50000 30000.00000
 1004.80000    8.32549   22.05360   22.31641   -9999.25    2.36262   44.27717    0.20300    1.81912   83.11725  -34.83840    8.50000 30000.00000
 1004.90000    8.32205   21.10471   21.22059   20.67164    2.35540   44.77340    0.20150    1.81039   83.52598  -35.20248    8.50000 30000.00000
 1005.00000    8.32343   20.27203   20.32284   19.83720    2.35128   45.14135    0.20534    1.81193   83.71802  -35.30908    8.50000 30000.00000
 1005.10000    8.32739   21.50745   21.48633   20.98358    2.35416   44.35651    0.20203    1.82050   83.74005  -35.33758    8.50000 30000.00000
 1005.20000    8.32439   20.39360   20.16794   19.79602    2.34817   44.93049    0.20193    1.81705   83.87866  -35.58705    8.50000 30000.00000
 1005.30000   -9999.25   20.69019   20.87549   20.60944    2.34682   45.45728    0.20030    1.81771   83.90936  -36.46988    8.50000 30000.00000
 1005.40000    8.32664   20.63514   20.79000   20.60210    2.34356   44.97884    0.20063    1.81796   83.79508  -36.89538    8.50000 30000.00000
 1005.50000    8.32128   22.20207   22.55783   22.19826    2.33683   44.92494    0.20083    1.81425   83.81325  -36.95291    8.50000 30000.00000
