~Version ---------------------------------------------------
VERS.   2.0 : CWLS log ASCII Standard -VERSION 2.0
WRAP.    NO : One line per depth step
DLM . SPACE : Column Data Section Delimiter
~Well ------------------------------------------------------
STRT.m          1000.00000 : START DEPTH
STOP.m          2000.00000 : STOP DEPTH
STEP.m             0.10000 : STEP
NULL.             -9999.25 : NULL VALUE
COMP. FORCE 2020 Recreator : 
WELL.   WELL_FORCE_2020_03 : 
FLD .                      : FIELD
LOC .                      : LOCATION
PROV.                      : PROVINCE
CNTY.                      : COUNTY
STAT.                      : STATE
CTRY.                      : COUNTRY
SRVC.                      : SERVICE COMPANY
DATE.                      : DATE
UWI .                      : UNIQUE WELL ID
API .                      : API NUMBER
~Curve Information -----------------------------------------
DEPT                            .m      : 
CALI                            .in     : 
RSHA                            .ohm.m  : 
RMED                            .ohm.m  : 
RDEP                            .ohm.m  : 
RHOB                            .g/cm3  : 
GR                              .gAPI   : 
NPHI                            .v/v    : 
PEF                             .b/e    : 
DTC                             .us/ft  : 
SP                              .mV     : 
BS                              .in     : 
FORCE_2020_LITHOFACIES_LITHOLOGY.code   : 
~Params ----------------------------------------------------
~Other -----------------------------------------------------
~ASCII -----------------------------------------------------
# ...
 1598.90000    8.58541   11.39236   11.89141   11.75762    2.19923   91.57691    0.33824    2.99945  100.60881    2.75321    8.50000 99000.00000
 1599.00000    8.58369   11.19530   11.81054   11.66341    2.19152   92.14766    0.33707    3.02388  100.06247    2.53683    8.50000 99000.00000
 1599.10000    8.58377   10.45115   11.04017   10.92641    2.19488   92.09597    0.33960    3.03080  100.11906    2.90690    8.50000 99000.00000
 1599.20000    8.58254   -9999.25   11.45142   11.37548    2.20144   92.61487    0.33471    3.04270   99.48717    3.16389    8.50000 99000.00000
 1599.30000    8.58153   10.66868   11.11577   11.04038    2.19270   94.04506    0.33159    3.02279   99.44954    3.12382    8.50000 99000.00000
 1599.40000    8.58120   10.47759   10.90151   10.83800    2.18781   92.92196    0.32992    2.99886   98.84430    3.26688    8.50000 99000.00000
 1599.50000    8.57733   10.66781   11.08488   10.99598    2.18466   91.75918    0.32706    2.99957   98.29520    3.51046    8.50000 99000.00000
 1599.60000    8.57872   10.00959   10.15102   10.16143    2.18621   91.74289    0.33447    2.97666   98.50386    2.78508    8.50000 99000.00000
 1599.70000    8.57789    9.73722    9.88988    9.88005    2.19342   91.88258    0.32780    2.96640   98.00867    2.62149    8.50000 99000.00000
 1599.80000    8.57900    9.90799   10.13371   10.09962    2.19869   91.72083    0.32668    2.96297   98.26028    2.22300    8.50000 99000.00000
 1599.90000    8.57710    9.80148    9.97941    9.95262    2.18548   91.32196    0.32977    2.98317   98.42119    1.97832    8.50000 99000.00000
 1600.00000    8.57704    9.22215    9.37412    9.38966    2.19344   91.40140    0.33056    2.98942   98.67933    1.84269    8.50000 99000.00000
 1600.10000    8.57414    9.02765    9.35101    9.33145    2.18935   90.44228    0.33530    3.00642   98.32973    1.55269    8.50000 99000.00000
 1600.20000    8.57398   10.62738   10.98778   10.92972    2.19128   89.41484    0.32987    3.00407   97.91495    1.68444    8.50000 99000.00000
 1600.30000    8.57271   10.84996   11.20349   11.14700    2.19040   90.80983    0.32689    3.00417   97.06076    2.19248    8.50000 99000.00000
 1600.40000    8.57427   11.45174   11.73167   11.71295    2.18822   90.69746    0.32330    3.00135   96.95117    1.96389    8.50000 99000.00000
 1600.50000    8.57346   10.91431   11.11435   11.15783    2.18281   90.62493    0.32155    3.03364   96.59065    1.94761    8.50000 99000.00000
 1600.60000    8.57341   10.57593   10.72503   10.74430    2.18605   90.37272    0.32528    3.03652   96.71678    2.10784    8.50000 99000.00000
 1600.70000    8.57366    9.58067    9.66513    9.67034    2.18454   91.96531    0.32992    3.02931   96.54895    2.18386    8.50000 99000.00000
 1600.80000    8.57481    8.70029    8.75919    8.79555    2.18545   91.59651    0.32737    3.07879   95.33841    2.35027    8.50000 99000.00000
 1600.90000    8.57255    9.01392    9.07591    9.10401    2.17648   91.16810    0.32548    3.06309   95.00985    2.37762    8.50000 99000.00000
 1601.00000    8.57407    8.77098    8.89226    8.87271    2.16827   91.74863    0.32555    3.06191   95.03947    2.52196    8.50000 99000.00000
 1601.10000    8.57725    8.84299    9.02272    8.98631    2.16875   91.32920    0.32411    3.06186   95.15300    2.73371    8.50000 99000.00000
 1601.20000    8.57790    8.99165    9.16840    9.12479    2.15996   91.09848    0.31722    3.06655   95.72836    2.57352    8.50000 99000.00000
 1601.30000    8.57961    8.45147    8.74534    8.63308    2.16211   91.26435    0.31840    3.05572   96.87262    2.59238    8.50000 99000.00000
 1601.40000    8.57691    8.66120    8.94342    8.81878    2.15360   92.23772    0.32204    3.06624   95.95778    2.55238    8.50000 99000.00000
 1601.50000    8.57577    8.89151    9.14522    8.99923    2.15736   92.70123    0.31512    3.08785   96.31548    2.26225    8.50000 99000.00000
 1601.60000    8.57621    8.68392    8.98477    8.85659    2.15730   93.02992    0.32026    3.08595   97.03996    2.18292    8.50000 99000.00000
 1601.70000    8.57447    8.41302    8.79064    8.62597    2.16180   92.84901    0.31804    3.09179   96.74149    2.10447    8.50000 99000.00000
 1601.80000    8.57432    8.87394    9.19129    9.05028    2.15595   92.99785    0.31979    3.06465   97.27787    2.27100    8.50000 99000.00000
 1601.90000    8.57501    9.12612    9.40919    9.27072    2.15091   93.50799    0.32492    3.04676   96.78392    2.42620    8.50000 99000.00000
 1602.00000    8.57628    9.17174    9.46427    9.34578    2.15763   93.84304    0.32172    3.03691   97.00365    2.81493    8.50000 99000.00000
 1602.10000    8.57874   11.71601   11.81582   11.61203    2.15317   94.15977    0.32282    3.04264   96.30973    2.85687    8.50000 99000.00000
 1602.20000    8.58165   11.42310   11.40103   11.20504    2.16001   94.69277    0.32160    3.01428   96.34337    3.12072    8.50000 99000.00000
 1602.30000    8.58014    9.57771    9.50857    9.38058    2.15236   94.49586    0.32314    3.00011   95.86333    2.53844    8.50000 99000.00000
 1602.40000    8.58424    9.26295    9.18076    9.07905    2.15963   94.40429    0.32494    2.97254   96.72401    2.25004    8.50000 99000.00000
 1602.50000    8.58013    8.63724    8.58104    8.46846    2.15481   94.97001    0.33007    2.97940   96.92557    2.27438    8.50000 99000.00000
 1602.60000    8.58054    8.59473    8.50779    8.38449    2.15204   94.41524    0.33025    2.96720   97.70825    2.00863    8.50000 99000.00000
 1602.70000    8.58044    8.64260    8.61631    8.47326    2.14933   95.22775    0.32992    2.98457   98.06336    2.15494    8.50000 99000.00000
 1602.80000    8.57806    8.88514    8.77868    8.62916    2.14466   95.62975    0.32922    2.99789   99.04736    1.76281    8.50000 99000.00000
 1602.90000    8.57780    9.33962    9.21146    9.06090    2.14003   95.35563    0.33291    2.96383   99.91837    1.53835    8.50000 99000.00000
 1603.00000    8.57751    9.68769    9.58260    9.43193    2.14740   94.87347    0.33128    2.97450  100.58598    1.89424    8.50000 99000.00000
 1603.10000    8.57889    9.86841    9.80156    9.63323    2.14849   95.14875    0.32978    2.96413  100.31120    1.97020    8.50000 99000.00000
 1603.20000    8.57573    9.87541    9.70829    9.59512    2.14616   95.23947    0.32683    2.95402  100.39898    1.97115    8.50000 99000.00000
 1603.30000    8.57504    9.90348    9.74574    9.62657    2.16613   95.99196    0.33449    2.94430  100.04457    2.12894    8.50000 99000.00000
 1603.40000    8.57523    9.97493    9.81757    9.67702    2.16686   94.62127    0.33679    2.95931   99.72460    2.14166    8.50000 99000.00000
 1603.50000    8.57601   10.46459   10.51637   10.35634    2.16540   93.68992    0.33205    2.94727   99.94651    2.29474    8.50000 99000.00000
 1603.60000    8.57387   10.35242   10.48182   10.32266    2.16883   93.53731    0.33820    2.94390   99.93110    2.27015    8.50000 99000.00000
 1603.70000    8.57553   10.61348   10.73509   10.57392    2.17049   93.31725    0.33532    2.95194   99.66525    2.30383    8.50000 99000.00000
 1603.80000    8.57781   10.65929   10.71550   10.55711    2.16821   93.35948    0.33329    2.93919   98.75837    2.53513    8.50000 99000.00000
 1603.90000    8.57480   10.30799   10.42973   10.24773    2.17370   93.77720    0.33256    2.95341   98.55238    2.05657    8.50000 99000.00000
 1604.00000    8.57164    9.74673    9.85564    9.70829    2.17414   94.53362    0.32642    2.96662   97.85165    2.16902    8.50000 99000.00000
 1604.10000    8.57176    9.83242    9.97496    9.81238    2.17482   94.39687    0.33526    2.96900   97.02259    2.30009    8.50000 99000.00000
 1604.20000    8.56985    7.26628    7.63175    7.54047    2.17534   93.14395    0.33258    2.96335   97.22363    2.41934    8.50000 99000.00000
 1604.30000    8.57206    7.13163    7.52089    7.43016    2.17087   92.78779    0.32954    2.97520   97.73153    2.34882    8.50000 99000.00000
 1604.40000    8.57167    7.17746    7.56380    7.47063    2.17775   92.26738    0.33117    2.96289   97.53726    2.60535    8.50000 99000.00000
