~Version ---------------------------------------------------
VERS.   2.0 : CWLS log ASCII Standard -VERSION 2.0
WRAP.    NO : One line per depth step
DLM . SPACE : Column Data Section Delimiter
~Well ------------------------------------------------------
STRT.m          1000.00000 : START DEPTH
STOP.m          2000.00000 : STOP DEPTH
STEP.m             0.10000 : STEP
NULL.             -9999.25 : NULL VALUE
COMP. FORCE 2020 Recreator : 
WELL.   WELL_FORCE_2020_08 : 
FLD .                      : FIELD
LOC .                      : LOCATION
PROV.                      : PROVINCE
CNTY.                      : COUNTY
STAT.                      : STATE
CTRY.                      : COUNTRY
SRVC.                      : SERVICE COMPANY
DATE.                      : DATE
UWI .                      : UNIQUE WELL ID
API .                      : API NUMBER
~Curve Information -----------------------------------------
DEPT                            .m      : 
CALI                            .in     : 
RSHA                            .ohm.m  : 
RMED                            .ohm.m  : 
RDEP                            .ohm.m  : 
RHOB                            .g/cm3  : 
GR                              .gAPI   : 
NPHI                            .v/v    : 
PEF                             .b/e    : 
DTC                             .us/ft  : 
SP                              .mV     : 
BS                              .in     : 
FORCE_2020_LITHOFACIES_LITHOLOGY.code   : 
~Params ----------------------------------------------------
~Other -----------------------------------------------------
~ASCII -----------------------------------------------------
# ...
 1795.20000    8.57169   90.75931   92.26132   91.81146    2.81640   25.54638    0.04909    3.14171   53.22253    2.47558    8.50000 74000.00000
 1795.30000    8.56833   93.21937   93.82381   93.62839    2.81460   25.90773    0.05003    3.13521   53.23712    2.86100    8.50000 74000.00000
 1795.40000    8.56764   90.26941   91.28631   90.85818    2.81430   25.93064    0.05256    3.13344   53.24132    2.84750    8.50000 74000.00000
 1795.50000    8.57048   93.87833   94.29556   94.33846    2.81180   25.99545    0.05594    3.13511   53.22836    3.25353    8.50000 74000.00000
 1795.60000    8.57220   97.51809   98.77826   98.77067    2.81206   25.53183    0.05408    3.12706   53.07927    3.05715    8.50000 74000.00000
 1795.70000    8.57068   93.27966   94.34228   94.44923    2.81213   25.21805    0.05530    3.13289   53.38195    2.94390    8.50000 74000.00000
 1795.80000    8.57084   87.23103   88.94668   88.87249    2.81170   25.07363    0.05640    3.13214   53.04904    2.50727    8.50000 74000.00000
 1795.90000    8.57136   86.63265   89.17807   89.45634    2.81243   25.59683    0.05802    3.13992   52.91193    1.83653    8.50000 74000.00000
 1796.00000    8.57151   91.82341   95.06506   95.04979    2.81387   26.44340    0.05964    3.14163   52.99902    1.61582    8.50000 74000.00000
 1796.10000    8.57119   86.99746   91.49220   91.15062    2.81144   25.86854    0.05964    3.14230   52.75929    1.40723    8.50000 74000.00000
 1796.20000    8.57430   86.51431   90.47095   90.14465    2.80970   26.15262    0.05997    3.14116   52.51231    1.63884    8.50000 74000.00000
 1796.30000    8.57303   83.94265   88.71664   88.49160    2.81093   26.31809    0.06046    3.15014   51.82134    1.74864    8.50000 74000.00000
 1796.40000    8.57315   78.43843   80.91983   81.52424    2.81079   26.46242    0.05970    3.15142   51.68928    1.71094    8.50000 74000.00000
 1796.50000    8.57277   74.54838   77.39647   78.47906    2.81174   26.01426    0.06065    3.14870   51.70426    1.54285    8.50000 74000.00000
 1796.60000    8.57393   71.75437   74.52162   75.88812    2.81102   26.02656    0.05967    3.15280   51.54877    1.59821    8.50000 74000.00000
 1796.70000    8.57580   72.19125   75.58017   76.68522    2.81033   26.27530    0.06256    3.15325   51.38652    1.65269    8.50000 74000.00000
 1796.80000    8.57315   67.95363   70.96928   72.09281    2.81243   26.61107    0.06091    3.13893   51.51910    2.11509    8.50000 74000.00000
 1796.90000    8.57430   65.65167   69.16538   70.19287    2.81430   26.85674    0.06101    3.13955   51.69166    1.95633    8.50000 74000.00000
 1797.00000    8.57507   65.25283   68.78835   69.62253    2.81698   26.76891    0.06258    3.14712   51.62309    1.36186    8.50000 74000.00000
 1797.10000    8.57561   64.38954   67.57793   68.90729    2.82150   26.90051    0.06310    3.14414   51.34776    1.30602    8.50000 74000.00000
 1797.20000    8.57838   61.64618   62.79741   64.22987    2.82113   26.91837    0.06355    3.13572   51.57085    1.33544    8.50000 74000.00000
 1797.30000    8.58050   61.43878   62.33798   63.83986    2.81957   27.42351    0.06450    3.14239   51.42793    1.75192    8.50000 74000.00000
 1797.40000    8.58068   60.51152   62.43262   63.59032    2.82297   27.35535    0.06365    3.15501   51.44005    1.78608    8.50000 74000.00000
 1797.50000    8.58155   56.62293   57.67147   58.84256    2.82031   27.17884    0.06177    3.15403   51.09978    1.99732    8.50000 74000.00000
 1797.60000    8.58024   53.46756   54.98406   55.83235    2.82116   27.51341    0.05954    3.14876   51.23575    2.48446    8.50000 74000.00000
 1797.70000    8.57739   51.00972   51.51511   52.47118    2.82026   27.39368    0.06008    3.15390   51.06533    2.09984    8.50000 74000.00000
 1797.80000    8.58151   54.83896   55.92290   56.86143    2.82264   27.89840    0.05927    3.15038   50.57467    2.43165    8.50000 74000.00000
 1797.90000    8.58058   55.00124   56.50175   57.29740    2.82067   27.87120    0.05810    3.14703   50.77465    2.83277    8.50000 74000.00000
 1798.00000    8.57822   55.49776   56.53666   56.94449    2.81917   27.01166    0.05917    3.14321   50.90587    3.00719    8.50000 74000.00000
 1798.10000    8.57748   54.96549   56.37116   57.01896    2.81539   26.97657    0.05868    3.12928   51.06899    3.07644    8.50000 74000.00000
 1798.20000    8.58077   55.70368   56.84973   57.58893    2.81476   26.98049    0.05812    3.12247   51.27455    3.36072    8.50000 74000.00000
 1798.30000    8.57703   62.73637   62.57548   63.69540    2.81610   26.67058    0.05707    3.11360   51.31718    3.45850    8.50000 74000.00000
 1798.40000    8.58072   62.07418   61.52863   62.45781    2.82006   26.75893    0.05897    3.09868   51.71431    3.72663    8.50000 74000.00000
 1798.50000    8.58241   62.67837   62.24222   63.19325    2.81958   27.10251    0.06174    3.10054   51.83091    3.69482    8.50000 74000.00000
 1798.60000    8.58192   60.29619   60.08660   60.92642    2.81969   26.80080    0.06226    3.10325   51.72785    3.77649    8.50000 74000.00000
 1798.70000    8.58262   59.09044   58.95367   59.72311    2.82258   26.44474    0.06374    3.10577   51.56540    3.77617    8.50000 74000.00000
 1798.80000    8.58219   57.45634   57.14799   57.89474    2.82472   25.96075    0.06395    3.10885   51.43552    3.62853    8.50000 74000.00000
 1798.90000    8.58440   59.12781   58.62160   59.26821    2.82745   25.53237    0.06509    3.10455   51.56033    3.41969    8.50000 74000.00000
 1799.00000    8.58210   59.38616   58.89844   59.61727    2.82839   25.26631    0.06578    3.09683   51.47006    3.76948    8.50000 74000.00000
 1799.10000    8.58039   62.15893   62.20167   62.89067    2.82816   25.39792    0.06454    3.09475   51.28585    3.76035    8.50000 74000.00000
 1799.20000    8.58351   58.59345   59.29940   59.37344    2.82413   24.69625    0.06680    3.10812   51.46403    3.35401    8.50000 74000.00000
 1799.30000    8.58379   76.61401   75.36519   75.46600    2.82229   24.62806    0.06617    3.11150   51.39482    3.34842    8.50000 74000.00000
 1799.40000    8.58528   91.55732   89.19891   89.33367    2.82218   24.35272    0.06501    3.10541   51.16581    2.79824    8.50000 74000.00000
 1799.50000    8.58304  100.23976   97.30882   97.11943    2.82025   24.30202    0.06565    3.10328   51.21429    2.75919    8.50000 74000.00000
 1799.60000    8.58450  107.84196  104.80914  104.69090    2.82203   24.45007    0.06503    3.10359   51.22846    2.75931    8.50000 74000.00000
 1799.70000    8.58319  107.83731  105.44377  105.21393    2.81898   24.41852    0.06382    3.10542   51.32406    2.02498    8.50000 74000.00000
 1799.80000    8.58492  115.67994  114.73883  114.86312    2.81907   24.23438    0.06559    3.10204   51.56336    2.46906    8.50000 74000.00000
 1799.90000    8.58485  112.22302  110.81267  110.95368    2.81706   24.33506    0.06427    3.10392   51.93180    2.19043    8.50000 74000.00000
 1800.00000    8.58484  111.93124  110.33600  110.41291    2.81652   24.30316    0.06399    3.10884   51.82642    2.32436    8.50000 74000.00000
 1800.10000    8.58573  119.94217  117.40226  117.14314    2.81488   24.42689    0.06275    3.09707   51.62158    2.40674    8.50000 74000.00000
 1800.20000    8.58511  114.26733  110.49438  110.13547    2.81690   23.90878    0.06242    3.10312   51.68276    2.59454    8.50000 74000.00000
 1800.30000    8.58334  118.78904  114.62465  114.09116    2.81759   23.84682    0.06201    3.11227   51.34864    2.51931    8.50000 74000.00000
 1800.40000    8.58361  112.47170  109.54356  108.68356    2.81561   23.93172    0.06231    3.13181   51.46362    2.51399    8.50000 74000.00000
 1800.50000    8.58159  112.68386  109.48330  108.49018    2.81296   23.86301    0.05910    3.13926   51.38878    2.66438    8.50000 74000.00000
 1800.60000    8.57916  113.27406  109.76491  108.79510    2.81151   23.52531    0.05780    3.13647   51.27110    2.80252    8.50000 74000.00000
 1800.70000    8.57675  123.23837  117.52167  116.88375    2.81184   23.78777    0.05795    3.13907   51.50446    3.36540    8.50000 74000.00000
