~Version ---------------------------------------------------
VERS.   2.0 : CWLS log ASCII Standard -VERSION 2.0
WRAP.    NO : One line per depth step
DLM . SPACE : Column Data Section Delimiter
~Well ------------------------------------------------------
STRT.m          1000.00000 : START DEPTH
STOP.m          2000.00000 : STOP DEPTH
STEP.m             0.10000 : STEP
NULL.             -9999.25 : NULL VALUE
COMP. FORCE 2020 Recreator : 
WELL.   WELL_FORCE_2020_08 : 
FLD .                      : FIELD
LOC .                      : LOCATION
PROV.                      : PROVINCE
CNTY.                      : COUNTY
STAT.                      : STATE
CTRY.                      : COUNTRY
SRVC.                      : SERVICE COMPANY
DATE.                      : DATE
UWI .                      : UNIQUE WELL ID
API .                      : API NUMBER
~Curve Information -----------------------------------------
DEPT                            .m      : 
CALI                            .in     : 
RSHA                            .ohm.m  : 
RMED                            .ohm.m  : 
RDEP                            .ohm.m  : 
RHOB                            .g/cm3  : 
GR                              .gAPI   : 
NPHI                            .v/v    : 
PEF                             .b/e    : 
DTC                             .us/ft  : 
SP                              .mV     : 
BS                              .in     : 
FORCE_2020_LITHOFACIES_LITHOLOGY.code   : 
~Params ----------------------------------------------------
~Other -----------------------------------------------------
~ASCII -----------------------------------------------------
# ...
 1929.60000    8.57707 2000.83253 2119.25141 2119.73820    2.96052   12.70569    0.01953    5.05280   50.30742    5.97594    8.50000 86000.00000
 1929.70000    8.57793 2069.82270 2168.46916 2175.74285    2.96537   12.37647    0.02028    5.06251   50.27774    6.11126    8.50000 86000.00000
 1929.80000    8.58017 1998.24911 2082.39262 2097.46364    2.96467   12.23055    0.02145    5.06959   50.16862    6.03757    8.50000 86000.00000
 1929.90000    8.58003 2140.60091 2208.22789 2223.16659    2.96730   12.25430    0.02182    5.05604   50.32089    6.21709    8.50000 86000.00000
 1930.00000    8.57993 2021.07627 2048.15650 2050.68976    2.96572   12.07891    0.02247    5.05078   50.21559    6.11041    8.50000 86000.00000
 1930.10000    8.57519 2052.42033 2079.28602 2081.62629    2.96490   12.15770    0.02207    5.04178   50.11423    6.28006    8.50000 86000.00000
 1930.20000    8.57698 2145.53250 2142.40755 2130.71828    2.96529   12.13720    0.02196    5.03356   50.11534    6.16781    8.50000 86000.00000
 1930.30000    8.57921 2005.93682 1987.44541 1996.16460    2.96390   12.06464    0.02296    5.03440   49.93469    5.94362    8.50000 86000.00000
 1930.40000    8.57894 1993.88801 1977.40769 1986.41356    2.96315   11.98883    0.02222    5.02440   49.98932    6.05878    8.50000 86000.00000
 1930.50000    8.57694 1958.55725 1931.71791 1939.73226    2.95863   11.77926    0.02242    5.01669   50.13069    5.92776    8.50000 86000.00000
 1930.60000    8.57501 2341.59347 2405.16942 2399.71902    2.95613   11.60238    0.02285    5.02486   50.26026    5.83696    8.50000 86000.00000
 1930.70000    8.57363 2380.87054 2439.32123 2440.96360    2.95754   11.84989    0.02265    5.02403   50.22819    6.03022    8.50000 86000.00000
 1930.80000    8.57520 2336.11184 2382.88657 2392.40859    2.95787   12.01231    0.02361    5.03282   50.04702    5.80516    8.50000 86000.00000
 1930.90000    8.57473 2497.11862 2549.98959 2572.51993    2.95736   11.75953    0.02366    5.03934   50.15858    6.01459    8.50000 86000.00000
 1931.00000    8.57470 2430.37899 2486.31074 2509.74581    2.95720   11.76531    0.02354    5.04524   50.00519    5.79387    8.50000 86000.00000
 1931.10000    8.57483 2345.01299 2403.12337 2431.27507    2.95516   11.75163    0.02279    5.03908   49.91929    5.86119    8.50000 86000.00000
 1931.20000    8.57548 2361.86798 2416.38034 2442.20120    2.95633   11.45124    0.02369    5.05470   49.94501    6.23783    8.50000 86000.00000
 1931.30000    8.57612 2344.50222 2388.60603 2414.77378    2.95443   11.72010    0.02434    5.05036   49.73295    6.28008    8.50000 86000.00000
 1931.40000    8.57747 2798.75799 2882.95229 2885.01980    2.95820   12.03516    0.02395    5.04513   49.76619    6.37335    8.50000 86000.00000
 1931.50000    8.57468 2623.62278 2687.65910 2650.28910    2.95698   11.69320    0.02305    5.04603   49.85740    6.10557    8.50000 86000.00000
 1931.60000    8.57447 2642.83608 2691.70342 2658.86244    2.95431   11.87885    0.02341    5.03584   50.09988    6.01823    8.50000 86000.00000
 1931.70000    8.57840 2622.32562   -9999.25 2639.80633    2.95421   11.91612    0.02324    5.03333   50.12115    6.27730    8.50000 86000.00000
 1931.80000    8.57764 2953.77425 3001.03139 2968.08709    2.95185   12.12590    0.02268    5.04090   50.26464    6.09661    8.50000 86000.00000
 1931.90000    8.57725 2986.86546 3026.29968 2995.46117    2.94980   12.47228    0.02262    5.04102   50.36956    5.99877    8.50000 86000.00000
 1932.00000    8.57601 2817.21185 2877.49005 2841.44744    2.94682   12.60425    0.02130    5.05164   50.29429    6.04568    8.50000 86000.00000
 1932.10000    8.57483 2929.58111 3012.87239 2989.78480    2.94833   12.49520    0.02108    5.05613   50.46852    5.91461    8.50000 86000.00000
 1932.20000    8.57578 2857.58672 2945.51578 2920.79691    2.94732   12.37953    0.02134    5.04167   50.52787    5.85128    8.50000 86000.00000
 1932.30000    8.57458 2657.82725 2769.08858 2751.36355    2.94779   12.63204    0.02167    5.03093   50.58367    5.81804    8.50000 86000.00000
 1932.40000    8.57087 2616.35561 2728.91394 2710.71955    2.94804   12.62823    0.02146    5.00812   50.44044    6.01255    8.50000 86000.00000
 1932.50000    8.57022 2642.36915 2752.30008 2733.27483    2.95096   12.69407    0.02139    5.01459   50.31383    5.87080    8.50000 86000.00000
 1932.60000    8.57219 2667.70324 2771.98838 2753.38284    2.95371   12.86613    0.02103    5.02072   50.18019    5.88452    8.50000 86000.00000
 1932.70000    8.57116 2208.92680 2228.60560 2221.11572    2.95454   12.62196    0.02086    5.02276   49.90885    6.10823    8.50000 86000.00000
 1932.80000    8.57234 2221.44331 2246.86269 2240.63597    2.95292   12.61148    0.02172    5.03597   50.14496    6.11184    8.50000 86000.00000
 1932.90000    8.57388 2293.83679 2315.25434 2306.66881    2.95366   12.41624    0.02025    5.03173   50.05314    6.30893    8.50000 86000.00000
 1933.00000    8.57542 2264.32021 2261.90308 2243.55402    2.95462   12.38209    0.02074    5.02688   49.93829    6.08091    8.50000 86000.00000
 1933.10000    8.57314 2274.26578 2276.80891 2260.50370    2.95246   12.44144    0.02041    5.01360   50.14379    5.90311    8.50000 86000.00000
 1933.20000    8.57489 2339.17404 2356.21791 2339.27069    2.95146   12.32793    0.02042    5.01903   50.15796    5.93614    8.50000 86000.00000
 1933.30000    8.57569 2339.17363 2366.56194 2351.46361    2.95271   12.54769    0.01932    4.99833   49.95066    5.68266    8.50000 86000.00000
 1933.40000    8.57761 2484.47204 2521.51185 2499.93402    2.95219   12.48038    0.01778    4.99601   50.08978    5.56130    8.50000 86000.00000
 1933.50000    8.57544 2028.63289 2028.38652 2031.88385    2.94771   12.35758    0.01767    5.00138   50.00712    5.51932    8.50000 86000.00000
 1933.60000    8.57906 2059.42706 2054.79001 2073.55518    2.95112   12.26139    0.01842    4.99592   49.77473    5.77998    8.50000 86000.00000
 1933.70000    8.58044 2128.41835 2123.98755 2146.41708    2.95133   12.32266    0.01831    4.99807   49.55671    5.68317    8.50000 86000.00000
 1933.80000    8.57605 2197.61801 2186.08423 2210.74925    2.95158   12.04191    0.01823    4.98857   49.46820    5.69404    8.50000 86000.00000
 1933.90000    8.57888 2062.62376 2069.96065 2060.60495    2.95290   11.91952    0.01957    4.98263   49.21215    5.81770    8.50000 86000.00000
 1934.00000    8.57799 2081.87819 2080.29727 2069.62991    2.95502   11.69601    0.01905    4.99330   49.37397    5.95175    8.50000 86000.00000
 1934.10000    8.58012 2093.85731 2088.89474 2078.43582    2.95569   11.61027    0.01956    4.99896   49.24852    5.76895    8.50000 86000.00000
 1934.20000    8.58268 2049.89065 2020.24555 1999.45083    2.95726   11.48636    0.01867    4.99600   49.16878    5.86879    8.50000 86000.00000
 1934.30000    8.58604 2088.49611 2051.98024 2034.26965    2.95654   11.33245    0.01915    5.02252   49.13919    5.83534    8.50000 86000.00000
 1934.40000    8.58735 2100.71012 2057.04857 2039.97388    2.95554   11.22272    0.01954    5.03979   49.09593    6.05745    8.50000 86000.00000
 1934.50000    8.58836 2279.06260 2228.89785 2226.34168    2.95614   11.37851    0.01956    5.05653   49.45996    6.05356    8.50000 86000.00000
 1934.60000    8.58967 2257.16620 2208.16396 2207.26049    2.95534   11.13463    0.02022    5.05167   49.53107    6.02569    8.50000 86000.00000
 1934.70000    8.58840 2230.01640 2185.35627 2184.72759    2.95468   11.00915    0.02089    5.04261   49.65738    6.15777    8.50000 86000.00000
 1934.80000    8.58863 2279.45412 2269.46872 2267.55455    2.95373   11.04220    0.02040    5.05181   49.72978    6.10700    8.50000 86000.00000
 1934.90000    8.58735 2244.31343 2239.49085 2228.22214    2.95548   10.80091    0.01985    5.04831   49.58501    5.97339    8.50000 86000.00000
 1935.00000    8.58714 2187.11543 2193.67735 2184.24380    2.95876   10.55548    0.02042    5.03169   49.68225    5.92846    8.50000 86000.00000
 1935.10000    8.58762 2141.68374 2169.28045 2159.05378    2.95843   10.41389    0.02040    5.03472   49.83591    5.97614    8.50000 86000.00000
