~Version ---------------------------------------------------
VERS.   2.0 : CWLS log ASCII Standard -VERSION 2.0
WRAP.    NO : One line per depth step
DLM . SPACE : Column Data Section Delimiter
~Well ------------------------------------------------------
STRT.m          1000.00000 : START DEPTH
STOP.m          2000.00000 : STOP DEPTH
STEP.m             0.10000 : STEP
NULL.             -9999.25 : NULL VALUE
COMP. FORCE 2020 Recreator : 
WELL.   WELL_FORCE_2020_03 : 
FLD .                      : FIELD
LOC .                      : LOCATION
PROV.                      : PROVINCE
CNTY.                      : COUNTY
STAT.                      : STATE
CTRY.                      : COUNTRY
SRVC.                      : SERVICE COMPANY
DATE.                      : DATE
UWI .                      : UNIQUE WELL ID
API .                      : API NUMBER
~Curve Information -----------------------------------------
DEPT                            .m      : 
CALI                            .in     : 
RSHA                            .ohm.m  : 
RMED                            .ohm.m  : 
RDEP                            .ohm.m  : 
RHOB                            .g/cm3  : 
GR                              .gAPI   : 
NPHI                            .v/v    : 
PEF                             .b/e    : 
DTC                             .us/ft  : 
SP                              .mV     : 
BS                              .in     : 
FORCE_2020_LITHOFACIES_LITHOLOGY.code   : 
~Params ----------------------------------------------------
~Other -----------------------------------------------------
~ASCII -----------------------------------------------------
# ...
 1262.90000    9.89571    2.76835    2.63380    2.66166    2.47429  115.05992    0.34260    3.40241  107.47227    4.64692    8.50000 65000.00000
 1263.00000    9.90002    2.78071    2.66705    2.69019    2.47797  115.58257    0.34563    3.38347  107.88229    4.55115    8.50000 65000.00000
 1263.10000    9.90177    2.80641    2.65802    2.68918    2.47614  115.71234    0.34566    3.39575  107.60769    4.56990    8.50000 65000.00000
 1263.20000    9.91017    2.74501    2.64259    2.65861    2.47941  115.48903    0.34383    3.38760  107.43731    4.42225    8.50000 65000.00000
 1263.30000    9.92932    2.72887    2.66934    2.68147    2.47888  114.83083    0.34712    3.39147  108.07678    4.62996    8.50000 65000.00000
 1263.40000    9.94501    2.75036    2.68447    2.70155    2.47678  115.20573    0.34604    3.38619  108.04521    4.81263    8.50000 65000.00000
 1263.50000    9.92676    2.64815    2.61012    2.61886    2.47852  117.31154    0.34643    3.39524  107.66031    4.61918    8.50000 65000.00000
 1263.60000    9.91940    2.70218    2.64303    2.64137    2.48492  117.65680    0.34734    3.39559  108.03591    4.54817    8.50000 65000.00000
 1263.70000    9.92166    2.66538    2.59638    2.58926    2.48547  117.26357    0.34950    3.40475  108.53516    4.58988    8.50000 65000.00000
 1263.80000    9.93667    2.77799    2.66780    2.66283    2.47971  118.50264    0.35481    3.39781  107.98300    4.75312    8.50000 65000.00000
 1263.90000    9.96058    2.70251    2.60885    2.60700    2.48091  118.52879    0.35426    3.40697  109.68068    4.93698    8.50000 65000.00000
 1264.00000    9.97514    2.69171    2.63468    2.61512    2.48331  117.77607    0.35087    3.39658  108.55232    4.84374    8.50000 65000.00000
 1264.10000   10.00155    2.74344    2.69608    2.68289    2.47647  116.62413    0.34824    3.37487  108.72832    4.78663    8.50000 65000.00000
 1264.20000    9.97648    2.79501    2.80101    2.77577    2.48356  115.10936    0.35000    3.39570  108.16322    4.66398    8.50000 65000.00000
 1264.30000    9.97692    2.82914    2.82347    2.80350    2.48581  115.33114    0.35076    3.37423  109.04934    4.86756    8.50000 65000.00000
 1264.40000    9.96071    2.85292    2.85608    2.82734    2.48204  116.02223    0.35087    3.36417  108.90957    4.70003    8.50000 65000.00000
 1264.50000    9.98437    2.90532    2.92633    2.89637    2.47804  117.19680    0.35420    3.36205  109.09093    4.44570    8.50000 65000.00000
 1264.60000    9.97917    2.93474    2.93357    2.91213    2.47820  116.78710    0.35426    3.36625  110.10115    4.46348    8.50000 65000.00000
 1264.70000    9.99793    2.92349    2.97186    2.93782    2.47944  117.80323    0.35125    3.38456  109.39267    4.93758    8.50000 65000.00000
 1264.80000    9.98923    2.78652    2.84055    2.80476    2.47919  117.28400    0.35177    3.37813  109.11111    5.13650    8.50000 65000.00000
 1264.90000    9.99188    2.83626    2.87519    2.84755    2.47972  117.39072    0.35512    3.35851  108.75552    5.11647    8.50000 65000.00000
 1265.00000    9.99686    2.92625    2.94428    2.92680    2.48691  118.26832    0.35640    3.34796  109.23591    4.78410    8.50000 65000.00000
 1265.10000    9.98311    2.88579    2.90255    2.89125    2.48429  117.80311    0.35742    3.36269  108.78803    4.95564    8.50000 65000.00000
 1265.20000   10.00712    2.80991    2.83281    2.82575    2.48057  118.13631    0.36094    3.37174  109.29772    4.94781    8.50000 65000.00000
 1265.30000    9.99808    2.75834    2.77532    2.77015    2.47268  118.99672    0.35793    3.37572  109.45320    4.71763    8.50000 65000.00000
 1265.40000    9.97516    2.76430    2.74170    2.74631    2.47461  119.82132    0.35771    3.37575  109.07655    4.33398    8.50000 65000.00000
 1265.50000    9.99867    2.71710    2.68059    2.68776    2.47632  119.10494    0.35840    3.34989  110.08622    4.20415    8.50000 65000.00000
 1265.60000   10.03131    2.76310    2.74165    2.72957    2.47650  117.11386    0.36129    3.36430  110.52241    4.31464    8.50000 65000.00000
 1265.70000   10.00804    2.71802    2.70517    2.70213    2.47646  117.06366    0.36249    3.35424  110.24124    4.40534    8.50000 65000.00000
 1265.80000   10.00643    2.70902    2.68108    2.68135    2.47532  117.60543    0.36536    3.34901  110.39771    4.50051    8.50000 65000.00000
 1265.90000   10.00850    2.62827    2.61699    2.61833    2.47911  116.44401    0.36720    3.34723  110.52591    4.35567    8.50000 65000.00000
 1266.00000   10.01927    2.73817    2.71529    2.72331    2.47847  116.72619    0.36518    3.33612  109.31795    4.15692    8.50000 65000.00000
 1266.10000   10.03459    2.69375    2.66011    2.66414    2.47555  117.25190    0.36900    3.36377  109.97348    4.38232    8.50000 65000.00000
 1266.20000   10.03159    2.61004    2.57542    2.58384   -9999.25  118.32396    0.37201    3.36739  110.24290    4.43012    8.50000 65000.00000
 1266.30000   10.04003    2.43148    2.36305    2.38165    2.47948  118.49971    0.37006    3.35035  110.22723    4.74931    8.50000 65000.00000
 1266.40000   10.03151    2.44382    2.39668    2.41127    2.48084  117.01092    0.37175    3.35407  109.22401    4.42948    8.50000 65000.00000
 1266.50000   10.01730    2.43146    2.36476    2.38362    2.47735  117.33026    0.36831    3.35089  109.73199    4.86976    8.50000 65000.00000
 1266.60000    9.99545    2.44031    2.35355    2.37123    2.47753  117.36777    0.36860    3.34429  108.79472    5.11175    8.50000 65000.00000
 1266.70000    9.96770    2.44574    2.39634    2.39876    2.47676  119.29142    0.36917    3.35703  107.99774    4.99074    8.50000 65000.00000
 1266.80000    9.99638    2.45334    2.37032    2.37143    2.47625  118.39337    0.36796    3.33133  107.39990    4.65697    8.50000 65000.00000
 1266.90000    9.99573    2.61460    2.50480    2.51816    2.47257  119.11918    0.36789    3.33612  106.79881    4.38962    8.50000 65000.00000
 1267.00000    9.97504    2.57889    2.49558    2.49641    2.47393  119.38183    0.36463    3.35458  106.56647    4.39081    8.50000 65000.00000
 1267.10000    9.93466    2.51265    2.43473    2.41601    2.46910  118.23258    0.36519    3.36837  106.20458    4.63566    8.50000 65000.00000
 1267.20000    9.95582    2.52973    2.44151    2.41625    2.46754  118.04266    0.36221    3.35714  106.66903    4.58705    8.50000 65000.00000
 1267.30000    9.94989    2.56131    2.47500    2.44505    2.47042  118.63802    0.36221    3.34740  106.58639    4.70729    8.50000 65000.00000
 1267.40000    9.93178    2.64558    2.55050    2.52090    2.47646  117.06531    0.36480    3.36020  106.31819    4.46758    8.50000 65000.00000
 1267.50000    9.96173    2.59736    2.54141    2.50596    2.47135  116.01870    0.36687    3.36001  106.65263    4.78602    8.50000 65000.00000
 1267.60000    9.94563    2.56060    2.50954    2.46681    2.46769  115.50039    0.36857    3.39517  105.73369    4.90002    8.50000 65000.00000
 1267.70000    9.91755    2.52669    2.46018    2.43118    2.47074  115.19818    0.36439    3.37301  105.36114    4.92046    8.50000 65000.00000
 1267.80000    9.95633    2.55719    2.49786    2.46588    2.46746  114.27808    0.36261    3.39169  105.47650    5.02069    8.50000 65000.00000
 1267.90000    9.94305    2.57131    2.50888    2.48708    2.46917  114.59849    0.36092    3.41044  105.36670    4.86276    8.50000 65000.00000
 1268.00000    9.91631    2.54994    2.49777    2.46976    2.47140  113.93290    0.35760    3.41457  105.14301    4.84242    8.50000 65000.00000
 1268.10000    9.89306    2.51066    2.43492    2.40345    2.47311  114.32120    0.36044    3.43379  104.89435    4.61841    8.50000 65000.00000
 1268.20000    9.90376    2.51623    2.44757    2.41856    2.47373  112.92931    0.35701    3.42375  104.81948    4.32905    8.50000 65000.00000
 1268.30000    9.87784    2.50635    2.45024    2.41790    2.47086  112.13056    0.35865    3.42829  104.85346    4.13562    8.50000 65000.00000
 1268.40000    9.85554    2.51729    2.45833    2.44024    2.46728  112.08395    0.35670    3.42196  105.09621    3.78195    8.50000 65000.00000
