~Version ---------------------------------------------------
VERS.   2.0 : CWLS log ASCII Standard -VERSION 2.0
WRAP.    NO : One line per depth step
DLM . SPACE : Column Data Section Delimiter
~Well ------------------------------------------------------
STRT.m          1000.00000 : START DEPTH
STOP.m          2000.00000 : STOP DEPTH
STEP.m             0.10000 : STEP
NULL.             -9999.25 : NULL VALUE
COMP. FORCE 2020 Recreator : 
WELL.   WELL_FORCE_2020_09 : 
FLD .                      : FIELD
LOC .                      : LOCATION
PROV.                      : PROVINCE
CNTY.                      : COUNTY
STAT.                      : STATE
CTRY.                      : COUNTRY
SRVC.                      : SERVICE COMPANY
DATE.                      : DATE
UWI .                      : UNIQUE WELL ID
API .                      : API NUMBER
~Curve Information -----------------------------------------
DEPT                            .m      : 
CALI                            .in     : 
RSHA                            .ohm.m  : 
RMED                            .ohm.m  : 
RDEP                            .ohm.m  : 
RHOB                            .g/cm3  : 
GR                              .gAPI   : 
NPHI                            .v/v    : 
PEF                             .b/e    : 
DTC                             .us/ft  : 
SP                              .mV     : 
BS                              .in     : 
FORCE_2020_LITHOFACIES_LITHOLOGY.code   : 
~Params ----------------------------------------------------
~Other -----------------------------------------------------
~ASCII -----------------------------------------------------
# ...
 1733.60000    9.83568    2.45454    2.49885    2.46064    2.50359  111.87901    0.37059    3.44241  110.78850    3.76197    8.50000 65000.00000
 1733.70000    9.83439    2.45466    2.47435    2.42862    2.49718  111.37705    0.37159    3.44169  110.99371    3.77871    8.50000 65000.00000
 1733.80000    9.81437    2.43852    2.48389    2.41780    2.50568  111.62349    0.37417    3.44665  110.98206    3.85740    8.50000 65000.00000
 1733.90000    9.82054    2.50242    2.51523    2.45051    2.50067  110.58724    0.36852    3.42178  111.45168    4.06803    8.50000 65000.00000
 1734.00000    9.84065    2.55292    2.54504    2.50411    2.49964  111.44698    0.36845    3.40586  111.38735    4.03765    8.50000 65000.00000
 1734.10000    9.81872    2.60306    2.60565    2.55083    2.49801  112.66009    0.36219    3.39061  110.62259    3.74263    8.50000 65000.00000
 1734.20000    9.84660    2.53019    2.54290    2.49260    2.49210  112.49974    0.36011    3.41336  111.32415    3.59493    8.50000 65000.00000
 1734.30000    9.85524    2.48060    2.50233    2.44826    2.48157  113.25063    0.36145    3.40375  112.15680    3.80033    8.50000 65000.00000
 1734.40000    9.85758    2.54344    2.55853    2.49506    2.48583  114.12836    0.36203    3.40925  112.30044    3.98944    8.50000 65000.00000
 1734.50000    9.87158    2.57159    2.56643    2.50919    2.48276  112.15176    0.36291    3.42935  112.26632    4.16580    8.50000 65000.00000
 1734.60000    9.86467    2.61797    2.64829    2.60136    2.48333  111.35399    0.36110    3.41965  112.13792    4.38335    8.50000 65000.00000
 1734.70000    9.85955    2.66324    2.67939    2.62304    2.48211  112.63456    0.36074    3.40220  112.42346    4.14158    8.50000 65000.00000
 1734.80000    9.86842    2.64493    2.65301    2.60322    2.48097  113.12142    0.36406    3.38600  111.99653    4.13325    8.50000 65000.00000
 1734.90000    9.88523    2.56203    2.56660    2.51348    2.47864  114.34092    0.36121    3.39046  112.09125    4.38815    8.50000 65000.00000
 1735.00000    9.87718    2.60406    2.63232    2.57168    2.47077  113.00921    0.35614    3.37509  112.45299    4.35456    8.50000 65000.00000
 1735.10000    9.90523    2.67980    2.67274    2.62835    2.47744  113.92434    0.36149    3.37488  112.17144    4.62292    8.50000 65000.00000
 1735.20000    9.91093    2.67747    2.67518    2.63344    2.48188  114.46317    0.35965    3.38160  112.47953    4.60151    8.50000 65000.00000
 1735.30000    9.90924    2.67447    2.66914    2.65332    2.47844  113.82758    0.36042    3.38759  112.47553    4.70283    8.50000 65000.00000
 1735.40000    9.89858    2.62768    2.62546    2.60650    2.47942  112.35936    0.36545    3.37534  112.02160    4.81321    8.50000 65000.00000
 1735.50000    9.88365    2.63752    2.60242    2.59179    2.47352  112.06748    0.36517    3.36893  111.63959    4.70874    8.50000 65000.00000
 1735.60000    9.87834    2.69006    2.68053    2.67951    2.47243  113.47381    0.36007    3.38193  111.22864    4.39168    8.50000 65000.00000
 1735.70000    9.88765    2.74921    2.77766    2.78337    2.47101  115.00237    0.36348    3.37993  110.94485    4.31989    8.50000 65000.00000
 1735.80000    9.91195    2.69070    2.73052    2.74300    2.47412  114.63762    0.36566    3.36136  110.37413    4.48252    8.50000 65000.00000
 1735.90000    9.92250    2.77815    2.80803    2.82115    2.47167  114.65994    0.36449    3.33432  109.73029    4.40199    8.50000 65000.00000
 1736.00000    9.90889    2.69555    2.75350    2.76321    2.47632  115.44455    0.36795    3.33569  109.46388    4.23706    8.50000 65000.00000
 1736.10000    9.88117    2.55042    2.60472    2.61416    2.47428  115.19592    0.36664    3.35348  109.49820    4.17155    8.50000 65000.00000
 1736.20000    9.93612    2.51288    2.56401    2.57695    2.47071  114.23681    0.36579    3.36307  109.07345    4.27753    8.50000 65000.00000
 1736.30000    9.89643    2.66970    2.69570    2.70781    2.47413  116.20233    0.36334    3.35962  108.49705    4.34739    8.50000 65000.00000
 1736.40000    9.91289    2.69495    2.72376    2.75605    2.48446  115.23330    0.36436    3.33398  108.36109    4.31072    8.50000 65000.00000
 1736.50000    9.95088    2.66313    2.68589    2.73316    2.48460  114.59663    0.35935    3.34371  108.16585    4.30422    8.50000 65000.00000
 1736.60000    9.94618    2.58144    2.63229    2.67795    2.48282  116.96178    0.35574    3.31140  107.76566    4.58922    8.50000 65000.00000
 1736.70000    9.96870    2.70296    2.73106    2.75766    2.48157  119.09961    0.35942    3.31253  107.55958    4.54690    8.50000 65000.00000
 1736.80000    9.96227    2.73219    2.77865    2.82522    2.47776  118.24275    0.35319    3.33330  106.88517    4.99235    8.50000 65000.00000
 1736.90000    9.95515    2.78746    2.84786    2.88069    2.47836  119.99722    0.35179    3.34038  107.18653    4.93514    8.50000 65000.00000
 1737.00000    9.90588    3.01560    3.05993    3.08604    2.47668  118.11261    0.35358    3.33208  108.18241    4.67685    8.50000 65000.00000
 1737.10000    9.89405    3.00481    3.03585    3.05662    2.48000  117.87757    0.35364    3.34274  107.67252    4.72265    8.50000 65000.00000
 1737.20000    9.87339    2.91027    2.95488    2.96485    2.48220  117.58569    0.35132    3.35121  108.06561    4.46644    8.50000 65000.00000
 1737.30000    9.87956    2.96302    3.01684    3.03489    2.48304  117.94487    0.35137    3.36031  107.23929    4.29193    8.50000 65000.00000
 1737.40000    9.85598    2.99108    3.02763    3.03902    2.48765  118.32751    0.35183    3.38472  106.66298    4.44604    8.50000 65000.00000
 1737.50000    9.87163    3.05722    3.09644    3.11065    2.48755  119.84867    0.34962    3.39335  106.67282    4.29401    8.50000 65000.00000
 1737.60000    9.88290    3.03299    3.10261    3.11207    2.48578  119.26460    0.35495    3.39569  106.39071    4.37128    8.50000 65000.00000
 1737.70000    9.89123    2.97598    3.01692    3.00994    2.48592  117.67480    0.36274    3.38922  106.22056    4.80066    8.50000 65000.00000
 1737.80000    9.88431    2.92075    2.93187    2.92075    2.49364  116.13685    0.35973    3.40118  106.65395    4.60306    8.50000 65000.00000
 1737.90000    9.86330    2.92810    2.97552    2.95655    2.49355  117.01106    0.35973    3.39640  107.05027    4.42832    8.50000 65000.00000
 1738.00000    9.86257    2.86538    2.91658    2.91098    2.49154  117.26056    0.36124    3.42690  107.74526    4.58085    8.50000 65000.00000
 1738.10000    9.88700    2.85682    2.89966    2.90490    2.48843  116.16753    0.35706    3.45135  108.19618    4.66647    8.50000 65000.00000
 1738.20000    9.90174    2.83816    2.91393    2.91723    2.48909  115.74292    0.35865    3.42157  107.87648    4.65290    8.50000 65000.00000
 1738.30000    9.88181    3.09152    3.12755    3.13042    2.49104  116.76830    0.36145    3.41873  108.70025    4.60319    8.50000 65000.00000
 1738.40000    9.90025    3.02177    3.08369    3.08346    2.48853  114.96152    0.35990    3.42185  107.98064    4.73149    8.50000 65000.00000
 1738.50000    9.90211    2.99838    3.05135    3.03753    2.47919  115.40523    0.36097    3.42549  107.20733    4.68456    8.50000 65000.00000
 1738.60000    9.86927    2.97166    3.05667    3.03751    2.47851  116.29227    0.36167    3.40855  106.69830    4.91233    8.50000 65000.00000
 1738.70000    9.86608    3.03452    3.10703    3.08572    2.47686  114.47773    0.36267    3.42796  107.46540    4.94266    8.50000 65000.00000
 1738.80000    9.85613    2.88872    2.95911    2.95134    2.47383  113.60598    0.36033    3.41008  107.58650    4.91848    8.50000 65000.00000
 1738.90000    9.82820    2.82706    2.88899    2.87038    2.47750  112.47733    0.36480    3.39677  108.30881    5.00882    8.50000 65000.00000
 1739.00000    9.86589    2.74388    2.78770    2.78177    2.47135  110.17591    0.36612    3.41106  107.65043    5.19012    8.50000 65000.00000
 1739.10000    9.87202    2.61552    2.69406    2.69964    2.46632  111.05457    0.36297    3.41687  107.16638    5.33729    8.50000 65000.00000
