~Version ---------------------------------------------------
VERS.   2.0 : CWLS log ASCII Standard -VERSION 2.0
WRAP.    NO : One line per depth step
DLM . SPACE : Column Data Section Delimiter
~Well ------------------------------------------------------
STRT.m          1000.00000 : START DEPTH
STOP.m          2000.00000 : STOP DEPTH
STEP.m             0.10000 : STEP
NULL.             -9999.25 : NULL VALUE
COMP. FORCE 2020 Recreator : 
WELL.   WELL_FORCE_2020_06 : 
FLD .                      : FIELD
LOC .                      : LOCATION
PROV.                      : PROVINCE
CNTY.                      : COUNTY
STAT.                      : STATE
CTRY.                      : COUNTRY
SRVC.                      : SERVICE COMPANY
DATE.                      : DATE
UWI .                      : UNIQUE WELL ID
API .                      : API NUMBER
~Curve Information -----------------------------------------
DEPT                            .m      : 
CALI                            .in     : 
RSHA                            .ohm.m  : 
RMED                            .ohm.m  : 
RDEP                            .ohm.m  : 
RHOB                            .g/cm3  : 
GR                              .gAPI   : 
NPHI                            .v/v    : 
PEF                             .b/e    : 
DTC                             .us/ft  : 
SP                              .mV     : 
BS                              .in     : 
FORCE_2020_LITHOFACIES_LITHOLOGY.code   : 
~Params ----------------------------------------------------
~Other -----------------------------------------------------
~ASCII -----------------------------------------------------
# ...
 1464.80000    8.58880    9.68916    9.99684    9.84733    2.19049   92.45763    0.34519    3.01574   97.21949    3.07826    8.50000 99000.00000
 1464.90000    8.58816    9.73905   10.12453    9.97506    2.19093   93.17513    0.33674    3.01607   97.61667    3.29801    8.50000 99000.00000
 1465.00000    8.58654    9.96358   10.32740   10.18422    2.18810   94.79713    0.33973    3.01638   97.19921    3.34446    8.50000 99000.00000
 1465.10000    8.58453   10.03211   10.32828   10.19779    2.18488   93.90496    0.34697    2.99931   97.04296    3.40951    8.50000 99000.00000
 1465.20000    8.58686    9.81592   10.06955    9.95329    2.17713   94.54614    0.34937    3.00830   97.27716    2.90124    8.50000 99000.00000
 1465.30000    8.58481    9.86367   10.23960   10.12910    2.17073   95.15162    0.35134    3.03255   98.13116    2.48557    8.50000 99000.00000
 1465.40000    8.58089   10.12857   10.47679   10.35866    2.16799   95.02773    0.34864    3.02948   98.95743    2.32715    8.50000 99000.00000
 1465.50000    8.58152   11.39095   11.37029   11.30691    2.17009   94.48002    0.35288    3.05089   99.12430    2.19785    8.50000 99000.00000
 1465.60000    8.57895   11.31660   11.33412   11.23602    2.17139   94.58434    0.35103    3.07378   99.09923    2.35157    8.50000 99000.00000
 1465.70000    8.57717   11.67401   11.68739   11.58777    2.16329   92.94818    0.35056    3.07944   98.99257    2.31667    8.50000 99000.00000
 1465.80000    8.57791   10.69457   10.72059   10.63841    2.17252   92.33196    0.34835    3.07303   99.67667    2.22172    8.50000 99000.00000
 1465.90000    8.57707   10.14431   10.08057   10.04367    2.17744   92.57369    0.35114    3.05315  100.42367    2.68209    8.50000 99000.00000
 1466.00000    8.58054   10.29197   10.31740   10.26676    2.17312   92.22332    0.35798    3.05083   99.88234    2.55277    8.50000 99000.00000
 1466.10000    8.58152    9.89825    9.93124    9.91569    2.17730   92.97234    0.35872    3.06457   99.46252    2.40299    8.50000 99000.00000
 1466.20000    8.58155   10.17013   10.20145   10.15345    2.17341   93.12425    0.35705    3.06458  100.49807    2.52765    8.50000 99000.00000
 1466.30000    8.58255   11.62288   11.93912   11.87451    2.18357   91.97609    0.36103    3.05730  100.27692    2.07952    8.50000 99000.00000
 1466.40000    8.58604   11.02705   11.09655   11.01413    2.19470   90.44925    0.36099    3.05971   99.22080    2.18778    8.50000 99000.00000
 1466.50000    8.58632   10.70358   10.79463   10.72586    2.19242   89.58130    0.36003    3.05645   98.09821    1.76886    8.50000 99000.00000
 1466.60000    8.58625   11.17502   11.17738   11.11329    2.19309   89.77570    0.35768    3.04688   97.79644    1.88052    8.50000 99000.00000
 1466.70000    8.58567   11.60683   11.52989   11.42109    2.18931   91.59846    0.35267    3.02911   98.82522    1.51924    8.50000 99000.00000
 1466.80000    8.58451   11.80720   11.69268   11.55128    2.18134   91.60692    0.35682    2.99589   98.58188    1.77344    8.50000 99000.00000
 1466.90000    8.58993   11.90647   11.82888   11.64735    2.18037   90.94857    0.36115    2.96760   99.13144    1.80049    8.50000 99000.00000
 1467.00000    8.59067   13.30400   13.19999   12.80297    2.18883   90.49414    0.36874    2.97402   99.70956    1.82684    8.50000 99000.00000
 1467.10000    8.58731   13.86050   13.58364   13.24230    2.19530   88.46688    0.36221    2.94759   99.01881    1.29270    8.50000 99000.00000
 1467.20000    8.58799   13.76162   13.53207   13.18252    2.19470   87.59259    0.35910    2.96531   99.42650    1.26246    8.50000 99000.00000
 1467.30000    8.58752   14.43332   14.10570   13.77845    2.20132   88.25184    0.35689    2.98591   99.38029    1.75009    8.50000 99000.00000
 1467.40000    8.58941   13.93084   13.52861   13.27321    2.20332   88.60269    0.35258    2.98592   98.88202    2.29159    8.50000 99000.00000
 1467.50000    8.59189   13.63049   13.26683   13.02071    2.20566   88.88923    0.35718    2.99491   98.98448    2.23917    8.50000 99000.00000
 1467.60000    8.59081   12.20825   12.19829   11.90511    2.21255   89.23371    0.35584    2.97511   98.67612    2.55996    8.50000 99000.00000
 1467.70000    8.59229   12.27569   12.28745   11.98628    2.21484   88.57496    0.35331    2.95233   99.36460    2.77813    8.50000 99000.00000
 1467.80000    8.59199   12.36643   12.39764   12.15115    2.21976   88.95725    0.35220    2.96032   98.93198    2.74699    8.50000 99000.00000
 1467.90000    8.59157   12.70415   12.68471   12.45191    2.20605   90.20861    0.35247    2.97460   98.55894    2.91835    8.50000 99000.00000
 1468.00000    8.59195   12.73945   12.77967   12.55557    2.19611   89.33983    0.34752    2.99833   97.54176    2.88761    8.50000 99000.00000
 1468.10000    8.58888   12.93275   12.81124   12.63724    2.19501   89.05838    0.34263    2.98189   97.82589    2.69912    8.50000 99000.00000
 1468.20000    8.59245   13.00079   12.79997   12.65417    2.18798   89.00424    0.33743    2.96851   97.58907    2.57257    8.50000 99000.00000
 1468.30000    8.59415   13.19555   12.91735   12.83711    2.19303   88.05668    0.33587    2.95390   97.23530    2.33417    8.50000 99000.00000
 1468.40000    8.59075   11.77470   11.22793   11.16111    2.19081   89.70838    0.33421    2.96773   97.75684    2.59482    8.50000 99000.00000
 1468.50000    8.58845   11.42500   10.88020   10.79977    2.19211   91.41172    0.33073    2.98790   98.33922    2.73710    8.50000 99000.00000
 1468.60000    8.58684   11.48288   10.97187   10.87405    2.19268   92.49529    0.32821    2.98684   98.53240    2.76210    8.50000 99000.00000
 1468.70000    8.58777   11.36285   11.01468   10.92347    2.19237   93.24046    0.32829    2.98518   98.82559    2.38587    8.50000 99000.00000
 1468.80000    8.58706   10.76341   10.55425   10.50714    2.18879   92.09311    0.32841    2.97843   98.69233    2.71765    8.50000 99000.00000
 1468.90000    8.58896   10.94438   10.52870   10.52577    2.18234   92.38446    0.32258    2.96637   98.41363    2.85736    8.50000 99000.00000
 1469.00000    8.58509   10.97433   10.54372   10.55786    2.17992   93.08736    0.32257    2.99042   98.15071    3.13404    8.50000 99000.00000
 1469.10000    8.58503    9.51622    9.07026    9.29955    2.17343   92.78269    0.31722    2.97473   98.41782    3.11707    8.50000 99000.00000
 1469.20000    8.58876    8.75819    8.48597    8.65951    2.16845   94.12909    0.32018    2.99413   99.00714    3.66446    8.50000 99000.00000
 1469.30000    8.58765    8.90748    8.58935    8.80073    2.17100   96.11701    0.32164    2.97452   98.13336    3.64508    8.50000 99000.00000
 1469.40000    8.58753    8.22875    8.02905    8.21892    2.17404   95.25056    0.32030    2.95740   97.02978    3.59675    8.50000 99000.00000
 1469.50000    8.58429    7.95554    7.77416    7.88856    2.17003   95.17224    0.32237    2.94525   96.86917    3.22586    8.50000 99000.00000
 1469.60000    8.58460    8.28130    8.10208    8.21943    2.17385   95.09355    0.32090    2.96821   96.50863    3.40313    8.50000 99000.00000
 1469.70000    8.58551    8.36609    8.21952    8.31180    2.16591   95.68010    0.31727    2.97169   97.16815    2.91077    8.50000 99000.00000
 1469.80000    8.58452    8.26417    8.06139    8.17571    2.16962   95.66256    0.32310    2.99375   96.94990    2.70411    8.50000 99000.00000
 1469.90000    8.58258    8.02840    7.79416    7.91209    2.16563   95.84772    0.32025    2.98269   96.91633    2.79145    8.50000 99000.00000
 1470.00000    8.58407    8.30661    8.16179    8.24730    2.17463   95.37323    0.32558    2.98418   96.25813    2.80925    8.50000 99000.00000
 1470.10000    8.58639    8.30426    8.04027    8.10858    2.17857   96.56292    0.32116    2.97182   96.44776    2.51287    8.50000 99000.00000
 1470.20000    8.58940    7.91833    7.68665    7.73229    2.18057   95.35025    0.31862    2.97536   95.66977    2.46325    8.50000 99000.00000
 1470.30000    8.58465    7.98344    7.81468    7.83988    2.18733   95.30147    0.32073    2.97646   96.05062    2.47195    8.50000 99000.00000
