~Version ---------------------------------------------------
VERS.   2.0 : CWLS log ASCII Standard -VERSION 2.0
WRAP.    NO : One line per depth step
DLM . SPACE : Column Data Section Delimiter
~Well ------------------------------------------------------
STRT.m          1000.00000 : START DEPTH
STOP.m          2000.00000 : STOP DEPTH
STEP.m             0.10000 : STEP
NULL.             -9999.25 : NULL VALUE
COMP. FORCE 2020 Recreator : 
WELL.   WELL_FORCE_2020_10 : 
FLD .                      : FIELD
LOC .                      : LOCATION
PROV.                      : PROVINCE
CNTY.                      : COUNTY
STAT.                      : STATE
CTRY.                      : COUNTRY
SRVC.                      : SERVICE COMPANY
DATE.                      : DATE
UWI .                      : UNIQUE WELL ID
API .                      : API NUMBER
~Curve Information -----------------------------------------
DEPT                            .m      : 
CALI                            .in     : 
RSHA                            .ohm.m  : 
RMED                            .ohm.m  : 
RDEP                            .ohm.m  : 
RHOB                            .g/cm3  : 
GR                              .gAPI   : 
NPHI                            .v/v    : 
PEF                             .b/e    : 
DTC                             .us/ft  : 
SP                              .mV     : 
BS                              .in     : 
FORCE_2020_LITHOFACIES_LITHOLOGY.code   : 
~Params ----------------------------------------------------
~Other -----------------------------------------------------
~ASCII -----------------------------------------------------
 1000.00000    8.31686   26.92223   26.02467   26.00887    2.37129   41.82085    0.19347    1.85245   84.75564  -35.89049    8.50000 30000.00000
 1000.10000    8.31986   27.08920   26.64754   26.26420    2.37915   42.51508    0.19313    1.87040   84.41164  -35.62954    8.50000 30000.00000
 1000.20000    8.31603   26.98561   26.55812   26.03539    2.38021   42.89543    0.19316    1.87692   84.11147  -35.30659    8.50000 30000.00000
 1000.30000    8.31539   25.39108   25.00965   24.51206    2.38028   42.93056    0.19396    1.87258   83.99938  -34.70835    8.50000 30000.00000
 1000.40000    8.31580   24.31649   23.87199   23.46367    2.37752   42.55837    0.19086    1.87738   83.80610  -34.89204    8.50000 30000.00000
 1000.50000    8.31523   23.58141   23.22252   22.83015    2.37767   42.91655    0.19342    1.88395   83.49653  -34.96385    8.50000 30000.00000
 1000.60000    8.31843   22.74551   22.37525   22.00265    2.37797   43.14502    0.19484    1.87706   83.39411  -34.94584    8.50000 30000.00000
 1000.70000    8.31936   22.67709   22.42149   22.05968    2.37717   42.62105    0.19578    1.87466   83.56576  -35.00467    8.50000 30000.00000
 1000.80000    8.31594   22.08380   21.93439   21.57340    2.37544   42.20460    0.19681    1.87309   83.52675  -34.40364    8.50000 30000.00000
 1000.90000    8.31614   22.00111   21.68241   21.33342    2.37802   42.11728    0.19294    1.87779   82.96975  -34.49665    8.50000 30000.00000
 1001.00000    8.31779   21.30706   21.00720   20.67284    2.37776   42.40029    0.19530    1.88239   82.92946  -34.28350    8.50000 30000.00000
 1001.10000    8.31677   21.36290   21.11394   20.75088    2.37625   41.65077    0.19629    1.88302   83.19065  -34.63916    8.50000 30000.00000
 1001.20000    8.31901   20.62129   20.39720   19.97450    2.37464   41.16608    0.19649    1.87796   83.20126  -34.92294    8.50000 30000.00000
 1001.30000    8.31746   20.37597   20.37144   19.88256    2.37252   42.38472    0.19665    1.88081   82.52852  -34.61807    8.50000 30000.00000
 1001.40000    8.31566   19.52090   19.60077   19.03544    2.37482   42.06388    0.20207    1.88453   82.19056  -34.42538    8.50000 30000.00000
 1001.50000    8.31172   18.26349   18.79940   18.33608    2.37117   42.37319    0.20438    1.88206   81.96019  -34.42031    8.50000 30000.00000
 1001.60000    8.31105   17.96943   18.61143   18.18876    2.37075   43.04584    0.20602    1.88355   81.66924  -34.51856    8.50000 30000.00000
 1001.70000    8.31348   18.29173   18.43424   18.15593    2.36620   43.34690    0.20388    1.88453   82.09982  -34.71135    8.50000 30000.00000
 1001.80000    8.31480   18.21316   18.49717   18.16736    2.36595   44.23019    0.20762    1.87819   82.14553  -34.45365    8.50000 30000.00000
 1001.90000    8.31366   17.79796   18.08996   17.87792    2.36603   43.75090    0.20582    1.88005   81.96619  -34.17064    8.50000 30000.00000
 1002.00000    8.32081   16.92762   17.18481   17.02437    2.36548   44.38077    0.20376    1.88997   81.80416  -34.27539    8.50000 30000.00000
 1002.10000    8.31753   17.04409   17.40947   17.24099    2.36660   44.64783    0.20405    1.88670   81.97138  -33.55821    8.50000 30000.00000
 1002.20000    8.31593   16.81143   16.97768   16.96416    2.36323   44.44929    0.20432    1.88104   81.93232  -33.93229    8.50000 30000.00000
 1002.30000    8.31981   17.52649   17.65725   17.90160    2.35857   44.27242    0.20435    1.88001   82.34534  -34.38563    8.50000 30000.00000
 1002.40000    8.32223   18.83320   18.73795   18.93500    2.35839   44.37806    0.20465    1.88825   82.28069  -34.18874    8.50000 30000.00000
 1002.50000    8.32028   18.58747   18.55715   18.70732    2.35465   44.56274    0.20623    1.88244   82.28142  -34.39404    8.50000 30000.00000
 1002.60000    8.32093   19.69011   19.71819   19.80852    2.35352   44.42013    0.20535    1.87942   82.69264  -33.78498    8.50000 30000.00000
 1002.70000    8.32053   20.16503   20.26262   20.37292    2.35701   44.40767    0.20846    1.88363   82.91469  -33.61709    8.50000 30000.00000
 1002.80000    8.31949   19.66433   19.62666   19.74677    2.35584   44.61931    0.20996    1.88234   82.81907  -33.29817    8.50000 30000.00000
 1002.90000    8.32417   19.67932   19.54389   19.67974    2.35250   45.58331    0.20875    1.87949   82.72474  -33.74200    8.50000 30000.00000
 1003.00000    8.32322   19.12792   19.17076   19.31267    2.34520   46.40783    0.21527    1.87494   83.37562  -33.79054    8.50000 30000.00000
 1003.10000    8.32167   19.03742   19.07261   19.22150    2.34735   46.69614    0.21160    1.87433   83.17694  -33.66839    8.50000 30000.00000
 1003.20000    8.32351   19.10888   18.96078   19.16807    2.35299   48.09669    0.21104    1.86807   82.86984  -32.97981    8.50000 30000.00000
 1003.30000    8.32347   20.08867   20.15923   20.39389    2.34841   48.66796    0.20808    1.87150   82.80980  -32.49444    8.50000 30000.00000
 1003.40000    8.32728   23.02402   22.32496   22.69056    2.35200   47.24108    0.21040    1.87497   83.80279  -32.67566    8.50000 30000.00000
 1003.50000    8.32697   26.13553   25.91406   26.04345    2.34768   47.46275    0.20883    1.86929   83.98576  -32.85706    8.50000 30000.00000
 1003.60000    8.32622   24.66539   24.16437   24.29196   -9999.25   46.87746    0.20597    1.87365   83.30000  -33.06758    8.50000 30000.00000
 1003.70000    8.32465   24.61437   24.00461   24.12158    2.34063   46.28591    0.20506    1.88174   82.79388  -32.78565    8.50000 30000.00000
 1003.80000    8.31885   23.75269   23.40444   23.49554    2.33914   46.09343    0.20513    1.88931   82.74292  -32.69758    8.50000 30000.00000
 1003.90000    8.31986   23.48612   23.15168   23.24711    2.34029   46.74163    0.20174    1.88364   82.85442  -32.99909    8.50000 30000.00000
 1004.00000    8.32209   23.61800   23.23853   23.23402    2.34257   47.02954    0.20277    1.87264   83.29234  -33.18482    8.50000 30000.00000
 1004.10000    8.31925   23.28789   22.99610   22.97276    2.33913   47.17426    0.20344    1.86656   83.13779  -33.12306    8.50000 30000.00000
 1004.20000    8.32671   23.17574   22.67176   22.63977    2.33909   46.42610    0.20216    1.88124   82.56058  -33.19109    8.50000 30000.00000
 1004.30000    8.32782   23.32928   22.86558   22.82538    2.33819   46.04251    0.20010    1.87610   82.91687  -32.85744    8.50000 30000.00000
 1004.40000    8.32397   23.21571   22.57734   22.41316    2.33956   45.83936    0.19888    1.86598   82.36938  -33.06683    8.50000 30000.00000
 1004.50000    8.31894   23.25383   22.91700   22.90211    2.33792   45.71285    0.19761    1.85990   82.08466  -33.56421    8.50000 30000.00000
 1004.60000    8.31915   23.72115   23.47288   23.41580    2.34414   46.19866    0.19568    1.85629   82.27678  -33.19865    8.50000 30000.00000
 1004.70000    8.31867   24.44115   24.18863   24.10439    2.34625   46.25417    0.19609    1.85750   82.09644  -33.33821    8.50000 30000.00000
 1004.80000    8.31667   24.17968   23.86487   23.77979    2.34250   46.62592    0.19179    1.85294   81.66284  -33.72821    8.50000 30000.00000
 1004.90000    8.31752   24.09984   23.86884   23.75521    2.34162   46.47310    0.18769    1.84854   81.78115  -33.77396    8.50000 30000.00000
 1005.00000    8.31746   25.97376   25.28997   25.31287    2.34542   45.80759    0.18834    1.85677   81.63675  -33.99834    8.50000 30000.00000
 1005.10000    8.31966   26.46633   25.60061   25.64021    2.34987   44.45498    0.18491    1.85736   81.70207  -34.50681    8.50000 30000.00000
 1005.20000    8.31856   26.82262   25.91895   25.96090    2.34703   44.44767    0.18507    1.85231   81.98959  -34.65423    8.50000 30000.00000
 1005.30000    8.32058   27.54671   26.64132   26.68054    2.34259   44.74641    0.18568    1.85864   82.30123  -34.59425    8.50000 30000.00000
 1005.40000    8.32028   26.46849   25.33991   25.36617    2.34244   45.14916    0.18934    1.86390   82.28852  -35.05994    8.50000 30000.00000
 1005.50000    8.32041   23.70442   23.16818   23.09670    2.34149   45.67260    0.19076    1.85989   81.50752  -34.93748    8.50000 30000.00000
