~Version ---------------------------------------------------
VERS.   2.0 : CWLS log ASCII Standard -VERSION 2.0
WRAP.    NO : One line per depth step
DLM . SPACE : Column Data Section Delimiter
~Well ------------------------------------------------------
STRT.m          1000.00000 : START DEPTH
STOP.m          2000.00000 : STOP DEPTH
STEP.m             0.10000 : STEP
NULL.             -9999.25 : NULL VALUE
COMP. FORCE 2020 Recreator : 
WELL.   WELL_FORCE_2020_01 : 
FLD .                      : FIELD
LOC .                      : LOCATION
PROV.                      : PROVINCE
CNTY.                      : COUNTY
STAT.                      : STATE
CTRY.                      : COUNTRY
SRVC.                      : SERVICE COMPANY
DATE.                      : DATE
UWI .                      : UNIQUE WELL ID
API .                      : API NUMBER
~Curve Information -----------------------------------------
DEPT                            .m      : 
CALI                            .in     : 
RSHA                            .ohm.m  : 
RMED                            .ohm.m  : 
RDEP                            .ohm.m  : 
RHOB                            .g/cm3  : 
GR                              .gAPI   : 
NPHI                            .v/v    : 
PEF                             .b/e    : 
DTC                             .us/ft  : 
SP                              .mV     : 
BS                              .in     : 
FORCE_2020_LITHOFACIES_LITHOLOGY.code   : 
~Params ----------------------------------------------------
~Other -----------------------------------------------------
~ASCII -----------------------------------------------------
 1000.00000    8.58677    9.32243    9.35049    9.52694    2.17642   90.78431    0.31491    3.00485  100.65415    2.34550    8.50000 99000.00000
 1000.10000    8.58708    9.51863    9.53468    9.68233    2.17795   89.27814    0.31725    2.97867  100.95418    1.95989    8.50000 99000.00000
 1000.20000    8.58835    9.02860    9.07837    9.20586    2.17954   88.85979    0.31936    3.01619  100.28734    2.18569    8.50000 99000.00000
 1000.30000    8.58600    8.82002    8.89078    9.02721    2.17488   90.07718    0.32356    3.02972  100.35983    2.78579    8.50000 99000.00000
 1000.40000    8.58389    8.70069    8.79913    8.86647    2.17704   90.14368    0.32491    3.02795  100.64367    3.18768    8.50000 99000.00000
 1000.50000    8.58525    8.42114    8.50483    8.58891    2.17964   89.45653    0.32453    3.03360  100.83544    3.15775    8.50000 99000.00000
 1000.60000    8.58593    8.42960    8.46317    8.57010    2.17380   89.75727    0.32536    3.01863  100.84998    3.18464    8.50000 99000.00000
 1000.70000    8.58749    8.62710    8.74418    8.72384    2.17883   90.60390    0.32179    3.02474  100.27484    3.28856    8.50000 99000.00000
 1000.80000    8.58415    8.54123    8.58416    8.56367    2.18163   91.27991    0.32140    3.01327  100.47467    3.22351    8.50000 99000.00000
 1000.90000    8.58427    8.33878    8.40550    8.37780    2.17510   91.72767    0.32065    3.01341  100.78652    2.99679    8.50000 99000.00000
 1001.00000    8.58390    8.16218    8.25491    8.21832    2.17285   91.76668    0.32620    2.98867  100.89532    3.03245    8.50000 99000.00000
 1001.10000    8.58497    9.11904    9.40885    9.34781    2.18018   92.06296    0.32138    2.98052  101.23298    3.28128    8.50000 99000.00000
 1001.20000    8.58543    9.09023    9.50540    9.38218    2.18526   93.34170    0.32128    3.00109  101.32273    2.94513    8.50000 99000.00000
 1001.30000    8.58365    8.95684    9.28762    9.18578    2.17902   91.87636    0.31823    3.03051  100.49261    2.73162    8.50000 99000.00000
 1001.40000    8.58240    8.85514    9.20699    9.09712    2.18362   93.17322    0.31396    3.03374  100.15199    2.42614    8.50000 99000.00000
 1001.50000    8.58118    8.91071    9.28901    9.15340    2.17294   94.09999    0.32527    3.03090   99.09523    2.59516    8.50000 99000.00000
 1001.60000    8.57900    9.25405    9.70402    9.55426    2.17816   92.91870    0.32805    3.03071   99.02241    2.59107    8.50000 99000.00000
 1001.70000    8.58117    9.46813    9.87526    9.72663    2.18173   93.74689    0.32893    3.04240   99.62464    2.42867    8.50000 99000.00000
 1001.80000    8.58206    9.58071    9.89515    9.74791    2.18788   94.41440    0.33242    3.02806   99.47871    2.33632    8.50000 99000.00000
 1001.90000    8.58207    9.26327    9.63128    9.49707    2.18647   93.91243    0.33049    3.04226   98.90129    2.70971    8.50000 99000.00000
 1002.00000    8.58232    9.38263    9.72520    9.59497    2.18923   93.15415    0.33141    3.04422   98.01081    2.75636    8.50000 99000.00000
 1002.10000    8.58256    8.94148    9.33036    9.16176    2.18550   93.90116    0.33248    3.03631   97.50876    2.54962    8.50000 99000.00000
 1002.20000    8.58426    8.88270    9.23301    9.09201    2.18418   95.30981    0.33181    3.05081   96.82900    2.74615    8.50000 99000.00000
 1002.30000    8.58385    9.13843    9.45046    9.33056    2.18483   95.63625    0.33276    3.03127   96.94829    2.65830    8.50000 99000.00000
 1002.40000    8.58416   10.42020   10.79064   10.72809    2.19161   95.80342    0.33559    3.03187   96.49872    2.33193    8.50000 99000.00000
 1002.50000    8.58608   10.74922   11.14100   11.14234    2.18831   94.63382    0.33313    3.03578   96.24090    2.41243    8.50000 99000.00000
 1002.60000    8.58400   10.84164   11.31733   11.28108    2.19345   94.49134    0.33647    3.00975   95.79016    2.68418    8.50000 99000.00000
 1002.70000    8.58159   10.87406   11.36767   11.29834    2.19837   94.37200    0.33498    3.00757   95.88065    2.62778    8.50000 99000.00000
 1002.80000    8.58248   11.33362   11.58089   11.61268    2.19922   92.87647    0.33905    3.01990   95.95278    2.55195    8.50000 99000.00000
 1002.90000    8.58223   11.69331   12.02597   12.12797    2.20044   92.18907    0.34134    3.01762   96.18503    2.72774    8.50000 99000.00000
 1003.00000    8.58188   11.60049   11.90365   12.01381    2.20932   91.64297    0.34604    3.03624   95.79842    2.67014    8.50000 99000.00000
 1003.10000    8.58341   11.64357   11.90516   12.03958    2.21146   90.43553    0.33783    3.06471   95.81204    2.45560    8.50000 99000.00000
 1003.20000    8.58215   10.83317   10.84120   11.01700    2.21009   89.58370    0.33943    3.06909   95.63742    2.38286    8.50000 99000.00000
 1003.30000    8.57894   10.62184   10.56199   10.76525    2.20697   87.97119    0.34278    3.06132   95.73771    2.66194    8.50000 99000.00000
 1003.40000    8.57963   13.43474   13.63149   13.65896    2.21608   88.95752    0.34729    3.04875   96.11819    2.99363    8.50000 99000.00000
 1003.50000    8.58080   14.24550   14.50885   14.47520    2.21681   87.37489    0.34783    3.03868   95.40034    2.90195    8.50000 99000.00000
 1003.60000    8.58423   14.02149   14.25617   14.22250    2.21825   86.51280    0.34638    3.02814   96.34929    2.75364    8.50000 99000.00000
 1003.70000   -9999.25   13.81500   13.94699   13.95045    2.21716   86.05040    0.34398    3.01038   96.42768    2.53053    8.50000 99000.00000
 1003.80000    8.58416   13.61254   13.82095   13.80360    2.21137   85.48683    0.34266    3.00113   96.67076    2.45701    8.50000 99000.00000
 1003.90000   -9999.25   13.61625   13.78296   13.78300    2.21045   84.63653    0.33773    2.97364   95.97518    2.52527    8.50000 99000.00000
 1004.00000    8.58061   13.85618   13.91868   13.95888    2.19786   85.06632    0.33857    2.94961   96.45579    2.30123    8.50000 99000.00000
 1004.10000    8.58004   13.88747   13.90379   13.94456    2.20594   85.32575    0.33037    2.96631   96.20823    2.32377    8.50000 99000.00000
 1004.20000    8.58090   14.16115   14.16224   14.21101    2.20884   85.85307    0.33229    2.97774   95.96292    2.50947    8.50000 99000.00000
 1004.30000    8.58110   13.76796   13.81114   13.84218    2.20820   85.86077    0.33520    2.95370   96.18938    2.37243    8.50000 99000.00000
 1004.40000    8.57980   13.50314   13.56612   13.57374    2.20584   86.10973    0.33553    2.95384   95.49989    2.51686    8.50000 99000.00000
 1004.50000    8.57997   12.60654   12.56121   12.52818    2.21083   85.64210    0.33084    2.93798   95.88677    2.32007    8.50000 99000.00000
 1004.60000    8.57795   12.24212   12.13648   12.07716    2.21411   87.12945    0.33511    2.93070   95.63519    1.77627    8.50000 99000.00000
 1004.70000    8.57873   12.06631   11.88436   11.83839    2.21230   88.38079    0.33329    2.94188   96.52889    1.28131    8.50000 99000.00000
 1004.80000    8.58101   12.11168   11.99600   11.95469    2.20783   88.53778    0.34018    2.95590   96.34084    1.44667    8.50000 99000.00000
 1004.90000    8.58068   11.40799   11.55349   11.49357    2.20809   90.48985    0.34319    2.92565   96.43123    1.40068    8.50000 99000.00000
 1005.00000    8.58598   10.86513   10.98192   10.86294    2.20276   90.54183    0.33924    2.94694   95.27943    1.28397    8.50000 99000.00000
 1005.10000    8.58764   11.12614   11.19933   11.06880    2.19430   90.54744    0.33508    2.89544   95.14730    1.53650    8.50000 99000.00000
 1005.20000    8.58549   11.27141   11.37873   11.23729    2.19042   91.57518    0.34431    2.89124   94.91475    1.71093    8.50000 99000.00000
 1005.30000    8.58248   11.03083   11.20006   11.03985    2.18643   92.11974    0.34388    2.88948   95.25734    2.19460    8.50000 99000.00000
 1005.40000    8.58415   11.54985   11.71322   11.49956    2.18420   92.32376    0.34079    2.86895   95.04521    2.38408    8.50000 99000.00000
 1005.50000    8.58718    9.01342    8.99463    8.94486    2.18086   92.88986    0.33397    2.85922   95.41170    2.25340    8.50000 99000.00000
