~Version ---------------------------------------------------
VERS.   2.0 : CWLS log ASCII Standard -VERSION 2.0
WRAP.    NO : One line per depth step
DLM . SPACE : Column Data Section Delimiter
~Well ------------------------------------------------------
STRT.m          1000.00000 : START DEPTH
STOP.m          2000.00000 : STOP DEPTH
STEP.m             0.10000 : STEP
NULL.             -9999.25 : NULL VALUE
COMP. FORCE 2020 Recreator : 
WELL.   WELL_FORCE_2020_10 : 
FLD .                      : FIELD
LOC .                      : LOCATION
PROV.                      : PROVINCE
CNTY.                      : COUNTY
STAT.                      : STATE
CTRY.                      : COUNTRY
SRVC.                      : SERVICE COMPANY
DATE.                      : DATE
UWI .                      : UNIQUE WELL ID
API .                      : API NUMBER
~Curve Information -----------------------------------------
DEPT                            .m      : 
CALI                            .in     : 
RSHA                            .ohm.m  : 
RMED                            .ohm.m  : 
RDEP                            .ohm.m  : 
RHOB                            .g/cm3  : 
GR                              .gAPI   : 
NPHI                            .v/v    : 
PEF                             .b/e    : 
DTC                             .us/ft  : 
SP                              .mV     : 
BS                              .in     : 
FORCE_2020_LITHOFACIES_LITHOLOGY.code   : 
~Params ----------------------------------------------------
~Other -----------------------------------------------------
~ASCII -----------------------------------------------------
# ...
 1929.60000    8.57504    5.83645    5.56039    5.59518    2.40872   74.79837    0.25951    2.60751   92.79446  -16.16512    8.50000 65030.00000
 1929.70000    8.57640    6.17659    5.95921    5.97212    2.40354   73.91394    0.25815    2.59797   93.11685  -15.96371    8.50000 65030.00000
 1929.80000    8.57659    6.38442    6.38120    6.32350    2.40187   74.59864    0.26056    2.57890   93.35007  -15.92299    8.50000 65030.00000
 1929.90000    8.57581    6.49822    6.47104    6.41112    2.39826   73.47015    0.26461    2.58238   93.76460  -15.96073    8.50000 65030.00000
 1930.00000    8.57663    6.69503    6.66041    6.58966    2.39668   72.83945    0.26261    2.56910   93.11669  -15.50000    8.50000 65030.00000
 1930.10000    8.57595    6.51309    6.49407    6.43906    2.39815   73.21325    0.26673    2.56008   92.77762  -15.15778    8.50000 65030.00000
 1930.20000    8.57912    6.51010    6.46384    6.39931    2.39824   73.19107    0.26730    2.57086   92.08198  -15.07654    8.50000 65030.00000
 1930.30000    8.57835    6.62871    6.55664    6.47856    2.39688   73.24500    0.26741    2.56401   93.25914  -15.05096    8.50000 65030.00000
 1930.40000    8.57846    6.74323    6.78051    6.68610    2.39791   72.34946    0.27128    2.56312   92.54470  -15.37276    8.50000 65030.00000
 1930.50000    8.58029    6.53541    6.59171    6.49441    2.39283   71.81738    0.27158    2.56367   92.29622  -14.88738    8.50000 65030.00000
 1930.60000    8.58047    6.73225    6.82399    6.73607    2.38904   70.45315    0.27113    2.56785   92.53971  -15.27408    8.50000 65030.00000
 1930.70000    8.58056    6.74422    6.81389    6.72642    2.39316   70.67430    0.26904    2.57049   91.61697  -14.92169    8.50000 65030.00000
 1930.80000    8.58302    6.73300    6.85098    6.77528    2.39668   71.24679    0.26763    2.58514   91.21567  -14.93779    8.50000 65030.00000
 1930.90000    8.58493    6.66851    6.78702    6.71237    2.39900   71.03487    0.26896    2.59628   91.93086  -14.33489    8.50000 65030.00000
 1931.00000    8.58448    6.47706    6.61775    6.55266    2.40036   69.35673    0.26888    2.60287   92.00609  -14.33995    8.50000 65030.00000
 1931.10000    8.58649    6.69174    6.81803    6.76352    2.39736   69.62520    0.26916    2.59827   93.09698  -13.91267    8.50000 65030.00000
 1931.20000    8.58424    6.28417    6.45838    6.40190    2.39035   70.04384    0.26441    2.59923   92.23975  -13.61665    8.50000 65030.00000
 1931.30000    8.58569    6.20551    6.36487    6.32789    2.38787   70.07553    0.26282    2.59267   91.74965  -13.92013    8.50000 65030.00000
 1931.40000    8.58714    6.27017    6.36024    6.35537    2.39578   71.20288    0.26558    2.57549   91.64958  -13.26954    8.50000 65030.00000
 1931.50000    8.58607    6.39196    6.67715    6.64121    2.39605   71.25030    0.26507    2.56709   91.25571  -13.97309    8.50000 65030.00000
 1931.60000    8.58625    6.55637    6.80901    6.78393    2.39671   71.54882    0.26875    2.55621   90.85002  -14.71340    8.50000 65030.00000
 1931.70000    8.58482    6.52000    6.79704    6.76952    2.39906   71.85074    0.26686    2.56370   91.44985  -14.29030    8.50000 65030.00000
 1931.80000    8.58593    6.31932    6.56404    6.55934    2.40659   71.65736    0.26565    2.57298   91.42394  -14.32256    8.50000 65030.00000
 1931.90000    8.58842    6.32851    6.45966    6.50501    2.41437   70.26211    0.26263    2.58332   92.06024  -14.08782    8.50000 65030.00000
 1932.00000    8.59078    6.35938    6.49495    6.52272    2.42065   70.15359    0.25654    2.57374   92.61083  -14.57138    8.50000 65030.00000
 1932.10000    8.59040    6.15236    6.29880    6.32646    2.41755   70.27660    0.26022    2.59598   92.65285  -14.64134    8.50000 65030.00000
 1932.20000    8.58901    6.46522    6.55978    6.60815    2.41476   70.64271    0.26382    2.59901   92.82160  -15.10146    8.50000 65030.00000
 1932.30000    8.58843    6.63626    6.76986    6.85081    2.41151   71.19690    0.25873    2.60104   92.98186  -15.52328    8.50000 65030.00000
 1932.40000    8.58787    6.74552    6.83179    6.93480    2.41278   70.38006    0.26086    2.60885   92.11182  -14.91166    8.50000 65030.00000
 1932.50000    8.58762    6.37840    6.49001    6.59047    2.40326   70.98467    0.26068    2.60363   92.73863  -15.18178    8.50000 65030.00000
 1932.60000    8.58657    6.33891    6.48039    6.61199    2.40594   71.45585    0.26140    2.60879   92.75577  -15.08497    8.50000 65030.00000
 1932.70000    8.58589    6.62555    6.73082    6.89056    2.40637   71.60447    0.26017    2.61332   93.22401  -14.74704    8.50000 65030.00000
 1932.80000    8.58462    6.64966    6.75712    6.93082    2.39857   72.13738    0.25952    2.61070   93.59603  -15.34404    8.50000 65030.00000
 1932.90000    8.58115    6.72349    6.83455    6.99869    2.39042   72.20767    0.25382    2.59777   94.19927  -14.81615    8.50000 65030.00000
 1933.00000    8.58042    6.83898    7.01044    7.15221    2.39080   73.37626    0.25673    2.59315   94.35122  -15.31326    8.50000 65030.00000
 1933.10000    8.57827    6.92225    7.09198    7.22414    2.39123   73.95599    0.25849    2.59749   94.33706  -15.16131    8.50000 65030.00000
 1933.20000    8.57676    7.09353    7.25788    7.38517    2.39081   75.20760    0.25785    2.59824   93.96294  -14.89941    8.50000 65030.00000
 1933.30000    8.57663    7.05886    7.19432    7.30649    2.39281   76.09089    0.25608    2.59707   93.97511  -14.95799    8.50000 65030.00000
 1933.40000    8.57277    7.31911    7.56789    7.66419    2.39200   76.09773    0.25913    2.59350   94.01125  -15.15114    8.50000 65030.00000
 1933.50000    8.57271    7.14849    7.49828    7.54365    2.39023   75.87383    0.25570    2.61777   94.05735  -15.37018    8.50000 65030.00000
 1933.60000    8.57384    6.76466    6.95968    7.02824    2.38739   76.14442    0.25518    2.62180   94.88031  -14.76697    8.50000 65030.00000
 1933.70000    8.57475    6.68944    6.84928    6.92736    2.37881   74.39981    0.25179    2.65345   95.50009  -14.54768    8.50000 65030.00000
 1933.80000    8.57525    6.85564    6.96222    7.02658    2.38176   73.90386    0.25126    2.64340   95.42681  -14.73292    8.50000 65030.00000
 1933.90000    8.57610    6.80477    6.90478    6.97037    2.37602   74.65188    0.25099    2.64244   96.25615  -14.82764    8.50000 65030.00000
 1934.00000    8.57159    6.37194    6.45348    6.52020    2.37371   75.57540    0.25170    2.65342   95.72646  -14.92892    8.50000 65030.00000
 1934.10000    8.57126    6.19052    6.28299    6.35941    2.37217   74.59324    0.25325    2.64534   95.04181  -14.80648    8.50000 65030.00000
 1934.20000    8.57398    6.17716    6.26961    6.34770    2.38073   74.10070    0.24658    2.63170   95.45801  -14.81549    8.50000 65030.00000
 1934.30000    8.57385    5.88794    6.02302    6.06692    2.38057   72.44362    0.24609    2.63235   95.18227  -14.97558    8.50000 65030.00000
 1934.40000    8.57305    5.76447    5.87058    5.90322    2.37967   73.22043    0.24961    2.62153   94.84271  -14.95367    8.50000 65030.00000
 1934.50000    8.57503    5.70970    5.86052    5.91866    2.37864   74.08015    0.24894    2.63265   94.77471  -15.20436    8.50000 65030.00000
 1934.60000    8.57433    5.85599    6.02300    6.05319    2.38340   74.12605    0.25140    2.62698   94.78767  -15.06335    8.50000 65030.00000
 1934.70000    8.57501    5.94350    6.09495    6.09660    2.38401   73.36156    0.25207    2.62818   94.48373  -15.36532    8.50000 65030.00000
 1934.80000    8.57566    5.51364    5.65317    5.62418    2.38648   73.62216    0.25582    2.60997   94.02674  -15.53127    8.50000 65030.00000
 1934.90000    8.57709    5.53558    5.68572    5.65646    2.39109   74.22156    0.25835    2.60550   94.60090  -15.36319    8.50000 65030.00000
 1935.00000    8.57706    5.65099    5.80585    5.75009    2.39090   73.03005    0.26445    2.60321   94.60804  -15.38711    8.50000 65030.00000
 1935.10000    8.57580    5.49742    5.60094    5.57208    2.39013   72.65923    0.25895    2.60060   94.33738  -15.26748    8.50000 65030.00000
