~Version ---------------------------------------------------
VERS.   2.0 : CWLS log ASCII Standard -VERSION 2.0
WRAP.    NO : One line per depth step
DLM . SPACE : Column Data Section Delimiter
~Well ------------------------------------------------------
STRT.m          1000.00000 : START DEPTH
STOP.m          2000.00000 : STOP DEPTH
STEP.m             0.10000 : STEP
NULL.             -9999.25 : NULL VALUE
COMP. FORCE 2020 Recreator : 
WELL.   WELL_FORCE_2020_02 : 
FLD .                      : FIELD
LOC .                      : LOCATION
PROV.                      : PROVINCE
CNTY.                      : COUNTY
STAT.                      : STATE
CTRY.                      : COUNTRY
SRVC.                      : SERVICE COMPANY
DATE.                      : DATE
UWI .                      : UNIQUE WELL ID
API .                      : API NUMBER
~Curve Information -----------------------------------------
DEPT                            .m      : 
CALI                            .in     : 
RSHA                            .ohm.m  : 
RMED                            .ohm.m  : 
RDEP                            .ohm.m  : 
RHOB                            .g/cm3  : 
GR                              .gAPI   : 
NPHI                            .v/v    : 
PEF                             .b/e    : 
DTC                             .us/ft  : 
SP                              .mV     : 
BS                              .in     : 
FORCE_2020_LITHOFACIES_LITHOLOGY.code   : 
~Params ----------------------------------------------------
~Other -----------------------------------------------------
~ASCII -----------------------------------------------------
# ...
 1201.60000    8.58530    3.96424    4.08871    4.14941    2.51467   78.05096    0.30966    3.20582   96.39493   -0.71719    8.50000 80000.00000
 1201.70000    8.58239    3.91520    4.06367    4.12185    2.52209   77.94714    0.30897    3.20707   96.84623   -0.20285    8.50000 80000.00000
 1201.80000    8.58118    4.02066    4.17745    4.25094    2.52041   78.72757    0.31111    3.21446   97.51167   -0.27821    8.50000 80000.00000
 1201.90000    8.58133    4.06372    4.22306    4.26969    2.52219   76.84143    0.31139    3.22410   97.67742   -0.20314    8.50000 80000.00000
 1202.00000    8.58051    4.13467    4.30010    4.33377    2.52331   77.51122    0.31603    3.23256   97.69771    0.11741    8.50000 80000.00000
 1202.10000    8.57919    4.10993    4.21253    4.26757    2.52382   78.09889    0.31199    3.21915   97.82747   -0.36761    8.50000 80000.00000
 1202.20000    8.57871    4.19544    4.30399    4.36250    2.52289   78.88047    0.31341    3.21812   98.12905   -0.56668    8.50000 80000.00000
 1202.30000    8.57837    4.15241    4.30211    4.36094    2.51937   79.97876    0.31175    3.22623   98.17383   -1.18338    8.50000 80000.00000
 1202.40000    8.57916    4.23037    4.37141    4.42464    2.52455   79.84946    0.31431    3.23654   98.09866   -0.84007    8.50000 80000.00000
 1202.50000    8.57758    4.29481    4.45746    4.50649    2.52599   80.28005    0.31443    3.22226   97.89959   -0.64728    8.50000 80000.00000
 1202.60000    8.57855    4.28505    4.43135    4.48609    2.52751   80.63311    0.31634    3.22546   97.26239   -0.65114    8.50000 80000.00000
 1202.70000    8.57851    4.33226    4.48017    4.53086    2.52900   81.67771    0.31261    3.22615   97.19272   -0.71214    8.50000 80000.00000
 1202.80000    8.58150    4.44928    4.61828    4.69155    2.53081   82.86476    0.31187    3.22790   97.13552   -0.43324    8.50000 80000.00000
 1202.90000    8.58060    4.54555    4.76910    4.80922    2.52896   83.26923    0.31260    3.22333   96.57081   -0.26677    8.50000 80000.00000
 1203.00000    8.58233    4.67428    4.87891    4.92958    2.53417   82.84782    0.31112    3.20527   96.71960    0.17349    8.50000 80000.00000
 1203.10000    8.58437    4.70600    4.91058    4.97085    2.52836   83.23961    0.30998    3.19315   96.24383    0.49042    8.50000 80000.00000
 1203.20000    8.58316    4.73006    4.88351    4.95333    2.53129   83.62691    0.31052    3.21617   96.24177    0.29501    8.50000 80000.00000
 1203.30000    8.58370    4.75430    4.87643    4.97046    2.52978   82.52992    0.31123    3.22002   96.08486    0.50507    8.50000 80000.00000
 1203.40000    8.58265    4.71412    4.83208    4.91299    2.52882   81.12448    0.31268    3.21689   95.56629    0.63335    8.50000 80000.00000
 1203.50000    8.58341    4.70435    4.81702    4.90116    2.52607   80.82645    0.31330    3.22069   95.42421    0.22748    8.50000 80000.00000
 1203.60000    8.58230    4.50498    4.63426    4.70882    2.52997   80.99241    0.31183    3.21285   95.36718   -0.04390    8.50000 80000.00000
 1203.70000    8.58111    4.23182    4.28633    4.35589    2.52666   81.76308    0.30988    3.21774   95.19655   -0.06961    8.50000 80000.00000
 1203.80000    8.58134    4.34311    4.34943    4.41895    2.52545   81.86873    0.30975    3.22600   94.58260   -0.21280    8.50000 80000.00000
 1203.90000    8.58292    4.44332    4.42689    4.49225    2.52679   80.83886    0.30824    3.21786   94.40388    0.01899    8.50000 80000.00000
 1204.00000    8.58358    4.41623    4.38615    4.45630    2.52711   82.53415    0.30734    3.20138   94.51764    0.70421    8.50000 80000.00000
 1204.10000    8.58513    4.35002    4.32412    4.39942    2.52656   82.27087    0.30839    3.19112   94.62433    0.50883    8.50000 80000.00000
 1204.20000    8.58059    4.37105    4.32069    4.37840    2.52810   82.72377    0.30823    3.21260   94.90706    0.59168    8.50000 80000.00000
 1204.30000    8.58038    4.31143    4.22277    4.28095    2.52714   82.48374    0.30832    3.20734   94.87507    0.69594    8.50000 80000.00000
 1204.40000    8.58018    4.30167    4.20366    4.27006    2.52834   82.31084    0.30837    3.20637   94.79167    1.20357    8.50000 80000.00000
 1204.50000    8.57756    4.23482    4.11847    4.19330    2.52127   82.76472    0.30694    3.19896   95.10317    1.11889    8.50000 80000.00000
 1204.60000    8.57750    4.21119    4.06870    4.12928    2.52279   82.50815    0.30394    3.20140   94.98864    0.93531    8.50000 80000.00000
 1204.70000    8.57699    4.17132    4.02125    4.09568    2.52092   82.25240    0.30085    3.19684   95.28364    0.81952    8.50000 80000.00000
 1204.80000    8.57625    4.27154    4.03976    4.12966    2.51978   81.75148    0.30268    3.19831   95.58588    0.78904    8.50000 80000.00000
 1204.90000    8.57352    4.16812    3.94494    4.01999    2.52410   80.66385    0.30093    3.17154   95.89331    1.24113    8.50000 80000.00000
 1205.00000    8.56941    4.07996    3.79130    3.89167    2.52104   80.57904    0.30250    3.17569   96.01196    1.48511    8.50000 80000.00000
 1205.10000    8.57141    4.05188    3.93775    3.99135    2.52044   80.03561    0.30323    3.18196   95.46821    1.03024    8.50000 80000.00000
 1205.20000    8.56962    4.08903    3.96771    4.00097    2.52469   80.29059    0.30593    3.18366   95.73642    0.66533    8.50000 80000.00000
 1205.30000    8.57099    4.13529    4.00761    4.05753    2.51178   80.18217    0.30717    3.17583   95.77133    1.02599    8.50000 80000.00000
 1205.40000    8.57020    4.03423    3.93725    3.97146    2.51296   80.91009    0.30798    3.16818   95.71456    0.75203    8.50000 80000.00000
 1205.50000    8.57266    4.14102    4.07423    4.12164    2.50969   81.75044    0.30518    3.17370   95.92202    0.86289    8.50000 80000.00000
 1205.60000    8.57126    4.04646    3.98945    4.03168    2.50906   82.12987    0.30401    3.18341   96.38424    1.08267    8.50000 80000.00000
 1205.70000    8.57314    4.33487    4.21719    4.26058    2.50698   82.20523    0.30805    3.19899   96.50133    1.51009    8.50000 80000.00000
 1205.80000    8.57198    4.24919    4.15691    4.18871    2.50883   81.98518    0.30942    3.19221   96.34517    1.35568    8.50000 80000.00000
 1205.90000    8.57432    4.12930    4.06279    4.09129    2.50879   81.42504    0.31153    3.17575   97.05791    1.73309    8.50000 80000.00000
 1206.00000    8.57444    4.15332    4.11664    4.13761    2.50947   81.88280    0.31226    3.18269   96.76311    1.52936    8.50000 80000.00000
 1206.10000    8.57614    4.53608    4.46145    4.50103    2.51015   81.04845    0.31482    3.19992   96.77720    1.04825    8.50000 80000.00000
 1206.20000    8.57468    4.54831    4.46082    4.50205    2.50825   81.91226    0.31622    3.21394   96.99007    0.88898    8.50000 80000.00000
 1206.30000    8.57741    4.50686    4.43973    4.49044    2.50455   81.74219    0.31764    3.19340   96.69500    1.25575    8.50000 80000.00000
 1206.40000    8.57535    4.73003    4.69332    4.70338    2.50638   81.49527    0.31709    3.21215   95.84795    1.26290    8.50000 80000.00000
 1206.50000    8.57689    4.88659    4.80438    4.81827    2.50701   81.79047    0.31926    3.21396   96.37894    1.03661    8.50000 80000.00000
 1206.60000    8.58382    4.82002    4.73615    4.74134    2.51408   81.48109    0.31933    3.21495   96.46865    1.19391    8.50000 80000.00000
 1206.70000    8.58307    5.09421    5.02658    5.03366    2.50595   82.21643    0.31850    3.20561   96.39673    1.29046    8.50000 80000.00000
 1206.80000    8.58227    5.04146    4.99345    4.99830    2.50384   82.59980    0.31903    3.21221   96.12621    1.30448    8.50000 80000.00000
 1206.90000    8.58153    4.93520    4.94817    4.94387    2.50998   82.77447    0.31977    3.18725   96.12375    1.23442    8.50000 80000.00000
 1207.00000    8.58332    4.92152    4.93063    4.92465    2.50618   82.95777    0.32272    3.21111   96.21957    0.59075    8.50000 80000.00000
 1207.10000    8.58636    5.10159    5.08330    5.09968    2.51004   83.11867    0.32081    3.20931   96.68895    0.64760    8.50000 80000.00000
