~Version ---------------------------------------------------
VERS.   2.0 : CWLS log ASCII Standard -VERSION 2.0
WRAP.    NO : One line per depth step
DLM . SPACE : Column Data Section Delimiter
~Well ------------------------------------------------------
STRT.m          1000.00000 : START DEPTH
STOP.m          2000.00000 : STOP DEPTH
STEP.m             0.10000 : STEP
NULL.             -9999.25 : NULL VALUE
COMP. FORCE 2020 Recreator : 
WELL.   WELL_FORCE_2020_07 : 
FLD .                      : FIELD
LOC .                      : LOCATION
PROV.                      : PROVINCE
CNTY.                      : COUNTY
STAT.                      : STATE
CTRY.                      : COUNTRY
SRVC.                      : SERVICE COMPANY
DATE.                      : DATE
UWI .                      : UNIQUE WELL ID
API .                      : API NUMBER
~Curve Information -----------------------------------------
DEPT                            .m      : 
CALI                            .in     : 
RSHA                            .ohm.m  : 
RMED                            .ohm.m  : 
RDEP                            .ohm.m  : 
RHOB                            .g/cm3  : 
GR                              .gAPI   : 
NPHI                            .v/v    : 
PEF                             .b/e    : 
DTC                             .us/ft  : 
SP                              .mV     : 
BS                              .in     : 
FORCE_2020_LITHOFACIES_LITHOLOGY.code   : 
~Params ----------------------------------------------------
~Other -----------------------------------------------------
~ASCII -----------------------------------------------------
# ...
 1795.20000    8.57648   47.66569   45.70130   46.62079    2.69159   19.63074    0.09877    5.07049   59.24870   -5.27655    8.50000 70000.00000
 1795.30000    8.57931   48.83366   46.79349   47.77267    2.69142   19.68594    0.09913    5.06830   59.52222   -5.14215    8.50000 70000.00000
 1795.40000    8.57769   52.92456   51.00595   51.96812    2.69471   19.88969    0.09796    5.07009   59.71793   -5.07583    8.50000 70000.00000
 1795.50000    8.57588   54.82232   53.77820   54.67729    2.69372   20.44003    0.09971    5.06486   59.37787   -4.98518    8.50000 70000.00000
 1795.60000    8.57325   54.80946   53.85677   54.81813    2.69432   21.16708    0.10119    5.07846   58.70246   -4.74162    8.50000 70000.00000
 1795.70000    8.57334   56.32430   54.83073   55.47480    2.69239   20.76003    0.10452    5.06848   58.55404   -4.63978    8.50000 70000.00000
 1795.80000    8.57727   54.92470   53.93812   54.57260    2.69024   20.84327    0.10422    5.07199   57.92815   -4.81209    8.50000 70000.00000
 1795.90000    8.57836   55.37430   54.73450   55.20836    2.68894   20.95769    0.10500    5.07695   58.39382   -5.10325    8.50000 70000.00000
 1796.00000    8.57896   56.72052   56.17888   56.37478    2.69286   20.31431    0.10591    5.06607   57.87980   -4.85336    8.50000 70000.00000
 1796.10000    8.58296   57.10234   56.61776   56.79191    2.69018   20.13144    0.10641    5.06586   57.74499   -4.72816    8.50000 70000.00000
 1796.20000    8.58159   57.82976   57.11327   57.25782    2.68680   20.18795    0.10774    5.06892   58.12260   -4.28635    8.50000 70000.00000
 1796.30000    8.58081   56.01235   55.38517   55.43377    2.68743   19.85138    0.10802    5.06843   58.39443   -4.13486    8.50000 70000.00000
 1796.40000    8.58429   39.29557   39.36537   38.72848    2.68743   19.52961    0.10642    5.06670   58.33567   -4.61702    8.50000 70000.00000
 1796.50000    8.58395   39.05114   39.18076   38.46469    2.68984   19.49180    0.10572    5.06793   58.44251   -4.80609    8.50000 70000.00000
 1796.60000    8.58340   38.58248   38.69116   37.95947    2.68592   19.75858    0.10670    5.05915   58.38223   -4.74758    8.50000 70000.00000
 1796.70000    8.58137   39.05813   39.85808   39.09171    2.68344   20.06294    0.10839    5.05162   58.73322   -4.49760    8.50000 70000.00000
 1796.80000    8.57655   39.73806   40.75124   39.88474    2.67996   19.72339    0.10746    5.05613   58.74212   -4.22085    8.50000 70000.00000
 1796.90000    8.57770   40.64306   41.90464   41.65026    2.67887   19.70161    0.10802    5.04537   58.54471   -4.11645    8.50000 70000.00000
 1797.00000    8.57693   45.50214   46.52403   47.03268    2.68282   20.39859    0.10982    5.04769   58.65321   -4.05458    8.50000 70000.00000
 1797.10000    8.57936   44.84788   46.05623   46.48393    2.67855   20.16821    0.10755    5.04592   58.83295   -4.06293    8.50000 70000.00000
 1797.20000    8.58263   46.92130   48.00848   48.48380    2.67739   20.12196    0.10648    5.04943   58.62106   -3.89980    8.50000 70000.00000
 1797.30000    8.58350   48.13114   49.15648   49.63439    2.67444   19.92782    0.10611    5.03727   58.39931   -3.35084    8.50000 70000.00000
 1797.40000    8.58354   47.29165   48.55591   48.95539    2.67416   19.90137    0.10624    5.02622   57.83692   -3.48197    8.50000 70000.00000
 1797.50000    8.58091   42.93408   44.15791   44.51401    2.67313   19.44948    0.10658    5.02440   57.69446   -3.77603    8.50000 70000.00000
 1797.60000    8.58104   40.36586   40.92024   41.29280    2.67492   19.24911    0.10507    5.02745   57.93413   -4.13876    8.50000 70000.00000
 1797.70000    8.58139   45.61133   45.59153   45.55234    2.67308   18.75869    0.10340    5.00882   58.11079   -4.36065    8.50000 70000.00000
 1797.80000    8.57857   43.05767   43.31069   43.67143    2.67524   18.59470    0.10176    5.03583   58.30804   -4.38445    8.50000 70000.00000
 1797.90000    8.57292   43.29663   44.03154   44.19198    2.67558   18.74399    0.10030    5.05020   58.68768   -4.29883    8.50000 70000.00000
 1798.00000    8.57597   42.89258   43.25138   43.52159    2.67695   18.64164    0.09958    5.05627   57.78048   -4.08043    8.50000 70000.00000
 1798.10000    8.57504   41.61902   41.97493   42.46300    2.67623   19.13074    0.09989    5.06424   57.98595   -4.45346    8.50000 70000.00000
 1798.20000    8.57433   41.40218   41.73382   42.37194    2.67633   19.11308    0.09847    5.07314   57.60529   -4.62573    8.50000 70000.00000
 1798.30000    8.57436   41.82596   42.30485   42.88177    2.67692   19.23740    0.09827    5.06933   57.16795   -4.99241    8.50000 70000.00000
 1798.40000    8.57294   41.59503   42.10416   42.72522    2.67530   18.96674    0.09838    5.07914   56.93147   -4.39203    8.50000 70000.00000
 1798.50000    8.57431   41.36090   42.00452   42.57267    2.67868   19.30030    0.09917    5.07563   57.05306   -3.86414    8.50000 70000.00000
 1798.60000    8.57446   41.35347   41.83678   42.37418    2.67680   19.23713    0.10137    5.09776   57.01920   -3.92717    8.50000 70000.00000
 1798.70000    8.57816   41.90882   42.89864   43.30145    2.67900   19.38142    0.10105    5.11361   56.97793   -3.95282    8.50000 70000.00000
 1798.80000    8.58018   41.50724   41.70250   42.19631    2.68044   19.21873    0.10154    5.11415   56.82629   -4.46050    8.50000 70000.00000
 1798.90000    8.58371   42.18956   42.45313   42.97082    2.68404   19.46809    0.10040    5.11634   56.86320   -4.55960    8.50000 70000.00000
 1799.00000    8.58573   39.61583   39.56100   39.70646    2.68239   19.74785    0.10057    5.14310   57.15869   -4.32858    8.50000 70000.00000
 1799.10000    8.58642   35.18442   35.11823   34.64261    2.68061   19.35896    0.10250    5.14486   56.75458   -4.54377    8.50000 70000.00000
 1799.20000    8.58282   37.33157   36.98961   36.66924    2.68125   19.44834    0.10249    5.12448   56.89003   -4.58844    8.50000 70000.00000
 1799.30000    8.57699   37.60174   37.65779   37.23865    2.68312   19.63472    0.10247    5.12585   57.09850   -4.88378    8.50000 70000.00000
 1799.40000    8.57540   37.85114   38.24173   37.68256    2.68319   19.75841    0.10272    5.12930   57.16681   -5.47497    8.50000 70000.00000
 1799.50000    8.57378   38.76633   39.01798   38.43378    2.68217   19.70038    0.10199    5.14117   57.61508   -5.35848    8.50000 70000.00000
 1799.60000    8.57589   44.39216   44.57176   43.63751    2.68365   19.70633    0.10057    5.16100   57.23068   -5.35314    8.50000 70000.00000
 1799.70000    8.57911   47.14341   47.03317   46.18007    2.68112   19.40307    0.09974    5.15642   57.18088   -5.50807    8.50000 70000.00000
 1799.80000    8.57863   42.15241   42.47248   41.97118    2.68107   19.48277    0.10026    5.18044   57.39137   -5.49255    8.50000 70000.00000
 1799.90000    8.57914   42.47567   42.88320   42.23816    2.68194   20.25032    0.09891    5.15961   57.10625   -5.63233    8.50000 70000.00000
 1800.00000    8.58112   45.59531   45.07183   44.61392    2.68486   20.92255    0.10133    5.14970   57.46392   -5.51141    8.50000 70000.00000
 1800.10000    8.57767   46.14656   45.63876   44.96778    2.68450   21.14601    0.10137    5.14192   57.69204   -5.67869    8.50000 70000.00000
 1800.20000    8.57824   48.03350   48.14680   47.43939    2.68441   21.03355    0.10212    5.12538   57.88245   -5.42404    8.50000 70000.00000
 1800.30000    8.57752   48.14221   48.32843   47.40963    2.68691   20.98832    0.10318    5.12333   58.27601   -5.68540    8.50000 70000.00000
 1800.40000    8.57805   46.97987   47.21248   46.35082    2.68882   21.03352    0.10334    5.13415   58.73417   -5.83018    8.50000 70000.00000
 1800.50000    8.58102   47.69294   48.03788   47.14554    2.68897   21.12789    0.10435    5.11719   58.51007   -6.56691    8.50000 70000.00000
 1800.60000    8.57946   48.82390   49.23409   48.37287    2.68749   21.01740    0.10301    5.10748   58.38175   -6.56414    8.50000 70000.00000
 1800.70000    8.58019   47.19971   47.50154   46.70719    2.68792   21.27966    0.10063    5.09256   58.26985   -6.89394    8.50000 70000.00000
