~Version ---------------------------------------------------
VERS.   2.0 : CWLS log ASCII Standard -VERSION 2.0
WRAP.    NO : One line per depth step
DLM . SPACE : Column Data Section Delimiter
~Well ------------------------------------------------------
STRT.m          1000.00000 : START DEPTH
STOP.m          2000.00000 : STOP DEPTH
STEP.m             0.10000 : STEP
NULL.             -9999.25 : NULL VALUE
COMP. FORCE 2020 Recreator : 
WELL.   WELL_FORCE_2020_02 : 
FLD .                      : FIELD
LOC .                      : LOCATION
PROV.                      : PROVINCE
CNTY.                      : COUNTY
STAT.                      : STATE
CTRY.                      : COUNTRY
SRVC.                      : SERVICE COMPANY
DATE.                      : DATE
UWI .                      : UNIQUE WELL ID
API .                      : API NUMBER
~Curve Information -----------------------------------------
DEPT                            .m      : 
CALI                            .in     : 
RSHA                            .ohm.m  : 
RMED                            .ohm.m  : 
RDEP                            .ohm.m  : 
RHOB                            .g/cm3  : 
GR                              .gAPI   : 
NPHI                            .v/v    : 
PEF                             .b/e    : 
DTC                             .us/ft  : 
SP                              .mV     : 
BS                              .in     : 
FORCE_2020_LITHOFACIES_LITHOLOGY.code   : 
~Params ----------------------------------------------------
~Other -----------------------------------------------------
~ASCII -----------------------------------------------------
# ...
 1134.40000    8.57707 1812.03545 1901.25430 1887.58819    2.95629   12.19280    0.01903    5.00486   50.17254    6.07888    8.50000 86000.00000
 1134.50000    8.57541 1875.09069 1989.35915 1959.53265    2.95829   12.24048    0.01812    5.01048   50.13837    6.18792    8.50000 86000.00000
 1134.60000    8.57201 1901.70243 2011.54854 1984.10678    2.96107   12.04417    0.01765    5.00330   49.98663    6.24228    8.50000 86000.00000
 1134.70000    8.57174 1880.48641 1995.35822 1963.73132    2.96210   12.35963    0.01800    4.98616   49.93134    6.26805    8.50000 86000.00000
 1134.80000    8.57099 1902.50664 2016.50105 1981.53366    2.96379   11.90756    0.01757    4.99562   49.90855    6.30221    8.50000 86000.00000
 1134.90000    8.57265 1925.03531 2037.78993 2003.47165    2.96393   11.70000    0.01770    4.98485   49.76290    6.26573    8.50000 86000.00000
 1135.00000    8.57406 1984.87039 2115.30291 2057.43166    2.96443   11.42149    0.01808    4.99559   49.74243    6.32685    8.50000 86000.00000
 1135.10000    8.57631 1925.52854 2041.50942 1976.80655    2.96437   11.62853    0.01686    4.98315   49.85290    6.12897    8.50000 86000.00000
 1135.20000    8.57474 1754.57661 1862.37277 1813.13634    2.96405   11.63908    0.01750    4.98263   49.78511    6.20064    8.50000 86000.00000
 1135.30000    8.57382 1774.23912 1873.77492 1828.61470    2.96358   11.72370    0.01729    4.99262   49.74744    6.19898    8.50000 86000.00000
 1135.40000    8.57406 1720.64415 1826.20073 1778.02719    2.96200   11.83705    0.01727    4.98395   49.76340    6.31666    8.50000 86000.00000
 1135.50000    8.57439 1666.66639 1766.39020 1718.09176    2.96410   11.60388    0.01785    4.97539   49.78101    6.57425    8.50000 86000.00000
 1135.60000    8.57360 1621.37841 1719.75409 1671.21802    2.96422   11.53483    0.01800    4.98118   49.92683    6.48417    8.50000 86000.00000
 1135.70000    8.57097 1671.89039 1763.64612 1720.25067    2.96444   11.51375    0.01846    4.97288   50.15814    6.42032    8.50000 86000.00000
 1135.80000    8.56909 1895.43030 2019.51821 1974.44809    2.96403   11.70660    0.01745    4.97877   49.91674    6.32117    8.50000 86000.00000
 1135.90000    8.56806 1873.06882 1990.51059 1952.38349    2.96589   11.57037    0.01697    4.98045   49.87090    6.27814    8.50000 86000.00000
 1136.00000    8.56837 1871.54846 2032.35455 1986.50799    2.96528   11.52680    0.01610    4.97143   49.73243    6.37563    8.50000 86000.00000
 1136.10000    8.57168 2013.13513 2145.39887 2114.65402    2.96321   11.42316    0.01599    4.95140   49.70387    6.59316    8.50000 86000.00000
 1136.20000    8.57186 2045.99826 2157.70824 2123.13088    2.96099   11.78379    0.01593    4.95344   49.40358    6.50069    8.50000 86000.00000
 1136.30000    8.57323 2045.61436 2156.78050 2126.14476    2.96290   11.77157    0.01609    4.94915   49.41386    6.27427    8.50000 86000.00000
 1136.40000    8.57332 1917.11864 1973.19521 1954.58708    2.96123   11.90150    0.01603    4.94376   49.54040    6.34703    8.50000 86000.00000
 1136.50000    8.57542 1920.25908 1968.85210 1949.72325    2.95874   11.82910    0.01615    4.94998   49.43260    6.36075    8.50000 86000.00000
 1136.60000    8.57323 1835.96718 1851.48642 1845.69333    2.95586   11.74303    0.01795    4.94909   49.69962    6.08895    8.50000 86000.00000
 1136.70000    8.57609 1888.99523 1897.81762 1896.82147    2.95268   11.86499    0.01940    4.96684   49.84932    6.41561    8.50000 86000.00000
 1136.80000    8.57913 1912.00451 1925.84856 1923.02536    2.95370   11.79832    0.01978    4.97995   49.93914    6.39548    8.50000 86000.00000
 1136.90000    8.58081 1965.21147 1986.13457 1981.09176    2.95176   12.33109    0.02006    4.95833   49.90927    6.39774    8.50000 86000.00000
 1137.00000    8.58081 1983.60934 1998.38478 1990.85304    2.95224   12.27698    0.01983    4.96239   50.18610    6.16468    8.50000 86000.00000
 1137.10000    8.58115 1761.76466 1791.39586 1794.30547    2.95078   12.38194    0.01946    4.95014   50.19733    6.12598    8.50000 86000.00000
 1137.20000    8.58036 1729.17160 1762.06728 1766.71480    2.95250   12.56736    0.02037    4.95298   50.23188    6.24393    8.50000 86000.00000
 1137.30000    8.57954 1705.98987 1744.65050 1748.86247    2.95446   12.62330    0.02033    4.94593   50.29855    5.96568    8.50000 86000.00000
 1137.40000    8.58266 1739.42075 1791.81080 1792.41637    2.95359   12.52026    0.02099    4.92707   50.35907    5.80054    8.50000 86000.00000
 1137.50000    8.58331 1730.14191 1782.43128 1783.73661    2.95435   12.49778    0.01965    4.94045   50.34257    5.66182    8.50000 86000.00000
 1137.60000    8.58391 1779.01731 1838.00278 1839.96174    2.95607   12.60909    0.01896    4.93708   50.47412    5.59411    8.50000 86000.00000
 1137.70000    8.58594 1929.09805 1969.80246 1974.66541    2.95554   12.29473    0.01931    4.93403   50.40126    5.53858    8.50000 86000.00000
 1137.80000    8.58919 1901.29849 1942.33542 1942.24751    2.95247   12.02467    0.01900    4.93285   50.14612    5.49660    8.50000 86000.00000
 1137.90000    8.59001 1697.55985 1710.01956 1713.50808    2.95280   12.08301    0.01928    4.92815   50.37933    5.57853    8.50000 86000.00000
 1138.00000    8.59086 2222.64951 2205.45737 2191.86359    2.95119   12.26380    0.02053    4.91605   50.29974    5.60365    8.50000 86000.00000
 1138.10000    8.59065 2268.90290 2213.13145 2214.89378    2.95258   12.35216    0.02078    4.92506   50.33808    5.57479    8.50000 86000.00000
 1138.20000    8.58768 2076.33450 2044.60868 2032.45452    2.95347   12.43114    0.02102    4.91808   50.38894    5.47296    8.50000 86000.00000
 1138.30000    8.58704 1994.27650 1978.53123 1964.32155    2.95420   12.19323    0.02135    4.90089   50.32791    5.33830    8.50000 86000.00000
 1138.40000    8.58730 2097.41570 2100.62829 2086.76098    2.95051   12.27291    0.02136    4.90636   50.52817    5.54715    8.50000 86000.00000
 1138.50000    8.58684 2259.19917 2239.93031 2228.04774    2.95145   12.08856    0.02156    4.92668   50.47902    5.43065    8.50000 86000.00000
 1138.60000    8.58637 2237.09138 2215.40270 2204.68824    2.95410   11.97619    0.02090    4.92007   50.62621    5.31743    8.50000 86000.00000
 1138.70000    8.58690 2353.20769 2343.57209 2345.07470    2.95677   12.00938    0.01990    4.93039   50.25602    5.32121    8.50000 86000.00000
 1138.80000    8.58555 2497.87628 2519.19752 2484.48274    2.95826   11.79463    0.01989    4.92671   50.13596    5.06890    8.50000 86000.00000
 1138.90000    8.58768 2554.78899 2560.79512 2531.78617    2.95983   11.83810    0.01902    4.92594   50.13617    5.15429    8.50000 86000.00000
 1139.00000    8.58512 2462.36241 2462.66683 2437.34731    2.95977   11.60120    0.01902    4.93228   49.99248    5.24954    8.50000 86000.00000
 1139.10000    8.58026 2440.88423 2449.24140 2427.36748    2.95923   11.46318    0.01903    4.92144   50.04182    5.41640    8.50000 86000.00000
 1139.20000    8.65508 2434.62673 2442.60598 2420.35793    2.93743   15.55373    0.03481    4.84015   52.74568    5.25796    8.50000 86000.00000
 1139.30000    8.74987 2398.21049 2405.78267 2384.60862    2.91468   20.91898    0.05206    4.76439   56.24761    5.21472    8.50000 86000.00000
 1139.40000    8.80623 2379.84846 2389.26987 2367.07908    2.88622   24.91700    0.06648    4.71211   58.68945    5.42262    8.50000 86000.00000
 1139.50000    8.85820 2290.43343 2295.95197 2271.63444    2.86784   31.40667    0.08134    4.65723   60.91952    5.43021    8.50000 86000.00000
 1139.60000    8.90396 2271.05467 2276.68373 2251.39899    2.84786   37.04787    0.09919    4.57442   64.09990    5.72994    8.50000 86000.00000
 1139.70000    8.97067 2140.68056 2133.39456 2109.04354    2.82559   42.29268    0.11319    4.52065   66.61014    5.51434    8.50000 86000.00000
 1139.80000    9.03988 1984.66025 1995.30420 1968.05121    2.80600   47.85399    0.13126    4.44145   69.46843    5.64823    8.50000 86000.00000
 1139.90000    9.08881 1946.62999 1961.23956 1934.78318    2.78826   54.35868    0.14728    4.37348   72.75446    5.69395    8.50000 86000.00000
