~Version ---------------------------------------------------
VERS.   2.0 : CWLS log ASCII Standard -VERSION 2.0
WRAP.    NO : One line per depth step
DLM . SPACE : Column Data Section Delimiter
~Well ------------------------------------------------------
STRT.m          1000.00000 : START DEPTH
STOP.m          2000.00000 : STOP DEPTH
STEP.m             0.10000 : STEP
NULL.             -9999.25 : NULL VALUE
COMP. FORCE 2020 Recreator : 
WELL.   WELL_FORCE_2020_02 : 
FLD .                      : FIELD
LOC .                      : LOCATION
PROV.                      : PROVINCE
CNTY.                      : COUNTY
STAT.                      : STATE
CTRY.                      : COUNTRY
SRVC.                      : SERVICE COMPANY
DATE.                      : DATE
UWI .                      : UNIQUE WELL ID
API .                      : API NUMBER
~Curve Information -----------------------------------------
DEPT                            .m      : 
CALI                            .in     : 
RSHA                            .ohm.m  : 
RMED                            .ohm.m  : 
RDEP                            .ohm.m  : 
RHOB                            .g/cm3  : 
GR                              .gAPI   : 
NPHI                            .v/v    : 
PEF                             .b/e    : 
DTC                             .us/ft  : 
SP                              .mV     : 
BS                              .in     : 
FORCE_2020_LITHOFACIES_LITHOLOGY.code   : 
~Params ----------------------------------------------------
~Other -----------------------------------------------------
~ASCII -----------------------------------------------------
# ...
 1330.40000    8.57764  197.05479  191.09572  189.01808    1.39685   29.91791    0.51471    1.58886  129.41655   -5.62792    8.50000 90000.00000
 1330.50000    8.57649  206.24088  199.48127  197.72517    1.40544   29.40498    0.51401    1.59096  129.74983   -5.47880    8.50000 90000.00000
 1330.60000    8.57488  185.37697  180.26131  177.75451    1.41187   29.66745    0.51317    1.59452  130.83462   -5.20033    8.50000 90000.00000
 1330.70000    8.57438  173.70681  169.24997  167.25400    1.41843   30.05932    0.51253    1.61046  130.57704   -5.07413    8.50000 90000.00000
 1330.80000    8.57610  200.94287  192.93373  191.84223    1.42196   29.79077    0.51040    1.62124  131.12200   -5.65028    8.50000 90000.00000
 1330.90000    8.57701  203.75490  195.73401  195.80255    1.41564   29.60416    0.51011    1.63205  129.60342   -6.48536    8.50000 90000.00000
 1331.00000    8.57897  193.43444  184.64193  184.66561    1.42805   29.48558    0.50594    1.63249  130.74820   -6.95354    8.50000 90000.00000
 1331.10000    8.57789  164.06121  158.82180  158.43452    1.42675   29.53022    0.50854    1.62037  131.02871   -6.80819    8.50000 90000.00000
 1331.20000    8.57767  167.53263  162.93193  162.58397    1.43077   28.89396    0.50425    1.63593  129.96986   -6.74125    8.50000 90000.00000
 1331.30000    8.57850  169.63892  165.29082  165.12017    1.44074   28.55794    0.50205    1.64868  129.82365   -7.16912    8.50000 90000.00000
 1331.40000    8.57999  166.51616  162.48001  162.32948    1.42876   29.18736    0.50183    1.63277  129.56496   -6.77128    8.50000 90000.00000
 1331.50000    8.58483  157.44374  153.11691  153.85754    1.43718   28.46317    0.50689    1.63623  129.89279   -6.59893    8.50000 90000.00000
 1331.60000    8.58634  162.36828  158.28700  158.84185    1.44164   29.18208    0.50783    1.63113  129.18530   -6.25317    8.50000 90000.00000
 1331.70000    8.59091  172.70278  169.89879  170.86042    1.44223   29.85665    0.51087    1.63254  129.28553   -6.20127    8.50000 90000.00000
 1331.80000    8.58956  170.78573  167.81171  168.90040    1.43087   29.69278    0.50647    1.62192  127.53415   -6.24106    8.50000 90000.00000
 1331.90000    8.59157  162.23684  160.54529  161.91020    1.43687   30.33517    0.50338    1.62228  125.91777   -6.48808    8.50000 90000.00000
 1332.00000    8.59276  172.44972  166.50033  168.44480    1.43015   29.88493    0.50589    1.62889  126.46774   -6.49131    8.50000 90000.00000
 1332.10000    8.59175  183.24789  179.01816  182.21107    1.43289   29.90213    0.50899    1.62352  126.34613   -6.78599    8.50000 90000.00000
 1332.20000    8.59630  197.46276  194.17263  196.84682    1.43308   29.78550    0.50877    1.62059  127.26489   -6.91894    8.50000 90000.00000
 1332.30000    8.59818  197.61874  195.04255  197.94530    1.44368   29.14042    0.50916    1.61106  126.13834   -7.14651    8.50000 90000.00000
 1332.40000    8.59501  195.83281  193.03578  196.74676    1.44794   29.65636    0.50890    1.61848  125.08112   -7.92311    8.50000 90000.00000
 1332.50000    8.59397  193.01841  193.85451  195.74127    1.44822   29.23245    0.50537    1.61628  123.87109   -8.01677    8.50000 90000.00000
 1332.60000    8.59355  201.25454  206.20208  205.76267    1.43839   29.64850    0.50760    1.60690  123.32641   -8.13433    8.50000 90000.00000
 1332.70000    8.59513  214.77906  219.47624  219.21051    1.43290   29.48852    0.50977    1.61086  123.64716   -8.63008    8.50000 90000.00000
 1332.80000    8.59343   -9999.25  219.47445  219.33304    1.42914   28.61189    0.50746    1.60125  122.38723   -8.32857    8.50000 90000.00000
 1332.90000    8.59328  190.40417  198.01108  197.54092    1.42991   28.38530    0.50966    1.59417  122.43288   -8.01442    8.50000 90000.00000
 1333.00000    8.59330  198.16344  204.81810  203.91890    1.43533   28.10624    0.51308    1.59577  123.41054   -7.83719    8.50000 90000.00000
 1333.10000    8.59515  196.53402  203.63641  202.54547    1.42793   28.54092    0.51639    1.58993  123.45613   -7.98139    8.50000 90000.00000
 1333.20000    8.59616  195.96621  203.24500  202.11518    1.42962   28.93145    0.51016    1.60039  123.15562   -8.79549    8.50000 90000.00000
 1333.30000    8.59358  195.76165  201.72802  200.69018    1.42730   29.18130    0.51797    1.59208  123.79347   -8.67158    8.50000 90000.00000
 1333.40000    8.58873  192.10154  197.25112  196.33096    1.41822   29.94984    0.51583    1.57704  123.07613   -8.61310    8.50000 90000.00000
 1333.50000    8.58316  202.78645  210.93731  209.78211    1.42913   29.48888    0.51820    1.55572  124.35975   -9.16182    8.50000 90000.00000
 1333.60000    8.58199  215.57670  225.54458  224.34091    1.41947   29.59050    0.50593    1.55733  124.37418   -9.40687    8.50000 90000.00000
 1333.70000    8.57738  214.86125  224.31010  223.46349    1.42470   30.02561    0.50588    1.56131  123.97765   -9.40719    8.50000 90000.00000
 1333.80000    8.57587  204.40872  211.90425  211.15133    1.41807   30.04217    0.50351    1.56019  122.53984   -9.68227    8.50000 90000.00000
 1333.90000    8.57490  204.44173  212.88353  211.93142    1.42218   30.05027    0.50538    1.56437  123.48164   -9.56741    8.50000 90000.00000
 1334.00000    8.57363  200.86599  209.07138  208.17133    1.41043   30.11952    0.50288    1.56592  125.55020   -8.98989    8.50000 90000.00000
 1334.10000    8.55861  185.67694  197.89829  196.59714    1.45942   31.02700    0.48886    1.56861  123.79866  -10.41864    8.50000 90000.00000
 1334.20000    8.54961  168.28252  180.18819  178.12933    1.49592   31.97883    0.47387    1.59009  120.83750  -11.60278    8.50000 90000.00000
 1334.30000    8.53480  151.98165  163.29478  161.78806    1.53559   32.43254    0.45940    1.60597  118.24808  -13.10722    8.50000 90000.00000
 1334.40000    8.51895  150.44249  160.89509  159.23225    1.57032   34.27952    0.44503    1.63376  116.62784  -14.42278    8.50000 90000.00000
 1334.50000    8.50684  145.52061  155.03863  153.27138    1.61591   34.90482    0.43200    1.64895  115.06021  -15.22064    8.50000 90000.00000
 1334.60000    8.49472  136.50151  144.55374  143.29877    1.66319   36.27613    0.41867    1.66130  113.19401  -16.70557    8.50000 90000.00000
 1334.70000    8.48406  113.14908  116.46494  117.52684    1.71271   36.85201    0.40082    1.66633  111.00464  -17.75146    8.50000 90000.00000
 1334.80000    8.47443   98.37692  102.05810  102.91857    1.75251   37.29578    0.38250    1.67365  108.44672  -18.51878    8.50000 90000.00000
 1334.90000    8.46196   92.52735   95.95389   96.76366    1.79665   38.30844    0.36824    1.68294  107.63264  -20.13674    8.50000 90000.00000
 1335.00000    8.44914   85.53235   89.36803   89.84838    1.83147   39.31464    0.35298    1.69947  105.51043  -21.46709    8.50000 90000.00000
 1335.10000    8.43393   70.20378   75.10063   75.27210    1.86974   40.12890    0.33673    1.71768  103.36716  -23.24752    8.50000 30000.00000
 1335.20000    8.41881   69.22418   73.48082   73.73396    1.91654   40.93979    0.31913    1.73637  100.88306  -23.99905    8.50000 30000.00000
 1335.30000    8.40877   66.52200   69.83514   70.26446    1.95999   42.07681    0.30834    1.73380   98.30836  -24.43163    8.50000 30000.00000
 1335.40000    8.40115   61.89949   66.04970   66.47388    2.00091   41.98624    0.29099    1.74382   95.77904  -25.54474    8.50000 30000.00000
 1335.50000    8.39387   58.06471   62.68496   62.92669    2.04686   43.03779    0.28085    1.75775   94.16408  -26.64712    8.50000 30000.00000
 1335.60000    8.38282   46.18428   48.21847   48.82859    2.09219   43.62399    0.26502    1.79708   91.92936  -27.81853    8.50000 30000.00000
 1335.70000    8.37014   32.58943   32.99095   33.56095    2.13560   43.90724    0.25836    1.82311   89.62762  -29.12778    8.50000 30000.00000
 1335.80000    8.35831   27.79720   28.56658   28.95056    2.17478   43.81895    0.24335    1.83524   88.31865  -30.84618    8.50000 30000.00000
 1335.90000    8.34552   25.44191   26.68185   26.91324    2.22432   44.87397    0.23135    1.84686   86.88823  -31.40814    8.50000 30000.00000
