~Version ---------------------------------------------------
VERS.   2.0 : CWLS log ASCII Standard -VERSION 2.0
WRAP.    NO : One line per depth step
DLM . SPACE : Column Data Section Delimiter
~Well ------------------------------------------------------
STRT.m          1000.00000 : START DEPTH
STOP.m          2000.00000 : STOP DEPTH
STEP.m             0.10000 : STEP
NULL.             -9999.25 : NULL VALUE
COMP. FORCE 2020 Recreator : 
WELL.   WELL_FORCE_2020_08 : 
FLD .                      : FIELD
LOC .                      : LOCATION
PROV.                      : PROVINCE
CNTY.                      : COUNTY
STAT.                      : STATE
CTRY.                      : COUNTRY
SRVC.                      : SERVICE COMPANY
DATE.                      : DATE
UWI .                      : UNIQUE WELL ID
API .                      : API NUMBER
~Curve Information -----------------------------------------
DEPT                            .m      : 
CALI                            .in     : 
RSHA                            .ohm.m  : 
RMED                            .ohm.m  : 
RDEP                            .ohm.m  : 
RHOB                            .g/cm3  : 
GR                              .gAPI   : 
NPHI                            .v/v    : 
PEF                             .b/e    : 
DTC                             .us/ft  : 
SP                              .mV     : 
BS                              .in     : 
FORCE_2020_LITHOFACIES_LITHOLOGY.code   : 
~Params ----------------------------------------------------
~Other -----------------------------------------------------
~ASCII -----------------------------------------------------
 1000.00000    8.57752    4.34226    4.53983    4.49491    2.51468   80.71087    0.31099    3.19730   95.29250    0.12515    8.50000 80000.00000
 1000.10000    8.56972    4.19668    4.39778    4.36237    2.51267   80.48166    0.31395    3.20195   94.55154   -0.28097    8.50000 80000.00000
 1000.20000    8.56890    4.05625    4.25302    4.21885    2.50896   80.53825    0.31026    3.20194   94.93637   -0.48098    8.50000 80000.00000
 1000.30000    8.56935    4.01851    4.22716    4.16967    2.50905   80.14359    0.30945    3.21168   94.94156   -0.39888    8.50000 80000.00000
 1000.40000    8.57007    3.97796    4.20676    4.15863    2.51057   80.57065    0.30938    3.20413   95.10286   -0.20604    8.50000 80000.00000
 1000.50000    8.57219    4.02336    4.25145    4.21704    2.50653   79.60972    0.30715    3.18929   95.09635    0.22826    8.50000 80000.00000
 1000.60000    8.57207    4.06153    4.25946    4.20991    2.50125   79.20306    0.30690    3.19110   -9999.25    0.69081    8.50000 80000.00000
 1000.70000    8.57123    4.19978    4.41354    4.35524    2.49998   79.61210    0.30814    3.20846   95.49845    0.79040    8.50000 80000.00000
 1000.80000    8.57378    4.21816    4.41783    4.37463    2.49800   79.18416    0.30800    3.20816   95.30724    0.73115    8.50000 80000.00000
 1000.90000    8.57255    4.18746    4.38115    4.34106    2.50346   79.11884    0.30664    3.20992   95.73188    0.59864    8.50000 80000.00000
 1001.00000    8.57326    4.28620    4.40449    4.38966    2.50672   78.85515    0.30679    3.21339   95.70135    0.71995    8.50000 80000.00000
 1001.10000    8.57358    4.21798    4.30910    4.30689    2.50749   79.30586    0.30397    3.21635   95.89285    0.21411    8.50000 80000.00000
 1001.20000    8.57521    4.15608    4.25599    4.24171    2.50963   79.94290    0.30266    3.22110   95.95629   -0.06610    8.50000 80000.00000
 1001.30000    8.57822    4.22794    4.33691    4.31746    2.51870   78.53607    0.29774    3.23137   95.77678   -0.17311    8.50000 80000.00000
 1001.40000    8.57816    4.07895    4.21533    4.19980    2.52034   79.72660    0.29869    3.23845   95.24960   -0.66144    8.50000 80000.00000
 1001.50000    8.57882    4.10014    4.25286    4.24807    2.52246   80.55237    0.30092    3.24246   95.45025   -0.33834    8.50000 80000.00000
 1001.60000    8.58203    3.88088    4.05716    4.06588    2.52377   81.09726    0.30327    3.26367   96.52713   -0.25397    8.50000 80000.00000
 1001.70000    8.58439    3.86844    4.07396    4.07143    2.52305   81.37381    0.30048    3.26456   96.24171   -0.22739    8.50000 80000.00000
 1001.80000    8.57987    3.81739    3.88802    3.86535    2.52004   81.03720    0.30208    3.26999   95.79980   -0.09546    8.50000 80000.00000
 1001.90000    8.57925    3.93492    3.94542    3.92732    2.52463   80.70142    0.30109    3.27295   95.38024   -0.61741    8.50000 80000.00000
 1002.00000    8.58577    3.86628    3.87544    3.85565    2.52804   80.90089    0.30012    3.28177   95.32358   -0.41938    8.50000 80000.00000
 1002.10000    8.58722    4.06680    4.06627    4.04272    2.52092   80.88154    0.30312    3.29118   94.86324   -0.32556    8.50000 80000.00000
 1002.20000    8.59343    4.11768    4.13267    4.10890    2.52402   80.81723    0.30214    3.29270   95.76172    0.22635    8.50000 80000.00000
 1002.30000    8.59731    4.22205    4.20492    4.19903    2.52008   80.40148    0.30469    3.29332   95.42365   -0.01159    8.50000 80000.00000
 1002.40000    8.59902    4.41698    4.37696    4.39165    2.51780   80.57042    0.30748    3.28555   96.01531   -0.22843    8.50000 80000.00000
 1002.50000    8.60208    4.78500    4.76109    4.75399    2.51427   80.26464    0.30815    3.28290   95.96962   -0.00480    8.50000 80000.00000
 1002.60000    8.60225    4.68332    4.63489    4.63105    2.51969   81.19580    0.31439    3.30936   95.71489   -0.37325    8.50000 80000.00000
 1002.70000    8.60397    4.70938    4.67381    4.68434    2.52342   80.94136    0.31758    3.29536   96.03155   -0.43059    8.50000 80000.00000
 1002.80000    8.60480    4.52923    4.46130    4.47894    2.52373   80.75498    0.31579    3.29124   95.78105   -0.54496    8.50000 80000.00000
 1002.90000    8.60206    4.46774    4.42992    4.43395    2.52610   81.12298    0.31435    3.29751   96.29246   -0.67915    8.50000 80000.00000
 1003.00000    8.60320    4.46647    4.42156    4.41922    2.52053   81.39002    0.31813    3.28460   95.81154   -0.70734    8.50000 80000.00000
 1003.10000    8.60193    4.25724    4.28874    4.25879    2.51611   81.56428    0.31694    3.28080   96.22223   -0.70101    8.50000 80000.00000
 1003.20000    8.59917    4.45960    4.45744    4.42631    2.51383   81.50118    0.31767    3.26677   96.51852   -0.61305    8.50000 80000.00000
 1003.30000    8.59705    4.39384    4.39502    4.36606    2.50506   80.87690    0.31924    3.27260   96.53832   -0.21234    8.50000 80000.00000
 1003.40000    8.59532    4.27819    4.27534    4.23901    2.49475   81.20287    0.32470    3.27241   96.69379    0.12079    8.50000 80000.00000
 1003.50000    8.59161    4.22133    4.19713    4.16423    2.49275   80.74293    0.32348    3.26863   97.09728    0.85982    8.50000 80000.00000
 1003.60000    8.59065    4.33940    4.39377    4.31720    2.48985   79.35132    0.32567    3.25671   97.21792    0.72444    8.50000 80000.00000
 1003.70000    8.59052    4.49804    4.53525    4.46215    2.48827   79.97143    0.32441    3.24746   96.56090    0.98637    8.50000 80000.00000
 1003.80000    8.59028    4.75007    4.73384    4.73406    2.49372   79.55849    0.32584    3.24527   97.25125    0.76385    8.50000 80000.00000
 1003.90000    8.59414    4.73620    4.74557   -9999.25    2.49685   79.35183    0.32540    3.23389   97.23958    0.88221    8.50000 80000.00000
 1004.00000    8.59424    4.63494    4.67182    4.66814    2.49379   79.30993    0.32611    3.21645   96.80331    1.37257    8.50000 80000.00000
 1004.10000    8.59324    4.68068    4.71795    4.72059    2.49495   79.52766    0.32688    3.19699   96.67753    1.22868    8.50000 80000.00000
 1004.20000    8.59195    4.55419    4.64041    4.64236    2.49724   79.88078    0.32713    3.18048   96.86271    1.52464    8.50000 80000.00000
 1004.30000    8.59149    4.72216    4.72316    4.75031    2.49535   79.71856    0.32791    3.18196   96.73230    1.19502    8.50000 80000.00000
 1004.40000    8.59160    4.67945    4.70244    4.71702    2.50222   80.88512    0.32700    3.18288   96.89636    1.45891    8.50000 80000.00000
 1004.50000    8.59072    4.49201    4.51535    4.52135    2.50255   80.62847    0.32582    3.18375   96.45528    1.57442    8.50000 80000.00000
 1004.60000    8.58907    4.20866    4.21911    4.23653    2.50609   80.49987    0.32473    3.18840   96.13618    1.33238    8.50000 80000.00000
 1004.70000    8.58816    4.26842    4.31608    4.31891    2.50406   81.02728    0.32320    3.16838   96.56372    1.40619    8.50000 80000.00000
 1004.80000    8.58567    4.26370    4.30701    4.30132    2.50709   82.37878    0.32015    3.18457   96.20462    0.77892    8.50000 80000.00000
 1004.90000    8.58709    4.45102    4.53595    4.50734    2.50657   82.04786    0.32125    3.18583   96.50901    0.93089    8.50000 80000.00000
 1005.00000    8.58587    4.53552    4.58054    4.55792    2.50824   81.45754    0.32237    3.17468   96.46155    1.20230    8.50000 80000.00000
 1005.10000    8.58524    4.74904    4.73034    4.72709    2.50940   80.68954    0.31977    3.18809   96.25277    1.12679    8.50000 80000.00000
 1005.20000    8.58668    4.75691    4.76485    4.75814    2.51266   80.54234    0.32035    3.18690   95.63641    0.85076    8.50000 80000.00000
 1005.30000    8.58880    4.65408    4.68380    4.68800    2.51183   80.78502    0.31765    3.20145   95.59712    0.99688    8.50000 80000.00000
 1005.40000    8.58880    4.62068    4.65903    4.65542    2.52028   80.92803    0.31700    3.19316   95.62872    0.89727    8.50000 80000.00000
 1005.50000    8.58722    4.64052    4.69247    4.69621    2.52666   80.99510    0.31621    3.19302   95.86035    0.79798    8.50000 80000.00000
