~Version ---------------------------------------------------
VERS.   2.0 : CWLS log ASCII Standard -VERSION 2.0
WRAP.    NO : One line per depth step
DLM . SPACE : Column Data Section Delimiter
~Well ------------------------------------------------------
STRT.m          1000.00000 : START DEPTH
STOP.m          2000.00000 : STOP DEPTH
STEP.m             0.10000 : STEP
NULL.             -9999.25 : NULL VALUE
COMP. FORCE 2020 Recreator : 
WELL.   WELL_FORCE_2020_04 : 
FLD .                      : FIELD
LOC .                      : LOCATION
PROV.                      : PROVINCE
CNTY.                      : COUNTY
STAT.                      : STATE
CTRY.                      : COUNTRY
SRVC.                      : SERVICE COMPANY
DATE.                      : DATE
UWI .                      : UNIQUE WELL ID
API .                      : API NUMBER
~Curve Information -----------------------------------------
DEPT                            .m      : 
CALI                            .in     : 
RSHA                            .ohm.m  : 
RMED                            .ohm.m  : 
RDEP                            .ohm.m  : 
RHOB                            .g/cm3  : 
GR                              .gAPI   : 
NPHI                            .v/v    : 
PEF                             .b/e    : 
DTC                             .us/ft  : 
SP                              .mV     : 
BS                              .in     : 
FORCE_2020_LITHOFACIES_LITHOLOGY.code   : 
~Params ----------------------------------------------------
~Other -----------------------------------------------------
~ASCII -----------------------------------------------------
# ...
 1330.30000    9.93313    2.66275    2.60474    2.58190    2.48864  121.07472    0.35285    3.30993  108.11196    5.94747    8.50000 65000.00000
 1330.40000    9.91730    2.63957    2.59009    2.56289    2.48924  121.46743    0.35165    3.29376  108.08112    6.12403    8.50000 65000.00000
 1330.50000    9.91158    2.63590    2.59060    2.56382    2.48744  120.61347    0.35222    3.31007  108.45225    6.02463    8.50000 65000.00000
 1330.60000    9.91851    2.61890    2.56870    2.54152    2.48545  119.29121    0.34922    3.31067  107.62342    6.23581    8.50000 65000.00000
 1330.70000    9.90976    2.59533    2.56007    2.52690    2.48537  116.84660    0.35078    3.31032  107.40096    5.80826    8.50000 65000.00000
 1330.80000    9.91713    2.58870    2.56808    2.53846    2.47533  115.73675    0.34917    3.30646  107.54799    6.04240    8.50000 65000.00000
 1330.90000    9.91691    2.69863    2.65333    2.60655    2.47613  115.94175    0.35133    3.31790  108.04036    5.72786    8.50000 65000.00000
 1331.00000    9.92619    2.76187    2.70786    2.66452    2.47228  117.00379    0.34897    3.33954  108.37788    6.14945    8.50000 65000.00000
 1331.10000    9.93130    2.80413    2.75888    2.71351    2.47069  116.50876    0.35157    3.35787  108.03457    5.90233    8.50000 65000.00000
 1331.20000    9.92476    2.73803    2.73256    2.69129    2.46745  114.13787    0.35438    3.36451  108.52669    5.93977    8.50000 65000.00000
 1331.30000    9.92894    2.76534    2.76123    2.71459    2.47196  114.43190    0.35876    3.38598  108.01694    5.70968    8.50000 65000.00000
 1331.40000    9.92116    2.84719    2.83228    2.79110    2.47173  112.88078    0.35601    3.36628  107.28788    5.75178    8.50000 65000.00000
 1331.50000    9.91844    2.85801    2.82930    2.79820    2.46808  114.01175    0.35442    3.34627  108.11107    6.00949    8.50000 65000.00000
 1331.60000    9.91888    2.77901    2.78199    2.75044    2.47338  111.69237    0.35567    3.34121  107.81958    6.20258    8.50000 65000.00000
 1331.70000    9.89856    2.76310    2.76947    2.74704    2.47247  110.08145    0.35075    3.34031  107.70199    6.18368    8.50000 65000.00000
 1331.80000    9.90064    2.85695    2.85659    2.82428    2.47235  109.58024    0.35423    3.34885  106.99909    6.16150    8.50000 65000.00000
 1331.90000    9.86994    2.87985    2.87933    2.84246    2.46793  108.27829    0.35206    3.36529  106.11109    6.21691    8.50000 65000.00000
 1332.00000    9.88564    2.86643    2.86758    2.83607    2.46879  109.78598    0.35426    3.35881  105.94553    5.86651    8.50000 65000.00000
 1332.10000    9.85715    2.81077    2.82971    2.78571    2.46545  110.48208    0.35269    3.36597  106.60531    5.39949    8.50000 65000.00000
 1332.20000    9.84989    2.71528    2.74734    2.68968    2.46673  110.08149    0.35676    3.35498  106.57972    5.24411    8.50000 65000.00000
 1332.30000    9.84156    2.66907    2.70687    2.65243    2.46826  112.59639    0.36140    3.36580  106.24525    5.29326    8.50000 65000.00000
 1332.40000    9.84746    2.66718    2.70073    2.64097    2.46949  113.71326    0.36460    3.36725  106.48216    5.23842    8.50000 65000.00000
 1332.50000    9.88106    2.62450    2.64583    2.59584    2.46694  114.70093    0.36571    3.39935  106.05019    5.29846    8.50000 65000.00000
 1332.60000    9.87800    2.64078    2.64307    2.59460    2.47501  115.30799    0.36904    3.39757  106.30841    5.51638    8.50000 65000.00000
 1332.70000    9.86696    2.72469    2.71203    2.67083    2.47364  114.75244    0.36849    3.40285  106.70011    5.49315    8.50000 65000.00000
 1332.80000    9.86987    2.86136    2.84496    2.81313    2.47549  116.58999    0.36802    3.41232  106.14105    5.62618    8.50000 65000.00000
 1332.90000    9.88407    2.90782    2.87843    2.85159    2.48165  116.98406    0.36816    3.40356  105.66963    5.47130    8.50000 65000.00000
 1333.00000    9.88087    2.81820    2.80324    2.79480    2.47804  117.51641    0.36685    3.39154  104.97610    5.61056    8.50000 65000.00000
 1333.10000    9.87048    2.72278    2.71791    2.70477    2.48210  117.11407    0.36524    3.39049  104.89741    5.14807    8.50000 65000.00000
 1333.20000    9.84358    2.70176    2.68861    2.67037    2.47963  116.54875    0.36282    3.39241  105.32182    4.98432    8.50000 65000.00000
 1333.30000    9.84816    2.64122    2.62687    2.59934    2.48027  118.65109    0.36124    3.37598  104.97885    5.25377    8.50000 65000.00000
 1333.40000    9.81636    2.65549    2.61537    2.60419    2.47701  117.85655    0.36082    3.37422  106.20185    5.27324    8.50000 65000.00000
 1333.50000    9.80956    2.59708    2.56504    2.54902    2.48213  119.89349    0.36206    3.40679  106.38410    5.31222    8.50000 65000.00000
 1333.60000    9.83730    2.54529    2.51991    2.49783    2.48450  119.31589    0.36416    3.41828  106.20185    5.33823    8.50000 65000.00000
 1333.70000    9.81792    2.56888    2.55511    2.53640    2.48251  120.30319    0.36307    3.43713  106.08830    5.31327    8.50000 65000.00000
 1333.80000    9.82333    2.52323    2.51153    2.49561    2.48027  120.74011    0.36718    3.40816  106.29721    5.22585    8.50000 65000.00000
 1333.90000    9.86595    2.47337    2.46054    2.46657    2.48284  120.43075    0.36809    3.41439  106.54093    5.24125    8.50000 65000.00000
 1334.00000    9.87678    2.48450    2.43908    2.46135    2.48391  119.51409    0.37086    3.40334  106.86572    5.32939    8.50000 65000.00000
 1334.10000    9.90069    2.61153    2.53498    2.54677    2.49033  119.36299    0.36899    3.41159  106.42367    5.96173    8.50000 65000.00000
 1334.20000    9.91830    2.92001    2.76113    2.80536    2.49407  119.53300    0.36927    3.40451  106.51613    6.15776    8.50000 65000.00000
 1334.30000    9.92548    2.92640    2.79204    2.83440    2.49193  119.06303    0.36384    3.40764  105.88931    6.28335    8.50000 65000.00000
 1334.40000    9.91037    2.92679    2.78133    2.82524    2.48760  118.21975    0.36101    3.43383  107.21440    6.10055    8.50000 65000.00000
 1334.50000    9.87967    2.92252    2.78413    2.83346    2.48867  118.15125    0.36158    3.42331  107.21782    6.18349    8.50000 65000.00000
 1334.60000    9.84432    2.99483    2.85173    2.89603    2.49022  115.79710    0.35826    3.40203  107.57962    6.22045    8.50000 65000.00000
 1334.70000    9.86853    2.93214    2.79824    2.84031    2.49012  115.21245    0.35396    3.37599  106.86389    6.09616    8.50000 65000.00000
 1334.80000    9.86134    2.80234    2.68548    2.72584    2.48611  115.53303    0.35675    3.37817  106.81238    6.12605    8.50000 65000.00000
 1334.90000    9.87086    2.67395    2.54260    2.58431    2.48737  115.91690    0.35458    3.36015  107.55001    6.02588    8.50000 65000.00000
 1335.00000    9.85047    2.61635    2.48035    2.51061    2.48691  115.48251    0.35692    3.36649  107.91103    6.19146    8.50000 65000.00000
 1335.10000    9.84617    2.63779    2.51602    2.54187    2.49440  114.82955    0.35520    3.36763  108.87940    5.93565    8.50000 65000.00000
 1335.20000    9.87971    2.66116    2.52448    2.54770    2.49329  115.16929    0.35720    3.34584  109.04292    6.17001    8.50000 65000.00000
 1335.30000    9.87170    2.66420    2.54161    2.56307    2.49397  117.02318    0.36083    3.34936  109.20279    6.19554    8.50000 65000.00000
 1335.40000    9.87284    2.71106    2.61104    2.62781    2.49830  114.95762    0.35811    3.34779  109.28124    5.85764    8.50000 65000.00000
 1335.50000    9.90209    2.74324    2.66863    2.66607    2.49917  115.92001    0.35650    3.33319  109.17841    5.73664    8.50000 65000.00000
 1335.60000    9.89081    2.73475    2.65146    2.65261    2.49255  114.79277    0.35225    3.33762  108.69347    5.78594    8.50000 65000.00000
 1335.70000    9.86191    2.79769    2.73987    2.73980    2.49295  114.20189    0.35112    3.33711  108.45285    5.60884    8.50000 65000.00000
 1335.80000    9.87633    2.78644    2.71892    2.71565    2.49254  113.81182    0.35045    3.29937  108.42232    5.86443    8.50000 65000.00000
