~Version ---------------------------------------------------
VERS.   2.0 : CWLS log ASCII Standard -VERSION 2.0
WRAP.    NO : One line per depth step
DLM . SPACE : Column Data Section Delimiter
~Well ------------------------------------------------------
STRT.m          1000.00000 : START DEPTH
STOP.m          2000.00000 : STOP DEPTH
STEP.m             0.10000 : STEP
NULL.             -9999.25 : NULL VALUE
COMP. FORCE 2020 Recreator : 
WELL.   WELL_FORCE_2020_03 : 
FLD .                      : FIELD
LOC .                      : LOCATION
PROV.                      : PROVINCE
CNTY.                      : COUNTY
STAT.                      : STATE
CTRY.                      : COUNTRY
SRVC.                      : SERVICE COMPANY
DATE.                      : DATE
UWI .                      : UNIQUE WELL ID
API .                      : API NUMBER
~Curve Information -----------------------------------------
DEPT                            .m      : 
CALI                            .in     : 
RSHA                            .ohm.m  : 
RMED                            .ohm.m  : 
RDEP                            .ohm.m  : 
RHOB                            .g/cm3  : 
GR                              .gAPI   : 
NPHI                            .v/v    : 
PEF                             .b/e    : 
DTC                             .us/ft  : 
SP                              .mV     : 
BS                              .in     : 
FORCE_2020_LITHOFACIES_LITHOLOGY.code   : 
~Params ----------------------------------------------------
~Other -----------------------------------------------------
~ASCII -----------------------------------------------------
# ...
 1666.10000    8.59292   11.68521   12.53358   12.26125    2.14533   93.72556    0.34476    3.07992   97.03366    2.61708    8.50000 99000.00000
 1666.20000    8.59122   11.28460   12.06615   11.82601    2.14036   92.77036    0.34307    3.05125   96.76947    2.44301    8.50000 99000.00000
 1666.30000    8.59078   11.27099   12.02951   11.79058    2.14410   92.01733    0.34080    3.06456   96.44882    2.57470    8.50000 99000.00000
 1666.40000    8.59105   11.60982   12.39843   12.12889    2.15541   90.51563    0.33813    3.07275   96.19295    1.98052    8.50000 99000.00000
 1666.50000    8.59255   11.37804   12.12380   11.85277    2.15591   90.62394    0.33458    3.09338   96.95083    2.19615    8.50000 99000.00000
 1666.60000    8.59324   11.37130   12.02408   11.78200    2.15757   90.03942    0.33004    3.12676   97.28212    1.99956    8.50000 99000.00000
 1666.70000    8.59126   10.93973   11.54848   11.32125    2.15761   90.91121    0.32837    3.12922   97.23456    1.55051    8.50000 99000.00000
 1666.80000    8.58971   11.00432   11.62416   11.39309    2.15896   90.71535    0.32692    3.13972   96.75882    1.88584    8.50000 99000.00000
 1666.90000    8.59019   11.01847   11.57692   11.34033    2.15307   90.69244    0.33550    3.12515   96.68053    1.40007    8.50000 99000.00000
 1667.00000    8.59023   10.82611   11.32078   11.11318    2.15869   91.14313    0.33779    3.11389   96.37730    1.29881    8.50000 99000.00000
 1667.10000    8.59030   10.64232   11.16192   10.96464    2.17089   89.98409    0.34062    3.11238   95.94011    1.20867    8.50000 99000.00000
 1667.20000    8.58717   11.79036   11.98832   11.92401    2.17649   88.46022    0.34148    3.10287   95.22141    1.14840    8.50000 99000.00000
 1667.30000    8.58815   11.85334   11.98758   11.94353    2.17959   88.31236    0.34325    3.06550   94.83817    1.02827    8.50000 99000.00000
 1667.40000    8.58874   10.44557   10.03549   10.17657    2.18078   88.46261    0.34267    3.05387   95.66253    1.08968    8.50000 99000.00000
 1667.50000    8.58980    9.77153    9.37559    9.53820    2.18189   88.55196    0.33885    3.02752   95.72192    0.81650    8.50000 99000.00000
 1667.60000    8.59164    9.99766    9.52142    9.69491    2.19294   87.63069    0.33738    3.02820   95.27331    0.73735    8.50000 99000.00000
 1667.70000    8.58989   10.31453    9.74606    9.97167    2.19884   88.17219    0.34125    3.02806   94.73506    1.03447    8.50000 99000.00000
 1667.80000    8.59204    9.68531    9.10384    9.28364    2.19396   87.44393    0.33880    3.02838   94.91786    1.49901    8.50000 99000.00000
 1667.90000    8.58976    9.49634    8.92480    9.08231    2.19322   86.20561    0.34404    3.01462   94.94909    1.70936    8.50000 99000.00000
 1668.00000    8.58756   10.53046    9.73566    9.97787    2.18861   84.74063    0.34513    3.01154   94.98199    1.88337    8.50000 99000.00000
 1668.10000    8.58493    9.05004    8.30774    8.57403    2.19239   85.18794    0.34488    3.03327   96.13944    2.40362    8.50000 99000.00000
 1668.20000    8.58485    8.85081    7.97436    8.30258    2.19214   85.27936    0.34225    3.01063   96.63293    2.75336    8.50000 99000.00000
 1668.30000    8.58637    9.69360    8.76391    9.01963    2.19362   85.32367    0.34433    3.01846   97.16977    2.55895    8.50000 99000.00000
 1668.40000    8.58516    9.64512    8.76101    9.02087    2.18933   85.80655    0.34429    3.00829   97.78039    2.47203    8.50000 99000.00000
 1668.50000    8.58525   10.11978    9.22890    9.45295    2.18738   85.08039    0.33883    2.98846   97.59541    2.79482    8.50000 99000.00000
 1668.60000    8.58176   10.25847    9.37695    9.60685    2.19068   85.70400    0.33931    2.98704   97.06843    2.44457    8.50000 99000.00000
 1668.70000    8.58227   10.55712    9.70683    9.91928    2.18565   84.97573    0.34341    2.96148   96.26817    2.50204    8.50000 99000.00000
 1668.80000    8.58077   10.78071    9.95808   10.16651    2.18261   84.38964    0.34744    2.95826   96.59291    2.82617    8.50000 99000.00000
 1668.90000    8.57844   10.81932   10.01100   10.20431    2.17804   85.09481    0.34438    2.95383   96.93641    2.61332    8.50000 99000.00000
 1669.00000    8.57870   10.54218    9.75346    9.93702    2.17684   84.63516    0.34332    2.94812   96.91315    2.69146    8.50000 99000.00000
 1669.10000    8.57759   10.49916    9.74062    9.96109    2.17959   83.39363    0.34281    2.97650   96.90337    2.66111    8.50000 99000.00000
 1669.20000    8.57754   10.26094    9.47464    9.69981    2.17189   84.03949    0.34696    2.95794   97.88237    2.47260    8.50000 99000.00000
 1669.30000    8.57873    9.72694    9.23778    9.29902    2.17132   85.19734    0.34939    2.97127   97.93223    3.09854    8.50000 99000.00000
 1669.40000    8.58089    9.39212    9.05903    9.09309    2.16316   84.51837    0.34951    2.96578   98.05079    3.24401    8.50000 99000.00000
 1669.50000    8.58423    9.36887    9.14765    9.16826    2.16646   84.82392    0.34399    2.96220   97.48311    3.83821    8.50000 99000.00000
 1669.60000    8.58167    9.62282    9.41208    9.40778    2.16619   85.14207    0.34378    2.95967   97.15552    4.48613    8.50000 99000.00000
 1669.70000    8.58028    9.60759    9.43168    9.41672    2.15741   84.74163    0.33970    2.94157   97.08916    4.58266    8.50000 99000.00000
 1669.80000    8.58054    8.94580    8.90719    8.88099    2.15548   85.40186    0.33778    2.95563   97.55725    4.47064    8.50000 99000.00000
 1669.90000    8.57559    9.11442    9.19070    9.14851    2.16238   85.91369    0.33365    2.93506   97.60432    4.11183    8.50000 99000.00000
 1670.00000    8.57687    9.07704    9.15836    9.11727    2.16574   87.09276    0.33345    2.95273   97.21880    3.88538    8.50000 99000.00000
 1670.10000    8.57820    8.36816    8.51346    8.43704    2.17635   87.00175    0.33621    2.94695   97.68856    3.80634    8.50000 99000.00000
 1670.20000    8.58116    8.54104    8.65154    8.57098    2.18193   88.18818    0.34060    2.91777   96.62565    3.53526    8.50000 99000.00000
 1670.30000    8.58167    8.21714    8.42833    8.27373    2.18729   87.98361    0.33912    2.92686   96.95094    3.34423    8.50000 99000.00000
 1670.40000    8.58061    7.94616    8.20522    8.13793    2.18970   87.54312    0.33879    2.90712   97.14483    3.72919    8.50000 99000.00000
 1670.50000    8.58438    7.99039    8.22686    8.16815    2.18764   87.35692    0.34000    2.90827   96.52306    3.61014    8.50000 99000.00000
 1670.60000    8.58812    7.35279    7.56875    7.56630    2.19006   88.95222    0.34675    2.89811   96.46907    3.47607    8.50000 99000.00000
 1670.70000    8.58805    7.20768    7.36008    7.36797    2.18319   88.82670    0.34716    2.90105   96.29375    3.34911    8.50000 99000.00000
 1670.80000    8.58793    6.82111    6.89620    6.91915    2.17924   89.97604    0.34004    2.93614   97.56457    3.30763    8.50000 99000.00000
 1670.90000    8.58807    6.82090    6.85950    6.91611    2.17855   89.87593    0.33720    2.94538   97.07154    3.59783    8.50000 99000.00000
 1671.00000    8.59079    6.98727    7.00554    7.09060    2.17348   89.78402    0.33996    2.93620   97.23852    3.58950    8.50000 99000.00000
 1671.10000    8.59026    7.02699    7.06710    7.15328    2.16684   90.34610    0.34190    2.94497   96.94915    3.29554    8.50000 99000.00000
 1671.20000    8.58737    7.24616    7.22828    7.31070    2.16526   91.49324    0.34057    2.91690   96.75578    3.28972    8.50000 99000.00000
 1671.30000    8.58849    7.65662    7.61383    7.71401    2.16907   90.73380    0.33428    2.93604   96.57028    3.79357    8.50000 99000.00000
 1671.40000    8.58728    7.13721    7.10808    7.25504    2.16012   90.11659    0.33559    2.93048   97.05485    3.39861    8.50000 99000.00000
 1671.50000    8.58609    7.18160    7.11824    7.26046    2.16749   91.84146    0.33604    2.94071   97.56663    3.55701    8.50000 99000.00000
 1671.60000    8.58553    7.48837    7.54533    7.68763    2.16542   91.98708    0.33882    2.96599   97.02566    3.22620    8.50000 99000.00000
