~Version ---------------------------------------------------
VERS.   2.0 : CWLS log ASCII Standard -VERSION 2.0
WRAP.    NO : One line per depth step
DLM . SPACE : Column Data Section Delimiter
~Well ------------------------------------------------------
STRT.m          1000.00000 : START DEPTH
STOP.m          2000.00000 : STOP DEPTH
STEP.m             0.10000 : STEP
NULL.             -9999.25 : NULL VALUE
COMP. FORCE 2020 Recreator : 
WELL.   WELL_FORCE_2020_04 : 
FLD .                      : FIELD
LOC .                      : LOCATION
PROV.                      : PROVINCE
CNTY.                      : COUNTY
STAT.                      : STATE
CTRY.                      : COUNTRY
SRVC.                      : SERVICE COMPANY
DATE.                      : DATE
UWI .                      : UNIQUE WELL ID
API .                      : API NUMBER
~Curve Information -----------------------------------------
DEPT                            .m      : 
CALI                            .in     : 
RSHA                            .ohm.m  : 
RMED                            .ohm.m  : 
RDEP                            .ohm.m  : 
RHOB                            .g/cm3  : 
GR                              .gAPI   : 
NPHI                            .v/v    : 
PEF                             .b/e    : 
DTC                             .us/ft  : 
SP                              .mV     : 
BS                              .in     : 
FORCE_2020_LITHOFACIES_LITHOLOGY.code   : 
~Params ----------------------------------------------------
~Other -----------------------------------------------------
~ASCII -----------------------------------------------------
# ...
 1464.70000    8.31562   20.31585   20.67674   20.61701    2.33917   45.40423    0.20292    1.81320   82.24951  -35.05697    8.50000 30000.00000
 1464.80000    8.31601   20.23662   20.46996   20.41854    2.34183   45.42373    0.20635    1.80998   82.10943  -34.76330    8.50000 30000.00000
 1464.90000    8.31163   19.82810   20.08850   20.01096    2.34186   46.12878    0.20828    1.81881   81.49908  -34.75111    8.50000 30000.00000
 1465.00000    8.30850   19.66014   19.89249   19.82852    2.34299   46.14702    0.20619    1.82326   81.48544  -34.29821    8.50000 30000.00000
 1465.10000    8.30423   16.71703   17.14934   17.09271    2.34419   45.69407    0.20666    1.83052   81.10412  -34.84293    8.50000 30000.00000
 1465.20000    8.30615   16.06113   16.04704   15.99347    2.34315   45.36927    0.20489    1.82861   81.14804  -34.71499    8.50000 30000.00000
 1465.30000    8.30891   19.51859   19.22364   19.28665    2.34583   45.24463    0.20484    1.83148   80.89930  -34.47299    8.50000 30000.00000
 1465.40000    8.30574   20.18912   19.90300   20.01259    2.35005   44.04491    0.20191    1.82595   80.56600  -34.05526    8.50000 30000.00000
 1465.50000    8.30585   20.10760   19.95944   20.02883    2.34487   43.57422    0.20174    1.81757   79.77604  -33.77270    8.50000 30000.00000
 1465.60000    8.31098   20.56938   20.45919   20.50931    2.35457   43.45228    0.20259    1.81656   79.88697  -33.53316    8.50000 30000.00000
 1465.70000    8.31420   22.33132   21.88420   21.93020    2.35744   43.45986    0.20432    1.82096   79.87294  -33.79390    8.50000 30000.00000
 1465.80000    8.31470   22.45630   -9999.25   22.00069    2.36087   42.71330    0.20527    1.82237   80.04399  -33.48997    8.50000 30000.00000
 1465.90000    8.31355   21.82489   21.46509   21.47854    2.36209   42.90143    0.20403    1.83717   79.71353  -34.00581    8.50000 30000.00000
 1466.00000    8.31555   20.02938   19.38121   19.46055    2.36243   43.07622    0.20386    1.84093   79.40534  -34.29857    8.50000 30000.00000
 1466.10000    8.31407   20.59692   19.91280   19.89694    2.35580   43.85473    0.20375    1.84708   79.88944  -34.11585    8.50000 30000.00000
 1466.20000    8.31215   20.28020   19.53722   19.57226    2.35749   43.97325    0.20227    1.84794   79.84893  -34.33125    8.50000 30000.00000
 1466.30000    8.30922   18.68673   18.02715   17.89875    2.36660   43.57759    0.20394    1.85607   80.12513  -34.37615    8.50000 30000.00000
 1466.40000    8.31274   19.25756   18.82181   18.64263    2.36090   44.16990    0.20529    1.86120   80.83250  -34.27417    8.50000 30000.00000
 1466.50000    8.31174   19.67243   19.28143   19.11946    2.36029   44.90450    0.20584    1.86121   80.66788  -34.37259    8.50000 30000.00000
 1466.60000    8.31280   20.25527   19.74476   19.59201    2.35667   46.18074    0.20537    1.86794   80.27527  -34.39829    8.50000 30000.00000
 1466.70000    8.31092   20.29700   19.74461   19.57938    2.35092   45.13600    0.20542    1.87845   79.96470  -34.76089    8.50000 30000.00000
 1466.80000    8.31489   20.76290   20.41129   20.25243    2.34935   44.42957    0.20893    1.85943   79.87382  -34.97278    8.50000 30000.00000
 1466.90000    8.31546   20.48009   20.21818   20.05086    2.35158   44.08765    0.20659    1.85397   79.85767  -35.06186    8.50000 30000.00000
 1467.00000    8.31759   21.82153   21.56027   21.44314    2.35232   43.47966    0.20494    1.85346   80.63986  -35.13434    8.50000 30000.00000
 1467.10000    8.31841   22.14772   22.09236   21.97289    2.35144   43.45143    0.20616    1.84991   80.32219  -35.33864    8.50000 30000.00000
 1467.20000    8.32139   23.72080   23.50691   23.37051    2.35053   43.02054    0.20544    1.84092   80.56142  -34.86977    8.50000 30000.00000
 1467.30000    8.31992   22.84551   22.65131   22.55857    2.35470   43.25072    0.20682    1.84517   80.51975  -34.60404    8.50000 30000.00000
 1467.40000    8.31917   19.34922   19.41297   19.20312    2.35558   43.52272    0.20937    1.83926   80.64723  -34.52109    8.50000 30000.00000
 1467.50000    8.32286   18.90189   18.98931   18.74705    2.35291   44.03784    0.21281    1.84395   80.61208  -34.86676    8.50000 30000.00000
 1467.60000    8.32082   19.83482   19.77172   19.62282    2.35439   44.13889    0.21244    1.85327   80.79763  -35.17717    8.50000 30000.00000
 1467.70000    8.31742   19.71205   19.54152   19.46955    2.34694   43.51223    0.21229    1.86147   81.14062  -35.25649    8.50000 30000.00000
 1467.80000    8.32164   18.42035   18.48143   18.37092    2.34441   42.87994    0.21522    1.86243   80.98649  -35.07070    8.50000 30000.00000
 1467.90000    8.32631   18.86522   18.99044   18.79686    2.34135   43.16020    0.21095    1.87145   80.80548  -35.38027    8.50000 30000.00000
 1468.00000    8.32588   19.12603   19.19153   19.03669    2.34378   42.93143    0.21252    1.86135   80.83861  -35.01891    8.50000 30000.00000
 1468.10000    8.32284   20.85061   20.96063   20.88368    2.34420   41.93216    0.21294    1.84533   80.91262  -34.52523    8.50000 30000.00000
 1468.20000    8.32525   20.66960   20.74376   20.74379    2.35117   41.60381    0.21421    1.84516   81.19394  -34.81964    8.50000 30000.00000
 1468.30000    8.32789   21.03038   21.07191   21.05447    2.35071   41.24630    0.21374    1.84953   81.13934  -34.45807    8.50000 30000.00000
 1468.40000    8.32976   21.46648   21.34858   21.56171    2.34502   41.75489    0.21299    1.84883   80.42947  -34.62270    8.50000 30000.00000
 1468.50000    8.32459   21.65143   21.43625   21.60976    2.34362   41.45159    0.21386    1.85470   80.01667  -34.38461    8.50000 30000.00000
 1468.60000    8.32640   21.80454   21.60946   21.72853    2.34445   41.75878    0.21489    1.85329   80.48598  -34.72509    8.50000 30000.00000
 1468.70000    8.32580   21.39662   21.32697   21.40009    2.34716   41.47778    0.21372    1.85034   80.97722  -34.98085    8.50000 30000.00000
 1468.80000    8.32768   22.07989   22.01367   22.16195    2.35576   41.60359    0.21169    1.84644   80.53993  -34.43141    8.50000 30000.00000
 1468.90000    8.32687   21.39094   21.17924   21.30708    2.35455   42.36065    0.20815    1.85277   80.85099  -34.46664    8.50000 30000.00000
 1469.00000    8.32708   21.62382   21.38719   21.53189    2.34858   41.63544    0.21094    1.86020   80.64125  -34.70161    8.50000 30000.00000
 1469.10000    8.32905   20.52850   20.27428   20.37779    2.34724   41.17691    0.20973    1.85581   80.42242  -34.64290    8.50000 30000.00000
 1469.20000    8.32945   20.49476   20.13927   20.16382    2.34929   41.31225    0.21078    1.84665   80.87478  -35.02137    8.50000 30000.00000
 1469.30000    8.33012   19.25641   18.96517   18.97140    2.35094   42.33704    0.21151    1.84131   80.59240  -35.44857    8.50000 30000.00000
 1469.40000    8.33049   19.68955   19.60088   19.62561    2.35041   42.38609    0.20966    1.83279   80.41727  -35.88079    8.50000 30000.00000
 1469.50000    8.33496   20.40091   20.14801   20.21847    2.34886   42.26093    0.20594    1.83680   80.02451  -36.49430    8.50000 30000.00000
 1469.60000    8.33457   21.27911   21.16458   21.18149    2.34926   41.97227    0.20644    1.84065   79.52213  -36.57683    8.50000 30000.00000
 1469.70000    8.33728   20.36740   20.40016   20.35622    2.35462   41.83348    0.20519    1.83413   80.13070  -36.35297    8.50000 30000.00000
 1469.80000    8.34181   20.39024   20.54550   20.42091    2.35783   42.06301    0.20398    1.82974   79.69692  -36.25733    8.50000 30000.00000
 1469.90000    8.33709   21.81328   22.17107   22.07208    2.35511   42.04273    0.20096    1.83532   79.93406  -36.38951    8.50000 30000.00000
 1470.00000    8.33336   21.42059   21.78016   21.75691    2.35714   42.25798    0.20287    1.83207   80.05880  -35.99481    8.50000 30000.00000
 1470.10000    8.33136   21.08805   21.53006   21.46649    2.35361   42.53835    0.20223    1.83966   80.34182  -36.01672    8.50000 30000.00000
 1470.20000    8.33107   19.91538   20.38554   20.23183    2.34942   44.24541    0.20400    1.84581   80.45887  -36.16190    8.50000 30000.00000
