~Version ---------------------------------------------------
VERS.   2.0 : CWLS log ASCII Standard -VERSION 2.0
WRAP.    NO : One line per depth step
DLM . SPACE : Column Data Section Delimiter
~Well ------------------------------------------------------
STRT.m          1000.00000 : START DEPTH
STOP.m          2000.00000 : STOP DEPTH
STEP.m             0.10000 : STEP
NULL.             -9999.25 : NULL VALUE
COMP. FORCE 2020 Recreator : 
WELL.   WELL_FORCE_2020_05 : 
FLD .                      : FIELD
LOC .                      : LOCATION
PROV.                      : PROVINCE
CNTY.                      : COUNTY
STAT.                      : STATE
CTRY.                      : COUNTRY
SRVC.                      : SERVICE COMPANY
DATE.                      : DATE
UWI .                      : UNIQUE WELL ID
API .                      : API NUMBER
~Curve Information -----------------------------------------
DEPT                            .m      : 
CALI                            .in     : 
RSHA                            .ohm.m  : 
RMED                            .ohm.m  : 
RDEP                            .ohm.m  : 
RHOB                            .g/cm3  : 
GR                              .gAPI   : 
NPHI                            .v/v    : 
PEF                             .b/e    : 
DTC                             .us/ft  : 
SP                              .mV     : 
BS                              .in     : 
FORCE_2020_LITHOFACIES_LITHOLOGY.code   : 
~Params ----------------------------------------------------
~Other -----------------------------------------------------
~ASCII -----------------------------------------------------
# ...
 1464.70000    8.32090   21.55669   21.84018   21.97696    2.33260   45.72788    0.20785   -9999.25   82.78354  -34.79905    8.50000 30000.00000
 1464.80000    8.31970   20.96565   21.19210   21.36150    2.32797   45.75270    0.20693   -9999.25   82.21074  -34.69698    8.50000 30000.00000
 1464.90000    8.32344   20.47242   20.67163   20.86940    2.33157   46.13002    0.20455   -9999.25   82.17731  -35.02220    8.50000 30000.00000
 1465.00000    8.32676   19.54849   19.80260   20.00412    2.33649   46.40616    0.20601   -9999.25   82.31416  -34.76700    8.50000 30000.00000
 1465.10000    8.32111   18.55584   19.05324   19.21211    2.33547   46.34564    0.20918   -9999.25   82.37082  -34.39941    8.50000 30000.00000
 1465.20000    8.32319   18.59218   19.27180   19.51323    2.33666   46.45028    0.20975   -9999.25   82.23438  -34.32717    8.50000 30000.00000
 1465.30000    8.32147   19.78229   20.45768   20.80246    2.33601   45.92468    0.20882   -9999.25   82.30015  -34.39746    8.50000 30000.00000
 1465.40000    8.32030   19.61099   20.05323   20.46262    2.33807   44.95371    0.20558   -9999.25   81.65610  -34.66234    8.50000 30000.00000
 1465.50000    8.31878   19.26947   19.64849   20.03123    2.33506   45.03157    0.20808   -9999.25   80.71547  -35.04839    8.50000 30000.00000
 1465.60000    8.31662   19.73037   20.37973   20.70378    2.33192   45.53309    0.20923   -9999.25   80.89664  -34.58066    8.50000 30000.00000
 1465.70000    8.31712   25.20110   25.68209   25.84868    2.33506   45.50128    0.20518   -9999.25   80.51593  -34.95960    8.50000 30000.00000
 1465.80000    8.31505   24.82997   25.35571   25.49955    2.33324   46.75495    0.20165   -9999.25   80.65707  -34.60907    8.50000 30000.00000
 1465.90000    8.31686   24.23849   24.85429   24.90462    2.33524   46.18277    0.20128   -9999.25   81.40930  -34.52077    8.50000 30000.00000
 1466.00000    8.31377   24.57741   25.00570   25.10856    2.33349   45.34555    0.19989   -9999.25   81.48775  -34.64748    8.50000 30000.00000
 1466.10000    8.31005   25.87975   26.31004   26.42136    2.33605   46.27827    0.19842   -9999.25   81.03321  -34.90896    8.50000 30000.00000
 1466.20000    8.30606   26.59746   26.90735   27.03749    2.33685   46.25310    0.20184   -9999.25   80.67193  -35.11056    8.50000 30000.00000
 1466.30000    8.30725   25.58377   25.77555   25.92053    2.33630   45.75141    0.20057   -9999.25   80.64519  -34.92465    8.50000 30000.00000
 1466.40000    8.30629   25.16189   25.35549   25.51428    2.33731   45.07921    0.20280   -9999.25   80.81376  -34.84562    8.50000 30000.00000
 1466.50000    8.30825   32.10208   32.09768   31.93027    2.33350   45.28552    0.20541   -9999.25   80.28550  -35.11162    8.50000 30000.00000
 1466.60000    8.31001   31.96220   32.16670   31.92509    2.33917   45.17688    0.20749   -9999.25   80.61381  -34.81033    8.50000 30000.00000
 1466.70000    8.31153   31.69762   32.04919   31.77921    2.33907   45.74464    0.20935   -9999.25   80.94564  -34.62654    8.50000 30000.00000
 1466.80000    8.31533   31.30194   31.81987   31.44697    2.33888   44.18443    0.20692   -9999.25   80.85562  -33.85400    8.50000 30000.00000
 1466.90000    8.31663   32.85153   33.34830   33.05493    2.34756   45.07984    0.20697   -9999.25   81.16367  -33.63406    8.50000 30000.00000
 1467.00000    8.31623   33.01023   33.54772   33.28250    2.34437   45.74308    0.20582   -9999.25   81.53010  -32.81870    8.50000 30000.00000
 1467.10000    8.31170   32.36863   32.65383   32.42295    2.34014   45.57999    0.20951   -9999.25   81.45122  -33.28615    8.50000 30000.00000
 1467.20000    8.31475   34.07691   34.26070   34.07280    2.34004   45.42915    0.20389   -9999.25   80.94992  -33.27828    8.50000 30000.00000
 1467.30000    8.31345   35.71063   35.66325   35.50219    2.33878   45.31271    0.20415   -9999.25   81.50749  -33.48443    8.50000 30000.00000
 1467.40000    8.31503   35.55554   35.53337   35.24642    2.34028   46.36264    0.20821   -9999.25   81.52849  -33.96149    8.50000 30000.00000
 1467.50000    8.31532   36.58839   37.12959   36.75777    2.33838   46.67015    0.21159   -9999.25   82.13837  -34.42824    8.50000 30000.00000
 1467.60000    8.31918   37.45109   37.66302   37.36902    2.33722   46.49563    0.21153   -9999.25   82.66503  -34.65921    8.50000 30000.00000
 1467.70000    8.32147   37.25071   37.19349   36.98362    2.33785   45.75966    0.20881   -9999.25   82.22813  -34.41019    8.50000 30000.00000
 1467.80000    8.31823   31.83062   31.86712   31.77396    2.33881   44.94786    0.20845   -9999.25   82.09553  -33.90938    8.50000 30000.00000
 1467.90000    8.31631   31.66694   31.74944   31.61772    2.33948   44.49211    0.21170   -9999.25   82.36125  -34.48373    8.50000 30000.00000
 1468.00000    8.31285   32.40971   32.45126   32.24935    2.33927   44.52853    0.21050   -9999.25   81.49532  -34.68996    8.50000 30000.00000
 1468.10000    8.31833   32.08120   32.20059   31.99044    2.34064   44.37269    0.21347   -9999.25   81.77674  -35.16406    8.50000 30000.00000
 1468.20000    8.32325   30.99139   31.27977   31.02576    2.33994   43.22999    0.21380   -9999.25   82.49814  -35.33807    8.50000 30000.00000
 1468.30000   -9999.25   29.59142   29.83638   29.53104    2.33813   42.72768    0.21185   -9999.25   83.04641  -35.36638    8.50000 30000.00000
 1468.40000    8.32320   29.71907   29.89254   29.62849    2.33778   43.14076    0.21249   -9999.25   83.16112  -35.75206    8.50000 30000.00000
 1468.50000    8.32384   29.49922   29.65407   29.39689    2.34371   44.06868    0.21314   -9999.25   83.19945  -35.99774    8.50000 30000.00000
 1468.60000    8.32717   24.87720   25.03716   25.08827    2.34959   44.02913    0.21200   -9999.25   83.05755  -35.82679    8.50000 30000.00000
 1468.70000    8.32611   24.38023   24.69298   24.73717    2.35204   43.07680    0.21203   -9999.25   83.13286  -35.85793    8.50000 30000.00000
 1468.80000    8.32601   23.75350   24.00268   24.05936    2.35327   43.07219    0.20958   -9999.25   82.56291  -36.05841    8.50000 30000.00000
 1468.90000    8.31985   23.69267   24.09645   24.07878    2.35523   43.50746    0.21015   -9999.25   82.45143  -36.65928    8.50000 30000.00000
 1469.00000    8.31901   22.42503   22.86316   22.79015    2.35428   43.13389    0.20827   -9999.25   82.64236  -36.85389    8.50000 30000.00000
 1469.10000    8.31505   22.87281   23.54590   23.36853    2.35679   42.68132    0.20788   -9999.25   82.41545  -37.01143    8.50000 30000.00000
 1469.20000    8.31964   23.88822   24.34955   24.39979    2.35799   43.13500    0.20576   -9999.25   82.08803  -36.74474    8.50000 30000.00000
 1469.30000    8.31811   21.99215   22.59665   22.62725    2.35657   42.86040    0.20717   -9999.25   82.29122  -37.58263    8.50000 30000.00000
 1469.40000    8.32126   20.13305   20.62797   20.60655    2.35970   41.68391    0.20673   -9999.25   81.33566  -37.84506    8.50000 30000.00000
 1469.50000    8.32133   19.23404   19.73913   19.74212    2.35910   40.99493    0.20227   -9999.25   81.30805  -37.20261    8.50000 30000.00000
 1469.60000    8.32441   20.88451   20.17658   20.64437    2.36016   41.16597    0.20161   -9999.25   81.13396  -36.55994    8.50000 30000.00000
 1469.70000    8.32173   20.07161   19.60992   20.06496    2.35949   41.54232    0.19920   -9999.25   81.11230  -36.07573    8.50000 30000.00000
 1469.80000    8.32179   21.41238   20.68522   21.15966    2.35871   42.04655    0.20079   -9999.25   81.04837  -36.36149    8.50000 30000.00000
 1469.90000    8.32255   23.04591   22.24036   22.94520    2.35862   43.69926    0.20129   -9999.25   81.28961  -36.59887    8.50000 30000.00000
 1470.00000    8.32529   23.38219   22.64688   23.32280    2.35455   44.26764    0.20130   -9999.25   81.51035  -36.22355    8.50000 30000.00000
 1470.10000    8.32384   23.11158   22.32944   23.10681    2.35311   43.87662    0.20157   -9999.25   81.90720  -36.29294    8.50000 30000.00000
 1470.20000    8.32338   22.81770   22.08719   22.84136    2.35286   44.93996    0.19908   -9999.25   81.61934  -35.67847    8.50000 30000.00000
