~Version ---------------------------------------------------
VERS.   2.0 : CWLS log ASCII Standard -VERSION 2.0
WRAP.    NO : One line per depth step
DLM . SPACE : Column Data Section Delimiter
~Well ------------------------------------------------------
STRT.m          1000.00000 : START DEPTH
STOP.m          2000.00000 : STOP DEPTH
STEP.m             0.10000 : STEP
NULL.             -9999.25 : NULL VALUE
COMP. FORCE 2020 Recreator : 
WELL.   WELL_FORCE_2020_08 : 
FLD .                      : FIELD
LOC .                      : LOCATION
PROV.                      : PROVINCE
CNTY.                      : COUNTY
STAT.                      : STATE
CTRY.                      : COUNTRY
SRVC.                      : SERVICE COMPANY
DATE.                      : DATE
UWI .                      : UNIQUE WELL ID
API .                      : API NUMBER
~Curve Information -----------------------------------------
DEPT                            .m      : 
CALI                            .in     : 
RSHA                            .ohm.m  : 
RMED                            .ohm.m  : 
RDEP                            .ohm.m  : 
RHOB                            .g/cm3  : 
GR                              .gAPI   : 
NPHI                            .v/v    : 
PEF                             .b/e    : 
DTC                             .us/ft  : 
SP                              .mV     : 
BS                              .in     : 
FORCE_2020_LITHOFACIES_LITHOLOGY.code   : 
~Params ----------------------------------------------------
~Other -----------------------------------------------------
~ASCII -----------------------------------------------------
# ...
 1330.40000    8.58732    7.04983    7.15767    7.24456    2.31685   83.12915    0.28253    2.68691   94.12868   -7.95665    8.50000 65030.00000
 1330.50000    8.58563    6.88303    6.93388    6.99263    2.30833   82.92450    0.28617    2.70272   94.20449   -6.97848    8.50000 65030.00000
 1330.60000    8.59036    7.01355    7.07822    7.13485    2.29266   82.16835    0.28861    2.69948   94.00083   -6.45764    8.50000 65030.00000
 1330.70000    8.58830    7.52602    7.42640    7.49204    2.29290   82.69865    0.29045    2.73323   94.17753   -5.40994    8.50000 65030.00000
 1330.80000    8.58881    7.30338    7.17729    7.14973    2.27837   82.76536    0.29678    2.75097   93.92691   -4.59681    8.50000 65030.00000
 1330.90000    8.58770    7.22889    7.09749    7.08441    2.26453   82.93158    0.29817    2.78059   94.51078   -3.70940    8.50000 99000.00000
 1331.00000    8.58679    8.44016    8.22753    8.22882    2.24907   85.01512    0.30045    2.83382   94.66787   -3.28587    8.50000 99000.00000
 1331.10000    8.58741    7.89745    7.72223    7.71343    2.23777   84.58369    0.30546    2.85554   94.69325   -2.39660    8.50000 99000.00000
 1331.20000    8.58775    8.50506    8.33408    8.28275    2.22781   84.87923    0.31081    2.85600   95.12743   -1.88634    8.50000 99000.00000
 1331.30000    8.58671    9.51299    9.47968    9.38720    2.21846   85.49262    0.30984    2.87440   95.81886   -0.79030    8.50000 99000.00000
 1331.40000    8.58810   10.07046    9.98569    9.87881    2.20105   86.32722    0.31247    2.89679   96.75721   -0.08588    8.50000 99000.00000
 1331.50000    8.58848   10.44794   10.30405   10.20400    2.18683   86.46034    0.31597    2.92407   96.33482    0.06687    8.50000 99000.00000
 1331.60000    8.58715   10.68288   10.43747   10.38220    2.16990   87.50652    0.31486    2.95944   96.55338    1.42785    8.50000 99000.00000
 1331.70000    8.58308   11.07290   10.84955   10.79679    2.15479   88.67259    0.32372    2.98625   96.67860    2.25102    8.50000 99000.00000
 1331.80000    8.58664   11.37914   11.25300   11.20042    2.14838   89.27127    0.33592    3.00718   96.20742    2.71927    8.50000 99000.00000
 1331.90000    8.58460   11.51458   11.33265   11.28945    2.13960   89.76984    0.34266    3.03565   96.60934    3.99130    8.50000 99000.00000
 1332.00000    8.58438   11.74934   11.52325   11.55438    2.15096   90.79761    0.34248    3.03193   97.01913    3.67997    8.50000 99000.00000
 1332.10000    8.58568   12.37659   12.21197   12.21292    2.15200   89.05019    0.34162    3.03141   96.84584    3.55865    8.50000 99000.00000
 1332.20000    8.58159   12.51815   12.30181   12.31908    2.15934   88.11761    0.34045    3.01418   97.10215    3.06851    8.50000 99000.00000
 1332.30000    8.57950   12.45786   12.23249   12.25099    2.16779   87.60249    0.34223    3.00877   97.71454    2.58555    8.50000 99000.00000
 1332.40000    8.57828   11.95336   11.70701   11.64977    2.16735   88.55781    0.34281    2.98747   98.19374    2.01182    8.50000 99000.00000
 1332.50000    8.57762   12.25811   12.00203   11.92708    2.16811   90.13267    0.34604    2.98987   97.91204    1.77100    8.50000 99000.00000
 1332.60000    8.57813   12.76247   12.56181   12.43413    2.16384   91.11039    0.34871    2.99855   98.42281    1.61977    8.50000 99000.00000
 1332.70000    8.57222   13.30861   13.08286   13.07520    2.16685   93.47193    0.34920    3.04659   99.13535    1.85012    8.50000 99000.00000
 1332.80000    8.57270   13.28910   13.18285   13.17393    2.15719   93.05639    0.34851    3.04068   99.68930    1.90712    8.50000 99000.00000
 1332.90000    8.57304   13.02362   13.12743   13.06034    2.15868   93.30609    0.34765    3.03558   99.95920    1.91857    8.50000 99000.00000
 1333.00000    8.57465   13.05128   13.13578   13.09917    2.16941   93.15999    0.34383    3.01712  100.07882    1.58405    8.50000 99000.00000
 1333.10000    8.57628   12.65938   12.82303   12.78517    2.16939   91.08315    0.34668    2.99916   99.83001    1.54858    8.50000 99000.00000
 1333.20000    8.57831   12.83127   12.96427   12.92122    2.17198   91.33792    0.34269    2.98510   99.99840    1.64982    8.50000 99000.00000
 1333.30000    8.58006   12.68570   12.94349   12.90989    2.18182   92.28519    0.34442    3.00111  100.26800    1.72971    8.50000 99000.00000
 1333.40000    8.58007   11.81447   12.00301   12.02397    2.18609   92.22600    0.34649    3.00233   99.89401    1.60247    8.50000 99000.00000
 1333.50000    8.57682   11.76733   11.87861   11.97097    2.18705   92.83862    0.34410    2.99598   99.29827    2.25532    8.50000 99000.00000
 1333.60000    8.57627   11.48974   11.57654   11.68010    2.19589   92.85306    0.33864    3.00230   99.71448    2.22006    8.50000 99000.00000
 1333.70000    8.58003   11.28321   11.45958   11.54545    2.20156   92.89990    0.33794    2.98127   98.76747    1.47723    8.50000 99000.00000
 1333.80000    8.58043   10.89014   11.04624   11.11062    2.19863   92.36842    0.33388    2.94255   99.18566    1.09710    8.50000 99000.00000
 1333.90000    8.58058   10.58118   10.65578   10.73202    2.19381   92.57041    0.32583    2.92386   99.85894    0.96366    8.50000 99000.00000
 1334.00000    8.57941   11.08369   11.11359   11.20089    2.19885   93.48221    0.32322    2.92632   99.00310    0.40795    8.50000 99000.00000
 1334.10000    8.58020   11.13670   11.34916   11.35413    2.19519   92.61429    0.31907    2.93496   98.38658    0.71095    8.50000 99000.00000
 1334.20000    8.58016   10.66020   10.82806   10.85102    2.19089   93.22010    0.31364    2.94454   98.46964    0.66481    8.50000 99000.00000
 1334.30000    8.58263   10.32908   10.46972   10.49064    2.19314   92.32700    0.31243    2.96213   97.64408    1.10018    8.50000 99000.00000
 1334.40000    8.58675   10.58101   10.77022   10.81917    2.19939   92.90981    0.31726    2.96243   97.25294    1.34435    8.50000 99000.00000
 1334.50000    8.58640   10.19132   10.49761   10.54853    2.20661   92.67484    0.31787    2.97882   97.92885    1.62235    8.50000 99000.00000
 1334.60000    8.58567   10.06103   10.30610   10.36673    2.20874   91.96524    0.31572    2.98982   98.26370    1.82616    8.50000 99000.00000
 1334.70000    8.58486    9.51118    9.73507    9.82353    2.21191   92.76198    0.31348    2.97429   98.50073    1.84661    8.50000 99000.00000
 1334.80000    8.58405    9.24430    9.45701    9.44587    2.21855   91.88597    0.30849    2.96478   98.81879    1.63836    8.50000 99000.00000
 1334.90000    8.58684    9.04244    9.30908    9.25212    2.22363   92.19450    0.31015    2.97619   98.64346    1.30328    8.50000 99000.00000
 1335.00000    8.58265    9.00342    9.20904    9.19778    2.21981   93.19528    0.31515    2.97206   98.87044    1.49145    8.50000 99000.00000
 1335.10000    8.58027    8.81372    9.03564    9.00260    2.21350   93.94325    0.31672    2.98263   98.70596    1.59063    8.50000 99000.00000
 1335.20000    8.57941    8.19964    8.39959    8.36110    2.20582   94.70530    0.31645    2.97325   98.86261    1.86596    8.50000 99000.00000
 1335.30000    8.57662    8.38091    8.54621    8.55498    2.20647   94.11171    0.31632    2.96205   99.79414    1.95030    8.50000 99000.00000
 1335.40000    8.57607    8.30231    8.46017    8.43755    2.20246   93.67347    0.31213    2.96769   99.58155    1.75693    8.50000 99000.00000
 1335.50000    8.57382    8.19473    8.27704    8.25213    2.19469   93.19366    0.31184    2.95996  100.75343    1.49033    8.50000 99000.00000
 1335.60000    8.57578    7.35068    7.46697    7.44235    2.19904   93.39061    0.31757    2.95948  101.43817    0.98542    8.50000 99000.00000
 1335.70000    8.57596    7.42352    7.52825    7.49810    2.20024   93.86551    0.32473    2.95349  101.02593    1.34687    8.50000 99000.00000
 1335.80000    8.57477    7.55056    7.65517    7.60514    2.19452   93.31081    0.32823    2.95241  101.49043    1.82791    8.50000 99000.00000
 1335.90000    8.57639    8.05667    8.05244    8.01665    2.20291   93.49165    0.32661    2.96797  100.30336    1.91415    8.50000 99000.00000
