~Version ---------------------------------------------------
VERS.   2.0 : CWLS log ASCII Standard -VERSION 2.0
WRAP.    NO : One line per depth step
DLM . SPACE : Column Data Section Delimiter
~Well ------------------------------------------------------
STRT.m          1000.00000 : START DEPTH
STOP.m          2000.00000 : STOP DEPTH
STEP.m             0.10000 : STEP
NULL.             -9999.25 : NULL VALUE
COMP. FORCE 2020 Recreator : 
WELL.   WELL_FORCE_2020_09 : 
FLD .                      : FIELD
LOC .                      : LOCATION
PROV.                      : PROVINCE
CNTY.                      : COUNTY
STAT.                      : STATE
CTRY.                      : COUNTRY
SRVC.                      : SERVICE COMPANY
DATE.                      : DATE
UWI .                      : UNIQUE WELL ID
API .                      : API NUMBER
~Curve Information -----------------------------------------
DEPT                            .m      : 
CALI                            .in     : 
RSHA                            .ohm.m  : 
RMED                            .ohm.m  : 
RDEP                            .ohm.m  : 
RHOB                            .g/cm3  : 
GR                              .gAPI   : 
NPHI                            .v/v    : 
PEF                             .b/e    : 
DTC                             .us/ft  : 
SP                              .mV     : 
BS                              .in     : 
FORCE_2020_LITHOFACIES_LITHOLOGY.code   : 
~Params ----------------------------------------------------
~Other -----------------------------------------------------
~ASCII -----------------------------------------------------
# ...
 1795.20000    9.86359    2.66258    2.55186    2.56508    2.46157  117.57205    0.37037    3.29548  109.46807    5.13678    8.50000 65000.00000
 1795.30000    9.87059    2.71004    2.58929    2.60443    2.46384  116.93764    0.36529    3.30489  108.86836    5.15027    8.50000 65000.00000
 1795.40000    9.88828    2.67049    2.58620    2.59532    2.46421  115.69392    0.36740    3.30563  109.53540    5.12594    8.50000 65000.00000
 1795.50000    9.86426    2.63464    2.59357    2.58817    2.46334  115.84440    0.36333    3.33713  108.38853    5.26961    8.50000 65000.00000
 1795.60000    9.85825    2.60655    2.58778    2.57439    2.46346  115.89999    0.36268    3.35701  107.58062    5.30585    8.50000 65000.00000
 1795.70000    9.84388    2.55922    2.55387    2.54016    2.46551  114.96690    0.36224    3.33919  107.81026    5.27882    8.50000 65000.00000
 1795.80000    9.83183    2.48165    2.52162    2.49628    2.46272  117.19278    0.36085    3.33267  108.04202    5.29706    8.50000 65000.00000
 1795.90000    9.84432    2.51995    2.51970    2.47340    2.46319  115.10682    0.36174    3.29921  108.96206    5.52300    8.50000 65000.00000
 1796.00000    9.83616    2.53429    2.54483    2.49224    2.46430  115.01004    0.36032    3.30200  109.83963    5.67308    8.50000 65000.00000
 1796.10000    9.87709    2.60338    2.62314    2.56953    2.46152  114.59056    0.36056    3.30917  110.07991    5.61987    8.50000 65000.00000
 1796.20000    9.88417    2.60400    2.62427    2.57984    2.46155  115.30896    0.36310    3.30812  109.53638    5.55707    8.50000 65000.00000
 1796.30000    9.90277    2.68364    2.68381    2.64589    2.45711  115.47765    0.35858    3.31393  108.80073    5.63202    8.50000 65000.00000
 1796.40000    9.89188    2.70941    2.69123    2.65556    2.46027  115.68811    0.35841    3.31322  109.28100    5.80716    8.50000 65000.00000
 1796.50000    9.89238    2.71260    2.68328    2.66663    2.46149  116.72170    0.35649    3.30158  109.15857    5.69338    8.50000 65000.00000
 1796.60000    9.93163    2.65639    2.67374    2.64764    2.45950  117.00934    0.35313    3.31492  109.36311    5.63129    8.50000 65000.00000
 1796.70000    9.93525    2.56615    2.58604    2.56570    2.45554  115.82821    0.35443    3.32545  108.67160    5.82941    8.50000 65000.00000
 1796.80000    9.91489    2.56455    2.59784    2.58442    2.45497  116.12798    0.35583    3.34021  109.11893    5.42768    8.50000 65000.00000
 1796.90000    9.89466    2.57651    2.60596    2.60750    2.45424  116.39122    0.35431    3.34977  109.38506    5.50674    8.50000 65000.00000
 1797.00000    9.87681    2.58907    2.61790    2.61833    2.46003  118.22804    0.35407    3.35627  109.46600    5.36884    8.50000 65000.00000
 1797.10000    9.87096    2.57404    2.61510    2.61093    2.46096  117.64657    0.34930    3.35513  109.35755    5.13560    8.50000 65000.00000
 1797.20000    9.90271    2.59195    2.62631    2.62049    2.46012  116.27263    0.34652    3.36886  109.29269    5.05885    8.50000 65000.00000
 1797.30000    9.88654    2.56160    2.61450    2.60736    2.45999  117.82646    0.34629    3.38987  109.42336    4.94796    8.50000 65000.00000
 1797.40000    9.88790    2.64695    2.71130    2.69440    2.45649  117.86862    0.35362    3.39331  110.12581    4.86114    8.50000 65000.00000
 1797.50000    9.88068    2.57761    2.64726    2.62605    2.45875  120.28615    0.35019    3.39613  109.79751    4.94586    8.50000 65000.00000
 1797.60000    9.91044    2.62630    2.66011    2.65198    2.45868  119.42831    0.35037    3.40547  110.09987    4.79563    8.50000 65000.00000
 1797.70000    9.92437    2.67162    2.68300    2.68514    2.46475  118.41621    0.35241    3.39353  110.75735    4.62364    8.50000 65000.00000
 1797.80000    9.95849    2.67359    2.69101    2.69382    2.46101  118.44383    0.35155    3.41451  109.90306    4.82957    8.50000 65000.00000
 1797.90000    9.98231    2.68758    2.68620    2.69437    2.46172  117.14477    0.35169    3.43390  109.19638    4.89317    8.50000 65000.00000
 1798.00000    9.98018    2.75030    2.79157    2.80683    2.45837  117.05079    0.35126    3.44624  108.44880    4.78935    8.50000 65000.00000
 1798.10000    9.99107    2.73112    2.75768    2.77976    2.45789  116.01981    0.34847    3.45510  107.13909    4.52323    8.50000 65000.00000
 1798.20000    9.99176    2.64004    2.66254    2.68460    2.46130  116.93845    0.34523    3.45137  107.26444    4.75080    8.50000 65000.00000
 1798.30000    9.99226    2.75923    2.74943    2.76073    2.45878  116.29938    0.34263    3.44882  107.50267    4.66033    8.50000 65000.00000
 1798.40000    9.96606    2.73157    2.69969    2.71290    2.45745  116.47761    0.34475    3.44719  107.17382    4.80508    8.50000 65000.00000
 1798.50000    9.97010    2.71047    2.68793    2.69941    2.45877  116.48948    0.33956    3.45566  107.01664    4.51280    8.50000 65000.00000
 1798.60000    9.97358    2.68334    2.64876    2.66298    2.45963  114.76141    0.33710    3.45952  107.64985    4.68505    8.50000 65000.00000
 1798.70000    9.94596    2.65269    2.59047    2.61479    2.46402  115.08699    0.33840    3.46027  107.56771    4.78920    8.50000 65000.00000
 1798.80000    9.93328    2.79179    2.72755    2.73976    2.46778  116.16450    0.34249    3.45263  107.49724    4.61364    8.50000 65000.00000
 1798.90000    9.95401    2.82743    2.75176    2.76059    2.46842  116.49853    0.34051    3.46191  106.65822    4.80807    8.50000 65000.00000
 1799.00000    9.95685    2.78944    2.73088    2.73006    2.46997  117.06625    0.34217    3.43995  106.50837    4.89661    8.50000 65000.00000
 1799.10000    9.92911    2.68660    2.66424    2.66734    2.46727  116.95183    0.34412    3.41308  106.43424    4.88828    8.50000 65000.00000
 1799.20000    9.92568    2.70328    2.68254    2.68326    2.46629  116.99115    0.34765    3.41749  107.00191    5.16320    8.50000 65000.00000
 1799.30000    9.89456    2.73179    2.70221    2.70501    2.46559  117.82052    0.35001    3.39440  106.74890    5.29311    8.50000 65000.00000
 1799.40000    9.94846    2.74357    2.69467    2.69921    2.46554  116.29150    0.35292    3.39668  106.86660    5.63948    8.50000 65000.00000
 1799.50000    9.93221    2.67573    2.65343    2.66384    2.46473  115.30055    0.34835    3.41685  106.44415    5.50714    8.50000 65000.00000
 1799.60000    9.89459    2.73495    2.69335    2.70784    2.46488  115.99360    0.34546    3.40815  106.84471    5.81103    8.50000 65000.00000
 1799.70000    9.88191    2.66851    2.64737    2.65836    2.47123  116.46149    0.34448    3.38329  106.94848    5.99822    8.50000 65000.00000
 1799.80000    9.86449    2.63300    2.64661    2.65266    2.46757  116.17241    0.34456    3.37972  106.63096    6.01393    8.50000 65000.00000
 1799.90000    9.83079    2.71953    2.72100    2.72455    2.46873  116.04676    0.34678    3.37018  106.88746    6.10534    8.50000 65000.00000
 1800.00000    9.80471    2.71258    2.73067    2.73819    2.46726  114.79873    0.34831    3.36869  107.56641    6.16251    8.50000 65000.00000
 1800.10000    9.81089    2.64178    2.64161    2.63532    2.47473  116.60362    0.34795    3.38460  106.51824    5.82286    8.50000 65000.00000
 1800.20000    9.80443    2.70062    2.68724    2.67403    2.47521  116.29446    0.34904    3.36144  107.02913    6.04456    8.50000 65000.00000
 1800.30000    9.76956    2.71132    2.69220    2.68735    2.47474  115.64513    0.35311    3.35033  107.38920    5.91359    8.50000 65000.00000
 1800.40000    9.76245    2.59455    2.60311    2.60846    2.47448  115.75305    0.35306    3.34002  107.57161    5.71295    8.50000 65000.00000
 1800.50000    9.77031    2.57877    2.59143    2.59855    2.48162  116.20333    0.35000    3.34312  107.75543    5.54334    8.50000 65000.00000
 1800.60000    9.76439    2.54835    2.57455    2.57484    2.47675  116.45987    0.35271    3.36261  108.31782    5.60218    8.50000 65000.00000
 1800.70000    9.74814    2.52449    2.57608    2.56283    2.47605  118.10186    0.35424    3.38473  107.87389    5.62858    8.50000 65000.00000
