~Version ---------------------------------------------------
VERS.   2.0 : CWLS log ASCII Standard -VERSION 2.0
WRAP.    NO : One line per depth step
DLM . SPACE : Column Data Section Delimiter
~Well ------------------------------------------------------
STRT.m          1000.00000 : START DEPTH
STOP.m          2000.00000 : STOP DEPTH
STEP.m             0.10000 : STEP
NULL.             -9999.25 : NULL VALUE
COMP. FORCE 2020 Recreator : 
WELL.   WELL_FORCE_2020_01 : 
FLD .                      : FIELD
LOC .                      : LOCATION
PROV.                      : PROVINCE
CNTY.                      : COUNTY
STAT.                      : STATE
CTRY.                      : COUNTRY
SRVC.                      : SERVICE COMPANY
DATE.                      : DATE
UWI .                      : UNIQUE WELL ID
API .                      : API NUMBER
~Curve Information -----------------------------------------
DEPT                            .m      : 
CALI                            .in     : 
RSHA                            .ohm.m  : 
RMED                            .ohm.m  : 
RDEP                            .ohm.m  : 
RHOB                            .g/cm3  : 
GR                              .gAPI   : 
NPHI                            .v/v    : 
PEF                             .b/e    : 
DTC                             .us/ft  : 
SP                              .mV     : 
BS                              .in     : 
FORCE_2020_LITHOFACIES_LITHOLOGY.code   : 
~Params ----------------------------------------------------
~Other -----------------------------------------------------
~ASCII -----------------------------------------------------
# ...
 1599.20000    8.59681   55.62643   53.36049   53.29228    2.81262   28.60287    0.06495    3.15529   52.76308    2.22655    8.50000 74000.00000
 1599.30000    8.59615   56.09429   54.53685   54.44761    2.81299   28.65419    0.06542    3.14905   52.65868    2.10401    8.50000 74000.00000
 1599.40000    8.59659   56.45101   55.04872   55.00680    2.81135   28.47861    0.06362    3.14617   52.56555    2.04737    8.50000 74000.00000
 1599.50000    8.59778   55.55126   53.67740   53.82815    2.81344   28.20529    0.06494    3.15548   52.55604    2.04386    8.50000 74000.00000
 1599.60000    8.59449   53.40198   50.87904   51.30210    2.81508   27.28709    0.06502    3.15637   52.56658    1.69395    8.50000 74000.00000
 1599.70000    8.59217   53.34311   50.70261   51.10647    2.81644   27.11801    0.06318    3.15222   52.27274    1.57824    8.50000 74000.00000
 1599.80000    8.59396   53.62491   50.93657   51.31419    2.81929   26.94963    0.06336    3.15666   51.93078    1.92647    8.50000 74000.00000
 1599.90000    8.59449   54.00701   50.92034   51.46711    2.81673   26.54681    0.06384    3.15848   51.92736    1.68065    8.50000 74000.00000
 1600.00000    8.59414   57.58219   54.36520   54.91896    2.81701   26.77561    0.06326    3.15619   51.62623    1.50992    8.50000 74000.00000
 1600.10000    8.58813   56.34787   54.42986   54.77696    2.82023   27.04895    0.06245    3.15960   51.72863    1.43041    8.50000 74000.00000
 1600.20000    8.58781   58.12409   57.19174   57.67609    2.81959   26.78111    0.06165    3.15469   51.48183    1.49273    8.50000 74000.00000
 1600.30000    8.58806   57.73025   57.53136   58.06863    2.81768   26.58795    0.06207    3.15615   51.24819    1.65252    8.50000 74000.00000
 1600.40000    8.58865   56.92887   57.32885   57.59074    2.82163   26.54585    0.06175    3.15679   51.07730    1.72019    8.50000 74000.00000
 1600.50000    8.58542   65.76620   64.42256   64.93524    2.82110   25.80158    0.06165    3.15699   50.79593    1.76140    8.50000 74000.00000
 1600.60000    8.58556   71.93003   70.76363   71.33692    2.81690   26.08461    0.06121    3.15201   50.60832    1.77621    8.50000 74000.00000
 1600.70000    8.58498   74.54872   73.45761   74.12225    2.81943   26.95807    0.05919    3.15534   50.63099    1.61198    8.50000 74000.00000
 1600.80000    8.59150   73.14463   71.75357   72.23921    2.81776   26.42041    0.06055    3.15510   50.65734    1.81894    8.50000 74000.00000
 1600.90000    8.58921   79.32263   76.26710   77.07981    2.81804   26.50291    0.06079    3.15249   50.72985    1.70846    8.50000 74000.00000
 1601.00000    8.58705   84.77928   81.61901   82.83989    2.81711   25.52416    0.05940    3.15549   50.78910    1.63973    8.50000 74000.00000
 1601.10000    8.58836   79.96557   78.32844   78.97772    2.81131   25.38216    0.05931    3.15840   50.72510    1.67269    8.50000 74000.00000
 1601.20000    8.59236   82.14965   80.82256   81.31502    2.80883   24.95069    0.05835    3.15138   50.65140    2.00037    8.50000 74000.00000
 1601.30000    8.59146   87.96489   87.52553   87.72977    2.80957   24.00420    0.05788    3.15233   50.66686    2.12635    8.50000 74000.00000
 1601.40000    8.59203   84.52303   84.00757   84.00016    2.80784   23.81120    0.05689    3.14542   50.95185    2.02390    8.50000 74000.00000
 1601.50000    8.59386   86.02917   85.53378   85.47152    2.81256   23.72554    0.05782    3.14373   51.20440    1.85850    8.50000 74000.00000
 1601.60000    8.59213   88.78993   88.98020   89.14963    2.81446   24.40773    0.05642    3.13146   51.19083    1.93593    8.50000 74000.00000
 1601.70000    8.59201   85.65134   86.21229   86.15627    2.81286   25.51078    0.05479    3.12849   51.56941    1.55848    8.50000 74000.00000
 1601.80000    8.59594   85.36714   86.11280   86.01441    2.81187   25.61768    0.05562    3.12873   51.88868    1.98271    8.50000 74000.00000
 1601.90000    8.59574   94.59959   95.03537   94.88551    2.81419   25.82139    0.05595    3.13006   52.06530    1.82536    8.50000 74000.00000
 1602.00000    8.59179  105.89265  106.39519  105.13092    2.81550   25.83480    0.05576    3.11973   51.82655    1.96927    8.50000 74000.00000
 1602.10000    8.59453  101.83331  102.52314  101.29729    2.81423   26.06016    0.05646    3.11956   52.06480    2.30971    8.50000 74000.00000
 1602.20000    8.59634  105.77785  106.47876  105.58439    2.81061   25.74544    0.05920    3.12289   52.15398    2.26988    8.50000 74000.00000
 1602.30000    8.59618  103.37753  103.16436  102.28740    2.81389   25.10130    0.05845    3.11263   52.36158    2.18758    8.50000 74000.00000
 1602.40000    8.59613  107.24875  106.67127  105.65373    2.81869   25.19350    0.05804    3.11300   52.80392    2.00812    8.50000 74000.00000
 1602.50000    8.59589  114.10215  113.21245  112.08133    2.81822   25.38766    0.06155    3.11770   52.86917    2.20763    8.50000 74000.00000
 1602.60000    8.59850  106.18051  106.91679  105.54344    2.81886   25.37319    0.05995    3.11658   53.10874    2.36006    8.50000 74000.00000
 1602.70000    8.59755   99.08424   99.37514   98.00953    2.81904   25.45480    0.05842    3.11902   53.21837    2.25742    8.50000 74000.00000
 1602.80000    8.59867   96.81178   96.95054   95.56282    2.81516   24.69301    0.05831    3.12191   53.25604    2.17568    8.50000 74000.00000
 1602.90000    8.59297   96.29815   95.96593   95.03650    2.81802   24.72513    0.05815    3.11968   53.10593    2.19009    8.50000 74000.00000
 1603.00000    8.59675  100.65777  101.46631  100.17455    2.81582   23.67512    0.05903    3.11932   53.26971    2.26043    8.50000 74000.00000
 1603.10000    8.59429  103.82496  104.18588  103.13689    2.81552   24.24128    0.06165    3.11973   53.14302    2.05594    8.50000 74000.00000
 1603.20000    8.59124  103.34603  103.13240  102.13467    2.81548   24.01009    0.06090    3.12282   53.29287    2.07776    8.50000 74000.00000
 1603.30000    8.58681  101.61412  101.12765  100.41093    2.81533   24.47283    0.06358    3.12224   53.40039    2.01319    8.50000 74000.00000
 1603.40000    8.58974   96.61960   95.55161   94.97494    2.81924   24.90177    0.06346    3.12494   53.37862    2.09228    8.50000 74000.00000
 1603.50000    8.58744   98.08827   96.69007   96.22188    2.82016   24.88544    0.06407    3.13321   53.17424    2.50908    8.50000 74000.00000
 1603.60000    8.58889   95.68682   94.26975   93.84536    2.81750   24.73658    0.06224    3.13510   52.95286    2.24570    8.50000 74000.00000
 1603.70000    8.58741  100.75610   99.45703   98.57137    2.81601   24.05369    0.06033    3.15064   53.19178    2.12761    8.50000 74000.00000
 1603.80000    8.58733  100.87628   99.42058   98.74384    2.81477   23.41492    0.06171    3.15282   52.78802    2.20106    8.50000 74000.00000
 1603.90000    8.58397  116.13624  113.58327  112.20300    2.81757   23.38062    0.06157    3.15066   52.57680    1.86049    8.50000 74000.00000
 1604.00000    8.58416  111.23640  108.52805  107.71671    2.81500   23.06662    0.06153    3.14744   52.60286    1.96724    8.50000 74000.00000
 1604.10000    8.58640  114.35576  115.78026  115.11112    2.81680   23.57471    0.06264    3.16481   53.06044    2.05559    8.50000 74000.00000
 1604.20000    8.58164  115.52601  117.02795  116.36317    2.82135   23.22691    0.06287    3.16588   52.73558    2.06290    8.50000 74000.00000
 1604.30000    8.58332  113.53969  114.27653  113.09459    2.82462   23.43431    0.06113    3.16773   52.92285    2.22439    8.50000 74000.00000
 1604.40000    8.58544  117.54096  117.37225  116.33112    2.82157   23.45191    0.06246    3.17538   52.84213    2.26518    8.50000 74000.00000
 1604.50000    8.58563  113.93635  114.32299  113.14456    2.81565   23.64685    0.06265    3.16480   52.60500    2.43992    8.50000 74000.00000
 1604.60000    8.58633  106.69560  107.64759  106.62590    2.81197   23.72811    0.06095    3.15317   52.53870    1.82227    8.50000 74000.00000
 1604.70000    8.58019  108.49603  109.22129  108.40272    2.81300   24.33089    0.06193    3.15662   52.60273    1.64619    8.50000 74000.00000
