~Version ---------------------------------------------------
VERS.   2.0 : CWLS log ASCII Standard -VERSION 2.0
WRAP.    NO : One line per depth step
DLM . SPACE : Column Data Section Delimiter
~Well ------------------------------------------------------
STRT.m          1000.00000 : START DEPTH
STOP.m          2000.00000 : STOP DEPTH
STEP.m             0.10000 : STEP
NULL.             -9999.25 : NULL VALUE
COMP. FORCE 2020 Recreator : 
WELL.   WELL_FORCE_2020_07 : 
FLD .                      : FIELD
LOC .                      : LOCATION
PROV.                      : PROVINCE
CNTY.                      : COUNTY
STAT.                      : STATE
CTRY.                      : COUNTRY
SRVC.                      : SERVICE COMPANY
DATE.                      : DATE
UWI .                      : UNIQUE WELL ID
API .                      : API NUMBER
~Curve Information -----------------------------------------
DEPT                            .m      : 
CALI                            .in     : 
RSHA                            .ohm.m  : 
RMED                            .ohm.m  : 
RDEP                            .ohm.m  : 
RHOB                            .g/cm3  : 
GR                              .gAPI   : 
NPHI                            .v/v    : 
PEF                             .b/e    : 
DTC                             .us/ft  : 
SP                              .mV     : 
BS                              .in     : 
FORCE_2020_LITHOFACIES_LITHOLOGY.code   : 
~Params ----------------------------------------------------
~Other -----------------------------------------------------
~ASCII -----------------------------------------------------
# ...
 1995.40000    8.58919 10310.80290 10367.80984 10199.74639    2.71230  143.45819    0.01584    3.83513   43.66418   15.00314    8.50000 93000.00000
 1995.50000    8.58750 10130.68477 10190.77654 10045.35472    2.72234  142.66296    0.01500    3.86654   42.73028   14.86780    8.50000 93000.00000
 1995.60000    8.59049 10145.14046 10197.74314 10054.35339    2.71290  142.59602    0.01503    3.84811   42.36941   14.97343    8.50000 93000.00000
 1995.70000    8.59396 10222.24670 10290.64818 10136.62863    2.73996  145.50888    0.01516    3.81561   41.75687   14.28215    8.50000 93000.00000
 1995.80000    8.58938 10217.50069 10288.47126 10136.06245    2.75127  142.54802    0.01503    3.86302   42.10172   13.18572    8.50000 93000.00000
 1995.90000    8.59003 9691.64617 9736.87792 9613.50838    2.74755  141.44424    0.01523    3.80813   41.85642   13.61306    8.50000 93000.00000
 1996.00000    8.58944 9666.26454 9709.80826 9586.60811    2.77920  141.58210    0.01469    3.80844   42.16015   14.10244    8.50000 93000.00000
 1996.10000    8.59326 9535.11388 9563.31638 9447.62020    2.78312  141.57406    0.01434    3.82518   42.00476   13.53373    8.50000 93000.00000
 1996.20000    8.59282 9494.05610 9512.61232 9402.32320    2.78379  141.42299    0.01446    3.80235   41.83115   12.94317    8.50000 93000.00000
 1996.30000    8.58863 9223.29348 9244.23194 9108.50029    2.77208  142.54459    0.01403    3.82967   42.34110   13.02759    8.50000 93000.00000
 1996.40000    8.58316 9252.18975 9278.47490 9141.82680    2.77597  138.87450    0.01361    3.81004   42.61030   12.91973    8.50000 93000.00000
 1996.50000    8.58121 9343.71731 9275.06811 9086.88083    2.78914  137.87574    0.01372    3.77537   42.09448   13.40199    8.50000 93000.00000
 1996.60000    8.58204 9361.68398 9284.38783 9098.95891    2.77372  138.01177    0.01384    3.80814   42.70532   13.12493    8.50000 93000.00000
 1996.70000    8.58214 6756.39105 6764.83603 6590.31105    2.80253  135.62292    0.01384    3.83422   42.77516   12.49784    8.50000 93000.00000
 1996.80000    8.58344 6632.43697 6640.97706 6479.28223    2.81382  134.64994    0.01400    3.83682   42.70084   12.15786    8.50000 93000.00000
 1996.90000    8.58079 5887.09748 5878.97042 5779.68849    2.79194  133.27384    0.01354    3.84670   42.97401   11.59800    8.50000 93000.00000
 1997.00000    8.58077 5703.62979 5649.94147 5559.99239    2.78659  133.30697    0.01340    3.82688   42.64160   11.49037    8.50000 93000.00000
 1997.10000    8.58086 4568.23278 4403.36482 4390.60788    2.78300  135.45534    0.01393    3.84077   42.12980   11.05123    8.50000 93000.00000
 1997.20000    8.58079 2751.19836 2749.17278 2704.04588    2.76956  138.37846    0.01354    3.84252   41.80635   11.02164    8.50000 93000.00000
 1997.30000    8.58262 2493.43034 2460.57656 2403.70386    2.76593  139.21462    0.01317    3.85259   42.81963   10.95487    8.50000 93000.00000
 1997.40000    8.58550 2283.69604 2263.56174 2205.09697    2.74235  140.09663    0.01366    3.88911   42.49366   10.51071    8.50000 93000.00000
 1997.50000    8.58559 2085.42207 2044.54140 1993.28090    2.75695  141.06259    0.01385    3.85683   43.32292   10.06775    8.50000 93000.00000
 1997.60000    8.58563 2075.64253 2035.92096 1982.73941    2.75474  142.95505    0.01353    3.81610   43.95112    9.96951    8.50000 93000.00000
 1997.70000    8.58411 2075.83275 2038.25561 1985.09856    2.77649  139.13316    0.01372    3.80407   43.63378   10.42607    8.50000 93000.00000
 1997.80000    8.58291 2728.11007 2704.15955 2603.96197    2.74550  137.25682    0.01303    3.79044   43.43655   10.83232    8.50000 93000.00000
 1997.90000    8.58327 2733.28125 2708.54141 2607.88289    2.74402  137.01363    0.01303    3.72591   42.48439   11.54289    8.50000 93000.00000
 1998.00000    8.58162 4012.83375 3982.80619 3925.83471    2.72778  133.91393    0.01296    3.76036   42.43196   11.08574    8.50000 93000.00000
 1998.10000    8.58155 8179.81950 7283.55007 7413.23233    2.71220  135.27858    0.01313    3.73400   42.37147   10.64523    8.50000 93000.00000
 1998.20000    8.57751 8271.27695 7407.06122 7528.78245    2.70581  134.76044    0.01283    3.73944   42.77041   10.94207    8.50000 93000.00000
 1998.30000    8.57673 8279.34350 7412.65294 7534.08276    2.72492  134.54719    0.01258    3.77425   43.13250   11.08199    8.50000 93000.00000
 1998.40000    8.57878 8832.38262 7968.62548 8073.79300    2.72325  131.53014    0.01297    3.75556   43.13130   10.86544    8.50000 93000.00000
 1998.50000    8.58272 10096.08454 9368.91147 9412.30636    2.72773  134.69575    0.01328    3.74335   43.76441   10.41808    8.50000 93000.00000
 1998.60000    8.58163 9951.34281 9242.64112 9364.22357    2.72543  134.12174    0.01366    3.73483   44.65333   10.00034    8.50000 93000.00000
 1998.70000    8.58126 9976.61761 9277.08609 9394.64038    2.73013  133.64615    0.01331    3.69928   44.43167    9.97524    8.50000 93000.00000
 1998.80000    8.58235 10079.46684 9389.64575 9503.49495    2.70465  135.18211    0.01247    3.71165   44.54944   10.33409    8.50000 93000.00000
 1998.90000    8.58032 10110.17467 9417.05328 9533.46115    2.69565  135.84109    0.01206    3.66620   43.99335   10.08685    8.50000 93000.00000
 1999.00000    8.56836 10077.10547 9381.27935 9498.45194    2.69356  131.34310    0.02155    3.55630   45.22225    7.87086    8.50000 93000.00000
 1999.10000    8.56662 10575.09277 9844.49735 9967.65785    2.68235  131.41772    0.02202    3.56819   45.45342    7.68616    8.50000 93000.00000
 1999.20000    8.56332 10945.34707 10174.18773 10302.69973    2.68942  129.87425    0.02219    3.57043   45.99212    7.44538    8.50000 93000.00000
 1999.30000    8.56276 10923.83665 10099.90719 10243.97228    2.69597  128.15927    0.02323    3.52462   46.54557    7.11220    8.50000 93000.00000
 1999.40000    8.55853 11563.74334 10691.44254 10844.08648    2.70591  126.03991    0.02363    3.50986   46.18551    6.71637    8.50000 93000.00000
 1999.50000    8.55406 12263.95019   -9999.25 11499.65935    2.72774  123.01625    0.02456    3.45325   46.18124    6.75518    8.50000 93000.00000
 1999.60000    8.55153 13046.81177 12061.83234 12235.85958    2.71551  119.95687    0.02505    3.44112   45.59124    6.66488    8.50000 93000.00000
 1999.70000    8.54901 13956.02895 12903.29801 13089.21539    2.71903  117.65250    0.02639    3.41139   45.36142    6.59206    8.50000 93000.00000
 1999.80000    8.54852 14974.42180 13848.67101 14045.82473    2.70710  121.30336    0.02749    3.40529   45.85731    5.59904    8.50000 93000.00000
 1999.90000    8.54463 14939.05000 13667.72796 13981.84114    2.72265  120.56472    0.02936    3.42998   47.08511    4.90048    8.50000 93000.00000
 2000.00000    8.54598 16256.25747 14866.51231 15209.39409    2.70329  120.46622    0.03044    3.42204   48.45306    4.22349    8.50000 30000.00000
