~Version ---------------------------------------------------
VERS.   2.0 : CWLS log ASCII Standard -VERSION 2.0
WRAP.    NO : One line per depth step
DLM . SPACE : Column Data Section Delimiter
~Well ------------------------------------------------------
STRT.m          1000.00000 : START DEPTH
STOP.m          2000.00000 : STOP DEPTH
STEP.m             0.10000 : STEP
NULL.             -9999.25 : NULL VALUE
COMP. FORCE 2020 Recreator : 
WELL.   WELL_FORCE_2020_01 : 
FLD .                      : FIELD
LOC .                      : LOCATION
PROV.                      : PROVINCE
CNTY.                      : COUNTY
STAT.                      : STATE
CTRY.                      : COUNTRY
SRVC.                      : SERVICE COMPANY
DATE.                      : DATE
UWI .                      : UNIQUE WELL ID
API .                      : API NUMBER
~Curve Information -----------------------------------------
DEPT                            .m      : 
CALI                            .in     : 
RSHA                            .ohm.m  : 
RMED                            .ohm.m  : 
RDEP                            .ohm.m  : 
RHOB                            .g/cm3  : 
GR                              .gAPI   : 
NPHI                            .v/v    : 
PEF                             .b/e    : 
DTC                             .us/ft  : 
SP                              .mV     : 
BS                              .in     : 
FORCE_2020_LITHOFACIES_LITHOLOGY.code   : 
~Params ----------------------------------------------------
~Other -----------------------------------------------------
~ASCII -----------------------------------------------------
# ...
 1996.10000    8.58449 9897.19694 9522.00234 9449.37243    2.74088  138.97195    0.01526    3.83780   41.77413   11.38489    8.50000 93000.00000
 1996.20000    8.58370 9326.83688 8955.99663 8911.22436    2.73310  136.68534    0.01521    3.85862   41.72722   11.33241    8.50000 93000.00000
 1996.30000    8.57904 10279.48681 9844.02524 9785.18658    2.73153  136.63633    0.01526    3.81976   41.05756   12.02662    8.50000 93000.00000
 1996.40000    8.57561 10427.33626 9969.04943 9921.60682    2.75121  136.01694    0.01508    3.82810   41.77580   11.92788    8.50000 93000.00000
 1996.50000    8.57470 10275.06864 9786.35618 9749.64264    2.76181  136.48524    0.01542    3.80923   42.58401   12.39827    8.50000 93000.00000
 1996.60000    8.56948 7668.41569 7474.23225 7232.32204    2.75863  133.41922    0.01572    3.80988   43.36342   12.34010    8.50000 93000.00000
 1996.70000    8.56574 7660.47598 7468.70030 7223.76018    2.75457  133.49103    0.01540    3.79562   44.20055   12.57024    8.50000 93000.00000
 1996.80000    8.56758 7329.04558 7169.15698 6895.31574    2.77028  134.32702    0.01545    3.83462   44.98393   12.29885    8.50000 93000.00000
 1996.90000    8.56573 7425.93146 7267.76496 6992.95520    2.77568  134.18381    0.01566    3.85422   45.46371   12.74755    8.50000 93000.00000
 1997.00000    8.56464 7405.57073 7249.89951 6974.87241    2.78688  135.39026    0.01556    3.85707   45.57685   12.99648    8.50000 93000.00000
 1997.10000    8.56454 9177.42753 9490.86003 9163.69959    2.77412  136.72121    0.01703    3.88283   45.87217   12.80122    8.50000 93000.00000
 1997.20000    8.56625 7741.10994 8167.70181 7833.45978    2.77604  137.60519    0.01718    3.89363   46.30999   12.19178    8.50000 93000.00000
 1997.30000    8.56507 7732.03805 8157.24605 7823.72497    2.76844  136.71972    0.01702    3.85469   46.26581   13.00003    8.50000 93000.00000
 1997.40000    8.56339 5718.52390 6001.57560 5847.77026    2.77917  136.40761    0.01680    3.85750   45.62073   12.50791    8.50000 93000.00000
 1997.50000    8.56264 5717.29681 5997.61578 5840.96904    2.77643  138.46516    0.01712    3.82484   45.96443   12.34869    8.50000 93000.00000
 1997.60000    8.56151 5699.08668 5979.41184 5822.42032    2.76984  138.39659    0.01711    3.80383   45.70436   12.44966    8.50000 93000.00000
 1997.70000    8.56442 5744.32005 6023.72253 5864.86998    2.77751  139.18200    0.01671    3.82701   45.31434   12.47996    8.50000 93000.00000
 1997.80000    8.56274 13649.22112 13640.11869 13385.37585    2.75480  136.00261    0.01623    3.81824   44.90683   11.88642    8.50000 93000.00000
 1997.90000    8.56357 13620.28303 13609.31455 13352.39222    2.75530  135.47498    0.01678    3.82620   44.74509   12.20085    8.50000 93000.00000
 1998.00000    8.56109 13574.97174 13585.68870 13312.69463    2.75784  139.12278    0.01653    3.80948   45.57615   12.53257    8.50000 93000.00000
 1998.10000    8.56334 12112.77030 12268.07543 12101.41577    2.75982  140.37142    0.01651    3.79208   45.29824   12.45307    8.50000 93000.00000
 1998.20000    8.56504 12130.68269 12302.16045 12132.51246    2.76586  140.56407    0.01652    3.81033   45.49229   11.93954    8.50000 93000.00000
 1998.30000    8.56716 12466.45363 12620.36658 12442.75276    2.74616  139.04395    0.01667    3.81467   46.00800   11.40204    8.50000 93000.00000
 1998.40000    8.56832 11516.25765 11740.39882 11572.49249    2.74208  140.25082    0.01684    3.85558   46.56903   10.85625    8.50000 93000.00000
 1998.50000    8.57383 11354.96563 11611.44611 11432.93153    2.73251  142.32971    0.01720    3.83396   46.07160   11.30344    8.50000 93000.00000
 1998.60000    8.57312 11459.95587 11710.89961 11534.10896    2.71844  143.65391    0.01658    3.87431   46.23753   11.23976    8.50000 93000.00000
 1998.70000    8.57453 13091.15024 13546.46591 13180.03001    2.72678  143.66442    0.01626    3.83833   45.74706   11.22334    8.50000 93000.00000
 1998.80000    8.57875 13305.92151 13716.94885 13351.22975    2.70872  144.42790    0.01619    3.85849   45.11378   10.99676    8.50000 93000.00000
 1998.90000    8.57949 14787.86467 15514.33229 15224.62347    2.69370  143.46870    0.01682    3.86064   44.75681   10.80838    8.50000 93000.00000
 1999.00000    8.57182 14676.28059 15401.16771 15112.80508    2.66832  139.62386    0.02579    3.77769   45.91806    8.21193    8.50000 93000.00000
 1999.10000    8.57266 15344.76013 16093.50750 15791.91262    2.66170  139.21651    0.02644    3.73995   45.92099    8.19375    8.50000 93000.00000
 1999.20000    8.57172 14158.12765 14433.34826 14169.94739    2.67181  139.02307    0.02624    3.77411   45.78836    7.71528    8.50000 93000.00000
 1999.30000    8.57222 14898.91136 15191.27243 14914.15826    2.66996  136.61776    0.02673    3.76532   45.68422    7.48958    8.50000 93000.00000
 1999.40000    8.57248 15769.23618 16078.29094 15784.89477    2.67952  136.08311    0.02753    3.77395   45.43413    6.72924    8.50000 93000.00000
 1999.50000    8.57222 16735.14895 17065.08218 16752.67363    2.67220  136.17972    0.02832    3.78495   45.97519    6.41039    8.50000 93000.00000
 1999.60000    8.57296 17717.39052 18071.50092 17737.64818    2.66876  134.28542    0.02910    3.80776   45.74112    6.21003    8.50000 93000.00000
 1999.70000    8.57698 18977.10985 19356.99309 18999.34276    2.67622  132.52683    0.02978    3.84179   45.74344    5.69585    8.50000 93000.00000
 1999.80000    8.57494 20356.54736 20766.80031 20384.49307    2.63706  133.20052    0.03136    3.80933   46.69394    5.39007    8.50000 93000.00000
 1999.90000    8.57640 8200.60931 9150.44233 8903.62074    2.62940  136.59708    0.03240    3.78372   46.57114    6.06726    8.50000 93000.00000
 2000.00000    8.57359 8920.30225 9959.90296 9689.95196    2.59822  137.12019    0.03330    3.76278   47.31868    5.08920    8.50000 30000.00000
