~Version ---------------------------------------------------
VERS.   2.0 : CWLS log ASCII Standard -VERSION 2.0
WRAP.    NO : One line per depth step
DLM . SPACE : Column Data Section Delimiter
~Well ------------------------------------------------------
STRT.m          1000.00000 : START DEPTH
STOP.m          2000.00000 : STOP DEPTH
STEP.m             0.10000 : STEP
NULL.             -9999.25 : NULL VALUE
COMP. FORCE 2020 Recreator : 
WELL.   WELL_FORCE_2020_04 : 
FLD .                      : FIELD
LOC .                      : LOCATION
PROV.                      : PROVINCE
CNTY.                      : COUNTY
STAT.                      : STATE
CTRY.                      : COUNTRY
SRVC.                      : SERVICE COMPANY
DATE.                      : DATE
UWI .                      : UNIQUE WELL ID
API .                      : API NUMBER
~Curve Information -----------------------------------------
DEPT                            .m      : 
CALI                            .in     : 
RSHA                            .ohm.m  : 
RMED                            .ohm.m  : 
RDEP                            .ohm.m  : 
RHOB                            .g/cm3  : 
GR                              .gAPI   : 
NPHI                            .v/v    : 
PEF                             .b/e    : 
DTC                             .us/ft  : 
SP                              .mV     : 
BS                              .in     : 
FORCE_2020_LITHOFACIES_LITHOLOGY.code   : 
~Params ----------------------------------------------------
~Other -----------------------------------------------------
~ASCII -----------------------------------------------------
# ...
 1531.90000    8.58280    7.54861    8.04672    8.01092    2.17037   94.39252    0.34019    3.03686   99.27396    3.23284    8.50000 99000.00000
 1532.00000    8.58036    7.52135    8.01255    7.98645    2.17176   94.08242    0.34374    3.02576   98.09754    3.32016    8.50000 99000.00000
 1532.10000    8.57861    7.38581    7.81811    7.81710    2.18276   93.51686    0.33432    2.99682   98.77939    3.39717    8.50000 99000.00000
 1532.20000    8.57809    8.20389    8.45597    8.42509    2.18714   93.78528    0.33015    2.98438   98.45753    3.50641    8.50000 99000.00000
 1532.30000    8.57726    8.95120    9.25365    9.17101    2.17901   93.88185    0.32796    2.98952   98.19187    3.67969    8.50000 99000.00000
 1532.40000    8.57695    9.00202    9.13429    9.10979    2.18434   93.91853    0.33468    3.02114   97.85626    3.50542    8.50000 99000.00000
 1532.50000    8.57684    9.08651    9.29669    9.22302    2.18299   94.30582    0.33246    2.98497   98.09198    3.47378    8.50000 99000.00000
 1532.60000    8.57646    8.96157    9.21115    9.12754    2.17311   92.83940    0.32900    2.97160   98.57122    3.56942    8.50000 99000.00000
 1532.70000    8.57800    8.91097    9.19182    9.11407    2.17591   92.65379    0.32543    2.98836   98.74336    3.76599    8.50000 99000.00000
 1532.80000    8.57752    8.83922    9.05835    8.97560    2.17900   92.01089    0.32521    2.98290   98.90640    3.46228    8.50000 99000.00000
 1532.90000    8.57522    8.83376    9.05073    8.96646    2.18572   91.78841    0.32843    2.98536   98.93586    3.53780    8.50000 99000.00000
 1533.00000    8.57331    8.70099    8.86501    8.79674    2.19224   91.50983    0.32727    2.95440   99.00390    3.54997    8.50000 99000.00000
 1533.10000    8.57364    9.54321    9.64100    9.66073    2.19276   91.81730    0.32559    2.97815   99.93896    3.58371    8.50000 99000.00000
 1533.20000    8.57153    9.52009    9.60927    9.62098    2.19231   91.84835    0.32122    2.99017   99.95399    4.15998    8.50000 99000.00000
 1533.30000    8.57479   10.01358    9.99664    9.96631    2.18396   94.15829    0.32460    3.00471   99.70411    4.08450    8.50000 99000.00000
 1533.40000    8.57187    9.88780    9.96739    9.90897    2.18319   93.32161    0.32039    3.01366   99.69652    4.19279    8.50000 99000.00000
 1533.50000    8.56972    9.81287    9.76235    9.73678    2.18349   92.78066    0.31713    2.99167   99.18394    3.89413    8.50000 99000.00000
 1533.60000    8.56919    9.88855    9.85838    9.84099    2.18831   92.96681    0.31778    3.00873  100.71754    3.88024    8.50000 99000.00000
 1533.70000    8.56814    9.73640    9.72029    9.66144    2.18761   93.28467    0.31806    3.00471  100.28713    3.86269    8.50000 99000.00000
 1533.80000    8.56765   10.02606   10.07988   10.01791    2.18340   93.64268    0.32251    3.00497  100.14499    3.75972    8.50000 99000.00000
 1533.90000    8.56657    9.33130    9.45757    9.38322    2.18067   93.34915    0.32742    2.98715  100.68983    3.51068    8.50000 99000.00000
 1534.00000    8.56633    9.22854    9.40117    9.32526    2.17359   92.08752    0.32594    2.99448   99.67000    3.47716    8.50000 99000.00000
 1534.10000    8.56621    9.30196    9.48834    9.39766    2.16716   92.05760    0.32891    2.98201  100.71138    3.48290    8.50000 99000.00000
 1534.20000    8.56553    9.30313    9.44682    9.35734    2.16067   93.24836    0.32755    2.99622  100.30891    3.07350    8.50000 99000.00000
 1534.30000    8.56666    8.58675    8.73424    8.65167    2.16090   92.56977    0.32735    2.99120   99.75043    2.91935    8.50000 99000.00000
 1534.40000    8.56920    7.88532    7.99709    7.97844    2.16145   91.26305    0.33022    2.95389  100.02113    2.93734    8.50000 99000.00000
 1534.50000    8.56885    7.59328    7.81329    7.76616    2.15482   91.31105    0.32623    2.91547  100.00057    3.07861    8.50000 99000.00000
 1534.60000    8.57019    7.36508    7.51657    7.52853    2.16272   91.53261    0.32796    2.94736   99.91266    3.21777    8.50000 99000.00000
 1534.70000    8.57213    7.45491    7.59175    7.60753    2.17401   92.13773    0.32810    2.97517   99.42741    2.89826    8.50000 99000.00000
 1534.80000    8.57288    7.65020    7.75635    7.80999    2.17537   92.72102    0.33060    2.96451   98.60666    2.74804    8.50000 99000.00000
 1534.90000    8.57304    7.80364    7.90472    7.94147    2.18030   93.09084    0.32744    2.96941   98.65750    2.44545    8.50000 99000.00000
 1535.00000    8.57618    8.10449    8.24117    8.27894    2.17575   92.71148    0.32167    2.96040   99.09515    2.56286    8.50000 99000.00000
 1535.10000    8.57497    9.00660    9.18410    9.17970    2.18059   92.94206    0.32745    2.98998   98.28771    2.87867    8.50000 99000.00000
 1535.20000    8.57375    7.99153    8.07561    8.00446    2.17890   92.20904    0.33060    2.97366   98.08390    2.86036    8.50000 99000.00000
 1535.30000    8.57359    8.11299    8.21293    8.16325    2.17359   91.54550    0.32878    2.96153   97.88870    2.30028    8.50000 99000.00000
 1535.40000    8.57226    7.76354    7.96201    7.89464    2.17282   91.67002    0.32554    2.97106   97.75405    2.32988    8.50000 99000.00000
 1535.50000    8.57623    7.69254    7.87479    7.80863    2.18015   91.25564    0.32729    2.94698   98.33558    2.34178    8.50000 99000.00000
 1535.60000    8.58003    7.76464    7.95183    7.89664    2.18317   92.60153    0.32962    2.93919   98.97989    2.52496    8.50000 99000.00000
 1535.70000    8.58127    8.37940    8.60527    8.54141    2.18196   91.84725    0.33113    2.90499   97.98826    2.03031    8.50000 99000.00000
 1535.80000    8.58438   10.50732   11.23382   10.99064    2.18454   92.26447    0.32837    2.91528   97.55488    2.35027    8.50000 99000.00000
 1535.90000    8.58125   10.32856   10.97469   10.72529    2.18058   93.07435    0.32481    2.92704   98.92939    2.58260    8.50000 99000.00000
 1536.00000    8.58005   10.41937   11.00219   10.76624    2.18063   92.85161    0.32575    2.93025   98.99036    2.70336    8.50000 99000.00000
 1536.10000    8.58136   10.76755   11.34678   11.12357    2.18672   94.45116    0.32278    2.93121   99.27361    3.26634    8.50000 99000.00000
 1536.20000    8.58306   10.98537   11.61232   11.39976    2.19152   94.66102    0.31656    2.93782   98.92497    3.19000    8.50000 99000.00000
 1536.30000    8.58441   10.79391   11.41949   11.20416    2.18666   93.55485    0.32331    2.96083   98.60348    3.31915    8.50000 99000.00000
 1536.40000    8.58257   11.24730   11.78509   11.54275    2.18021   93.39427    0.32096    2.97077   99.50663    3.49181    8.50000 99000.00000
 1536.50000    8.58299   11.20389   11.75885   11.50465    2.18658   94.52373    0.31823    2.98535   99.41661    3.13267    8.50000 99000.00000
 1536.60000    8.58375   12.34806   13.02503   12.69770    2.18992   93.92118    0.32300    2.98465   99.87704    3.05920    8.50000 99000.00000
 1536.70000    8.58298   12.43200   13.04766   12.71746    2.17793   92.99340    0.32038    2.97528   99.14474    2.97026    8.50000 99000.00000
 1536.80000    8.57876   13.01797   13.69129   13.37624    2.17675   92.05252    0.32261    2.94632   99.12769    2.72979    8.50000 99000.00000
 1536.90000    8.57832   13.03576   13.70666   13.35636    2.17448   90.65195    0.32004    2.94324  100.16024    2.92010    8.50000 99000.00000
 1537.00000    8.58064   12.87037   13.71222   13.31148    2.16831   90.38776    0.32236    2.92374  100.70415    3.07967    8.50000 99000.00000
 1537.10000    8.57880   12.68501   13.52863   13.11558    2.16814   90.24566    0.32511    2.92738  100.88147    3.04026    8.50000 99000.00000
 1537.20000    8.58123   12.45499   13.36960   13.00439    2.15918   89.25671    0.32048    2.92345  101.73864    2.69563    8.50000 99000.00000
 1537.30000    8.58145   12.25052   13.20988   12.83753    2.16004   88.78515    0.32253    2.92278  101.00825    2.91552    8.50000 99000.00000
 1537.40000    8.57812   12.38323   13.34304   12.97197    2.17427   88.94613    0.32441    2.95801  100.66318    2.96062    8.50000 99000.00000
