~Version ---------------------------------------------------
VERS.   2.0 : CWLS log ASCII Standard -VERSION 2.0
WRAP.    NO : One line per depth step
DLM . SPACE : Column Data Section Delimiter
~Well ------------------------------------------------------
STRT.m          1000.00000 : START DEPTH
STOP.m          2000.00000 : STOP DEPTH
STEP.m             0.10000 : STEP
NULL.             -9999.25 : NULL VALUE
COMP. FORCE 2020 Recreator : 
WELL.   WELL_FORCE_2020_05 : 
FLD .                      : FIELD
LOC .                      : LOCATION
PROV.                      : PROVINCE
CNTY.                      : COUNTY
STAT.                      : STATE
CTRY.                      : COUNTRY
SRVC.                      : SERVICE COMPANY
DATE.                      : DATE
UWI .                      : UNIQUE WELL ID
API .                      : API NUMBER
~Curve Information -----------------------------------------
DEPT                            .m      : 
CALI                            .in     : 
RSHA                            .ohm.m  : 
RMED                            .ohm.m  : 
RDEP                            .ohm.m  : 
RHOB                            .g/cm3  : 
GR                              .gAPI   : 
NPHI                            .v/v    : 
PEF                             .b/e    : 
DTC                             .us/ft  : 
SP                              .mV     : 
BS                              .in     : 
FORCE_2020_LITHOFACIES_LITHOLOGY.code   : 
~Params ----------------------------------------------------
~Other -----------------------------------------------------
~ASCII -----------------------------------------------------
 1000.00000    8.58040   73.83857   71.42838   70.66843    2.66282   19.66660    0.10389   -9999.25   57.84389   -4.10960    8.50000 70000.00000
 1000.10000    8.58148   73.47993   72.36414   70.84272    2.66179   19.16928    0.10157   -9999.25   58.37243   -4.16772    8.50000 70000.00000
 1000.20000    8.58114   69.43939   68.27800   66.81070    2.65919   18.93354    0.10086   -9999.25   58.16995   -4.05718    8.50000 70000.00000
 1000.30000    8.57890   65.74841   64.63348   63.23262    2.66505   19.45426    0.10271   -9999.25   57.87841   -3.99066    8.50000 70000.00000
 1000.40000    8.57959   64.00719   62.77036   61.41290    2.66263   19.07057    0.10650   -9999.25   57.65153   -4.06857    8.50000 70000.00000
 1000.50000    8.57945   63.55722   62.55709   61.27203    2.66254   19.13637    0.10505   -9999.25   57.92041   -4.17939    8.50000 70000.00000
 1000.60000    8.58080   60.70660   59.78654   58.55420    2.66540   19.53775    0.10450   -9999.25   57.96866   -4.02338    8.50000 70000.00000
 1000.70000    8.58092   65.70295   64.22836   63.27527    2.66567   19.56651    0.10362   -9999.25   58.24417   -3.92219    8.50000 70000.00000
 1000.80000    8.58246   63.81440   62.34189   61.46330    2.66668   19.89605    0.10385   -9999.25   58.53880   -3.94539    8.50000 70000.00000
 1000.90000    8.58130   63.39788   62.39570   61.47538    2.66686   19.51621    0.10232   -9999.25   58.76311   -3.86796    8.50000 70000.00000
 1001.00000    8.57986   64.82410   63.85434   62.72054    2.66670   19.11349    0.10254   -9999.25   58.67507   -4.10681    8.50000 70000.00000
 1001.10000    8.57533   60.68414   60.29838   58.88728    2.66395   18.73449    0.10174   -9999.25   58.87523   -4.25394    8.50000 70000.00000
 1001.20000    8.57600   53.68411   53.33334   52.45407    2.66634   18.60225    0.09851   -9999.25   58.95212   -4.33422    8.50000 70000.00000
 1001.30000    8.57773   54.68025   54.28677   53.28318    2.67319   18.26659    0.09941   -9999.25   58.68219   -3.70032    8.50000 70000.00000
 1001.40000    8.57819   54.64699   54.22017   53.23064    2.67259   18.24321    0.09986   -9999.25   59.07723   -4.11043    8.50000 70000.00000
 1001.50000    8.57684   54.94780   54.50427   53.48873    2.67516   18.93653    0.09900   -9999.25   58.90216   -4.26969    8.50000 70000.00000
 1001.60000    8.57862   55.38185   54.83485   53.80856    2.67781   19.18323    0.09862   -9999.25   58.55313   -4.91372    8.50000 70000.00000
 1001.70000    8.57946   54.48512   54.05963   52.81691    2.67807   19.13309    0.09762   -9999.25   58.50431   -5.07272    8.50000 70000.00000
 1001.80000    8.57921   52.29719   52.09362   50.70336    2.68039   19.08268    0.09826   -9999.25   58.52887   -5.07675    8.50000 70000.00000
 1001.90000    8.57660   61.00695   59.82500   58.42407    2.68040   19.26219    0.09920   -9999.25   58.56523   -4.78080    8.50000 70000.00000
 1002.00000    8.57612   66.06246   64.24473   63.39193    2.68150   19.24299    0.09939   -9999.25   58.85847   -4.81692    8.50000 70000.00000
 1002.10000    8.57665   62.43249   61.48200   60.63393    2.68147   19.02409    0.09969   -9999.25   58.40239   -4.81234    8.50000 70000.00000
 1002.20000    8.57603   62.05336   60.00613   59.73940    2.68253   19.61205    0.10106   -9999.25   57.96380   -5.01886    8.50000 70000.00000
 1002.30000    8.57666   62.07474   60.05103   59.78267    2.68496   19.61536    0.09952   -9999.25   58.09179   -5.56511    8.50000 70000.00000
 1002.40000    8.57900   62.50017   60.83979   60.46984    2.68135   19.43513    0.09788   -9999.25   58.79829   -5.95630    8.50000 70000.00000
 1002.50000    8.57585   62.12628   60.51155   60.20854    2.68362   19.78963    0.09495   -9999.25   58.95486   -5.62934    8.50000 70000.00000
 1002.60000    8.57691   59.72186   58.05999   57.76843    2.68443   20.03411    0.09769   -9999.25   58.85236   -5.53406    8.50000 70000.00000
 1002.70000    8.57429   60.63348   59.02288   58.86067    2.68259   19.40783    0.09770   -9999.25   58.70625   -5.57470    8.50000 70000.00000
 1002.80000    8.57265   57.84450   56.70803   56.41325    2.68124   19.70467    0.09825   -9999.25   58.25174   -5.66081    8.50000 70000.00000
 1002.90000    8.57217   57.32392   56.16828   55.86312    2.68183   19.35861    0.09853   -9999.25   58.03971   -5.62369    8.50000 70000.00000
 1003.00000    8.56972   55.70402   54.13096   53.96284    2.68383   19.67108    0.09879   -9999.25   57.67522   -5.95258    8.50000 70000.00000
 1003.10000    8.57015   53.63330   52.28657   52.48242    2.68638   20.26592    0.09880   -9999.25   57.73657   -6.15100    8.50000 70000.00000
 1003.20000    8.57421   51.58128   49.81206   50.21558    2.69063   20.11706    0.09938   -9999.25   57.69844   -6.18672    8.50000 70000.00000
 1003.30000    8.57474   52.03372   50.34795   50.61921    2.68707   20.27941    0.10299   -9999.25   57.36061   -6.22639    8.50000 70000.00000
 1003.40000    8.57315   51.14679   49.70116   50.02420    2.68150   20.56766    0.10146   -9999.25   57.48467   -6.47242    8.50000 70000.00000
 1003.50000    8.57220   51.25979   49.81186   50.17333    2.68339   20.39253    0.10212   -9999.25   57.32025   -6.30198    8.50000 70000.00000
 1003.60000    8.57223   50.19599   48.72617   49.13856    2.68220   20.13814    0.10010   -9999.25   57.35360   -6.28671    8.50000 70000.00000
 1003.70000    8.57012   54.04029   52.27803   52.96244    2.67980   19.77448    0.09948   -9999.25   57.65081   -5.88098    8.50000 70000.00000
 1003.80000    8.57144   53.34347   51.62200   52.21474    2.67772   19.90452    0.10051   -9999.25   58.10864   -6.18977    8.50000 70000.00000
 1003.90000    8.57269   52.76369   51.27959   51.99208    2.67681   20.09295    0.10125   -9999.25   58.32193   -6.32786    8.50000 70000.00000
 1004.00000    8.57668   42.61807   42.00425   42.76040    2.67489   20.28345    0.10203   -9999.25   58.26592   -6.31639    8.50000 70000.00000
 1004.10000    8.57722   36.51192   36.68853   37.05130    2.67546   21.07612    0.10239   -9999.25   57.84759   -5.72372    8.50000 70000.00000
 1004.20000    8.57586   36.69433   37.01801   37.32693    2.67650   21.25814    0.10304   -9999.25   58.06410   -5.97575    8.50000 70000.00000
 1004.30000    8.57362   38.07852   38.68243   38.92015    2.67856   20.81122    0.10198   -9999.25   58.34657   -5.82874    8.50000 70000.00000
 1004.40000    8.57009   38.79725   39.44857   39.60570    2.67843   20.67601    0.10339   -9999.25   58.11407   -5.57521    8.50000 70000.00000
 1004.50000    8.57106   46.67128   47.43690   48.18670    2.68036   20.66057    0.10258   -9999.25   57.51413   -5.55661    8.50000 70000.00000
 1004.60000    8.57263   46.61160   47.46546   48.17438    2.68021   20.53078    0.10436   -9999.25   57.55080   -5.73575    8.50000 70000.00000
 1004.70000    8.57333   47.97354   48.58372   49.43446    2.68196   20.32785    0.10226   -9999.25   57.27697   -5.64735    8.50000 70000.00000
 1004.80000    8.57465   47.66539   48.25062   49.01700    2.68119   20.74119    0.10314   -9999.25   57.33769   -5.78565    8.50000 70000.00000
 1004.90000    8.57635   52.15153   52.89479   53.28077    2.68411   19.96431    0.10352   -9999.25   57.68513   -5.86153    8.50000 70000.00000
 1005.00000    8.57508   53.61228   54.27870   54.62840    2.68290   20.01708    0.10197   -9999.25   57.94969   -5.51954    8.50000 70000.00000
 1005.10000    8.58082   55.99926   56.86001   56.77149    2.68300   20.37029    0.10071   -9999.25   57.94285   -5.13637    8.50000 70000.00000
 1005.20000    8.58521   56.03841   56.22003   56.09033    2.68125   20.07705    0.09884   -9999.25   57.89007   -4.54500    8.50000 70000.00000
 1005.30000    8.58558   56.16443   56.25908   56.16219    2.67948   20.80371    0.09873   -9999.25   57.36205   -4.32117    8.50000 70000.00000
 1005.40000    8.58339   57.09509   57.27429   57.20113    2.68293   20.68514    0.09773   -9999.25   57.44426   -4.37626    8.50000 70000.00000
 1005.50000    8.58299   58.87625   58.42790   58.54410    2.68412   20.59507    0.09955   -9999.25   57.67244   -4.20772    8.50000 70000.00000
