~Version ---------------------------------------------------
VERS.   2.0 : CWLS log ASCII Standard -VERSION 2.0
WRAP.    NO : One line per depth step
DLM . SPACE : Column Data Section Delimiter
~Well ------------------------------------------------------
STRT.m          1000.00000 : START DEPTH
STOP.m          2000.00000 : STOP DEPTH
STEP.m             0.10000 : STEP
NULL.             -9999.25 : NULL VALUE
COMP. FORCE 2020 Recreator : 
WELL.   WELL_FORCE_2020_01 : 
FLD .                      : FIELD
LOC .                      : LOCATION
PROV.                      : PROVINCE
CNTY.                      : COUNTY
STAT.                      : STATE
CTRY.                      : COUNTRY
SRVC.                      : SERVICE COMPANY
DATE.                      : DATE
UWI .                      : UNIQUE WELL ID
API .                      : API NUMBER
~Curve Information -----------------------------------------
DEPT                            .m      : 
CALI                            .in     : 
RSHA                            .ohm.m  : 
RMED                            .ohm.m  : 
RDEP                            .ohm.m  : 
RHOB                            .g/cm3  : 
GR                              .gAPI   : 
NPHI                            .v/v    : 
PEF                             .b/e    : 
DTC                             .us/ft  : 
SP                              .mV     : 
BS                              .in     : 
FORCE_2020_LITHOFACIES_LITHOLOGY.code   : 
~Params ----------------------------------------------------
~Other -----------------------------------------------------
~ASCII -----------------------------------------------------
# ...
 1532.00000    9.83427    2.53359    2.50225    2.49442    2.49301  109.32281    0.37545    3.50157  108.99358    3.98607    8.50000 65000.00000
 1532.10000    9.82758    2.54708    2.52483    2.52562    2.49114  110.25236    0.37294    3.48716  108.92346    4.23954    8.50000 65000.00000
 1532.20000    9.82246    2.57622    2.51967    2.51252    2.48575  109.82675    0.36795    3.48261  109.71190    4.39052    8.50000 65000.00000
 1532.30000    9.84198    2.62195    2.54762    2.55030    2.49107  108.09920    0.36784    3.45614  109.39483    4.50162    8.50000 65000.00000
 1532.40000    9.82916    2.57408    2.50864    2.50147    2.49289  107.53178    0.37187    3.43255  109.15577    4.31189    8.50000 65000.00000
 1532.50000    9.85367    2.72825    2.69127    2.66011    2.49250  107.56241    0.37211    3.42890  109.57549    4.40071    8.50000 65000.00000
 1532.60000    9.82432    2.75510    2.72804    2.69195    2.49543  109.19160    0.36959    3.41109  109.55565    4.18623    8.50000 65000.00000
 1532.70000    9.85139    2.70587    2.71431    2.67911    2.49579  110.58206    0.37295    3.40822  108.78710    4.43598    8.50000 65000.00000
 1532.80000    9.82154    2.73316    2.74991    2.71593    2.49635  110.91556    0.37465    3.40583  109.35082    4.36620    8.50000 65000.00000
 1532.90000    9.80387    2.82727    2.83880    2.79575    2.49581  110.21900    0.37527    3.42035  109.99261    4.15390    8.50000 65000.00000
 1533.00000    9.79038    2.86155    2.87893    2.82106    2.49638  109.42925    0.37113    3.39991  109.72517    4.29300    8.50000 65000.00000
 1533.10000    9.76606    2.92578    2.93357    2.88267    2.49204  109.72254    0.36846    3.36992  110.42956    4.45238    8.50000 65000.00000
 1533.20000    9.75724    2.90199    2.94622    2.88584    2.49317  109.43160    0.37008    3.34774  110.87049    4.36246    8.50000 65000.00000
 1533.30000    9.76582    2.89834    2.95884    2.89149    2.49962  110.21563    0.36708    3.34820  111.25177    4.50426    8.50000 65000.00000
 1533.40000    9.79116    2.97337    3.03385    2.97292    2.50132  111.16110    0.37017    3.34015  110.67547    4.39240    8.50000 65000.00000
 1533.50000    9.81386    2.93946    2.99363    2.95296    2.50080  112.17873    0.36596    3.33502  110.07849    4.24228    8.50000 65000.00000
 1533.60000    9.81377    2.87572    2.93438    2.90240    2.49718  113.46772    0.36698    3.34555  110.49748    4.18131    8.50000 65000.00000
 1533.70000    9.80852    2.85209    2.88217    2.85629    2.49388  114.01906    0.36404    3.31194  109.82223    4.29293    8.50000 65000.00000
 1533.80000    9.82118    2.90176    2.93541    2.91227    2.49217  115.45404    0.36278    3.30053  109.51709    4.41513    8.50000 65000.00000
 1533.90000    9.82892    2.95343    2.97286    2.95569    2.48960  115.90409    0.36085    3.27802  109.40532    4.51551    8.50000 65000.00000
 1534.00000    9.84898    3.04124    3.09386    3.08406    2.48876  114.53730    0.36133    3.26238  109.06241    4.35657    8.50000 65000.00000
 1534.10000    9.90122    2.98078    3.05434    3.04224    2.48121  114.62726    0.36327    3.26054  109.47548    4.80074    8.50000 65000.00000
 1534.20000    9.89176    3.06073    3.10479    3.09265    2.48071  114.93567    0.36805    3.27748  108.81039    4.77924    8.50000 65000.00000
 1534.30000    9.92185    3.00206    3.07063    3.05159    2.48658  115.50408    0.36894    3.28359  109.01208    5.04183    8.50000 65000.00000
 1534.40000    9.92393    3.00419    3.07539    3.06004    2.48242  116.23043    0.36843    3.30202  108.59989    4.96040    8.50000 65000.00000
 1534.50000    9.88593    2.98628    3.06128    3.04790    2.48284  116.28747    0.36664    3.32413  108.76855    5.37580    8.50000 65000.00000
 1534.60000    9.88814    2.88402    2.93721    2.94858    2.48753  115.86861    0.36539    3.30898  108.33981    5.28942    8.50000 65000.00000
 1534.70000    9.93982    2.87441    2.90471    2.92537    2.48130  113.79300    0.36692    3.31789  107.98942    5.41854    8.50000 65000.00000
 1534.80000    9.92190    2.89238    2.89294    2.91363    2.48104  113.47575    0.36476    3.32771  107.34024    5.36916    8.50000 65000.00000
 1534.90000    9.93121    2.98898    2.97606    2.99260    2.48697  113.92257    0.36635    3.34787  107.74590    5.21611    8.50000 65000.00000
 1535.00000    9.91223    2.96405    2.93942    2.96687    2.48363  114.71935    0.36229    3.34974  107.31261    5.37307    8.50000 65000.00000
 1535.10000    9.95489    2.93068    2.91065    2.94854    2.48271  114.69111    0.36202    3.36900  107.02198    5.24631    8.50000 65000.00000
 1535.20000    9.96576    2.92154    2.89499    2.93383    2.48415  114.19244    0.36180    3.39126  106.86984    5.21171    8.50000 65000.00000
 1535.30000    9.99419    2.89984    2.85323    2.90865    2.48331  113.42738    0.36280    3.39568  106.82760    5.01358    8.50000 65000.00000
 1535.40000   10.00663    2.85766    2.80456    2.86053    2.48034  114.04822    0.36413    3.39615  106.54064    4.92754    8.50000 65000.00000
 1535.50000   10.00436    2.80393    2.75357    2.80620    2.48433  115.04984    0.36075    3.38679  106.72958    4.69003    8.50000 65000.00000
 1535.60000   10.01873    2.76832    2.70910    2.75073    2.48169  113.54271    0.36289    3.40328  106.80076    4.54370    8.50000 65000.00000
 1535.70000    9.97484    2.81877    2.73509    2.77633    2.48364  112.47255    0.36055    3.38198  106.55961    4.34108    8.50000 65000.00000
 1535.80000    9.97289    2.82613    2.76765    2.78976    2.47801  113.17339    0.36596    3.38498  106.78902    4.15938    8.50000 65000.00000
 1535.90000    9.95024    2.80384    2.74213    2.75683    2.47294  113.07022    0.36629    3.38109  107.03328    3.93714    8.50000 65000.00000
 1536.00000    9.96463    2.84389    2.81572    2.82893    2.47292  113.55441    0.36398    3.37672  106.79395    3.95850    8.50000 65000.00000
 1536.10000    9.94496    2.69635    2.65325    2.66687    2.46983  113.67729    0.35928    3.39745  106.21897    4.19893    8.50000 65000.00000
 1536.20000    9.91567    2.74733    2.71964    2.73986    2.47565  113.92540    0.35338    3.41132  105.92839    4.17052    8.50000 65000.00000
 1536.30000    9.90422    2.62179    2.61392    2.63196    2.47467  112.00923    0.34869    3.38829  107.02040    4.23968    8.50000 65000.00000
 1536.40000    9.91118    2.63426    2.63963    2.67289    2.47207  111.88702    0.34939    3.37963  106.57856    4.01944    8.50000 65000.00000
 1536.50000    9.88754    2.66738    2.67849    2.69810    2.47339  112.07771    0.35170    3.38113  106.83874    3.97499    8.50000 65000.00000
 1536.60000    9.93341    2.67753    2.69282    2.70675    2.47290  112.96900    0.35170    3.37104  106.14528    3.88948    8.50000 65000.00000
 1536.70000    9.90551    2.64878    2.65527    2.66866    2.46601  114.14135    0.35253    3.39307  106.21977    4.22870    8.50000 65000.00000
 1536.80000    9.91172    2.62748    2.63669    2.64532    2.46894  115.42955    0.35440    3.39251  106.63347    4.02215    8.50000 65000.00000
 1536.90000    9.90661    2.65207    2.66584    2.67340    2.46967  115.67494    0.35405    3.39132  107.12190    4.06007    8.50000 65000.00000
 1537.00000    9.88144    2.56335    2.54765    2.57453    2.46723  115.77916    0.35144    3.36248  106.62733    4.24040    8.50000 65000.00000
 1537.10000    9.91091    2.53328    2.52443    2.55095    2.46966  115.29595    0.35122    3.35546  106.61235    4.17961    8.50000 65000.00000
 1537.20000    9.88591    2.49237    2.48153    2.50251    2.47282  114.17875    0.35567    3.34776  106.45266    4.22975    8.50000 65000.00000
 1537.30000    9.87631    2.36280    2.36326    2.38506    2.47426  114.06446    0.35756    3.35177  106.46735    3.94469    8.50000 65000.00000
 1537.40000    9.82683    2.46979    2.46416    2.47954    2.47231  115.80044    0.35832    3.34246  106.42454    3.88242    8.50000 65000.00000
 1537.50000    9.82407    2.51058    2.49855    2.50689    2.47214  115.74617    0.35592    3.34867  106.77754    3.82071    8.50000 65000.00000
