~Version ---------------------------------------------------
VERS.   2.0 : CWLS log ASCII Standard -VERSION 2.0
WRAP.    NO : One line per depth step
DLM . SPACE : Column Data Section Delimiter
~Well ------------------------------------------------------
STRT.m          1000.00000 : START DEPTH
STOP.m          2000.00000 : STOP DEPTH
STEP.m             0.10000 : STEP
NULL.             -9999.25 : NULL VALUE
COMP. FORCE 2020 Recreator : 
WELL.   WELL_FORCE_2020_01 : 
FLD .                      : FIELD
LOC .                      : LOCATION
PROV.                      : PROVINCE
CNTY.                      : COUNTY
STAT.                      : STATE
CTRY.                      : COUNTRY
SRVC.                      : SERVICE COMPANY
DATE.                      : DATE
UWI .                      : UNIQUE WELL ID
API .                      : API NUMBER
~Curve Information -----------------------------------------
DEPT                            .m      : 
CALI                            .in     : 
RSHA                            .ohm.m  : 
RMED                            .ohm.m  : 
RDEP                            .ohm.m  : 
RHOB                            .g/cm3  : 
GR                              .gAPI   : 
NPHI                            .v/v    : 
PEF                             .b/e    : 
DTC                             .us/ft  : 
SP                              .mV     : 
BS                              .in     : 
FORCE_2020_LITHOFACIES_LITHOLOGY.code   : 
~Params ----------------------------------------------------
~Other -----------------------------------------------------
~ASCII -----------------------------------------------------
# ...
 1201.60000    9.91826    2.36429    2.42232    2.43607    2.46793  117.82612    0.37343    3.42228  107.95829    5.51307    8.50000 65000.00000
 1201.70000    9.91274    2.39605    2.46029    2.47127    2.46470  117.93602    0.37304    3.42371  108.01617    4.95997    8.50000 65000.00000
 1201.80000    9.92263    2.31222    2.36527    2.36620    2.46245  116.93238    0.37522    3.41965  107.74573    5.05726    8.50000 65000.00000
 1201.90000    9.90746    2.35415    2.41786    2.42109    2.46282  116.99272    0.37370    3.41667  108.03451    5.34482    8.50000 65000.00000
 1202.00000    9.88636    2.30905    2.44680    2.45692    2.46358  115.10628    0.37272    3.38225  107.28704    5.53949    8.50000 65000.00000
 1202.10000    9.89613    2.30473    2.45970    2.46257    2.46530  116.07346    0.37349    3.36746  107.49267    5.18964    8.50000 65000.00000
 1202.20000    9.90732    2.32567    2.49833    2.49468    2.47046  117.65753    0.37210    3.38462  106.27655    5.66068    8.50000 65000.00000
 1202.30000    9.93566    2.29520    2.47627    2.46706    2.47151  118.11057    0.36769    3.38775  105.79200    6.03777    8.50000 65000.00000
 1202.40000    9.88089    2.35065    2.56069    2.54949    2.47108  118.70787    0.36774    3.38861  106.08846    5.91776    8.50000 65000.00000
 1202.50000    9.84907    2.38146    2.58041    2.56221    2.47052  117.13990    0.36613    3.39440  106.00593    5.85244    8.50000 65000.00000
 1202.60000    9.85218    2.48563    2.70393    2.67363    2.47018  115.91287    0.36453    3.40995  106.17284    5.83369    8.50000 65000.00000
 1202.70000    9.85272    2.66845    2.86763    2.83366    2.47340  117.52375    0.35927    3.40623  105.84516    5.51255    8.50000 65000.00000
 1202.80000    9.85800    2.67222    2.88529    2.84687    2.46684  116.83324    0.35626    3.41073  105.61259    5.79863    8.50000 65000.00000
 1202.90000    9.86503    2.63704    2.86738    2.83697    2.46493  117.32556    0.35427    3.40985  106.81706    5.77510    8.50000 65000.00000
 1203.00000    9.90878    2.67046    2.89075    2.87130    2.45956  115.94151    0.35468    3.41096  106.74733    5.63558    8.50000 65000.00000
 1203.10000    9.91775    2.69878    2.88706    2.86917    2.46392  116.92339    0.35319    3.39916  106.79083    5.06674    8.50000 65000.00000
 1203.20000    9.87051    2.66744    2.85341    2.83614    2.46421  117.22436    0.35570    3.40654  108.06245    4.79605    8.50000 65000.00000
 1203.30000    9.84590    2.62971    2.79382    2.78327    2.46446  117.53504    0.35388    3.40392  107.92510    4.50518    8.50000 65000.00000
 1203.40000    9.83837    2.59194    2.75724    2.74888    2.46739  116.26525    0.35729    3.42698  107.80757    4.72099    8.50000 65000.00000
 1203.50000    9.85729    2.64938    2.79879    2.79006    2.47040  115.37549    0.36031    3.41483  108.20996    4.71614    8.50000 65000.00000
 1203.60000    9.86172    2.68210    2.83461    2.82827    2.47081  113.54650    0.35854    3.41979  108.07156    4.94975    8.50000 65000.00000
 1203.70000    9.84699    2.66870    2.80172    2.81016    2.47006  113.43668    0.35664    3.42116  108.32858    4.90284    8.50000 65000.00000
 1203.80000    9.85794    2.66115    2.77295    2.79313    2.47189  114.94210    0.35420    3.44141  107.88886    5.17200    8.50000 65000.00000
 1203.90000    9.84028    2.71528    2.80312    2.83950    2.46950  115.41645    0.35603    3.46671  107.84756    5.24776    8.50000 65000.00000
 1204.00000    9.86100    2.79956    2.85696    2.88829    2.47291  114.77264    0.35540    3.46484  107.36762    5.00585    8.50000 65000.00000
 1204.10000    9.86020    2.74318    2.73160    2.77112    2.47131  115.66689    0.35602    3.46709  107.67675    4.81359    8.50000 65000.00000
 1204.20000    9.84355    2.76623    2.73066    2.77488    2.47120  115.28647    0.35419    3.47357  107.51898    4.98494    8.50000 65000.00000
 1204.30000    9.85099    2.71037    2.65583    2.69595    2.46750  115.49576    0.35812    3.47403  108.10506    4.68170    8.50000 65000.00000
 1204.40000    9.81882    2.82554    2.76425    2.81506    2.46821  112.47892    0.35730    3.49182  108.21564    4.56767    8.50000 65000.00000
 1204.50000    9.82576    2.80829    2.74580    2.79453    2.46580  110.85988    0.35541    3.47280  108.71075    5.00011    8.50000 65000.00000
 1204.60000    9.84230    2.75896    2.71186    2.76067    2.46545  112.13073    0.35659    3.47909  108.48652    5.31446    8.50000 65000.00000
 1204.70000    9.84444    2.70676    2.62915    2.69880    2.46486  113.08086    0.35693    3.45248  107.92286    5.18091    8.50000 65000.00000
 1204.80000    9.87632    2.52902    2.47339    2.54346    2.46497  111.23528    0.35805    3.45461  108.17244    5.34269    8.50000 65000.00000
 1204.90000    9.86410    2.63164    2.54163    2.61864    2.46602  111.19853    0.35939    3.43108  108.19747    5.13808    8.50000 65000.00000
 1205.00000    9.86657    2.60632    2.52660    2.59842    2.47027  110.21392    0.36061    3.43513  107.46512    5.40086    8.50000 65000.00000
 1205.10000    9.86368    2.61577    2.52276    2.58841    2.47772  110.97617    0.36242    3.44342  107.67409    5.65673    8.50000 65000.00000
 1205.20000    9.86566    2.56868    2.47878    2.53697    2.48155  110.40985    0.36501    3.45331  107.00227    6.17122    8.50000 65000.00000
 1205.30000    9.89606    2.57470    2.47135    2.53049    2.48094  110.85710    0.36352    3.45223  106.96856    6.46863    8.50000 65000.00000
 1205.40000    9.90308    2.53990    2.46706    2.52057    2.48265  110.15877    0.36932    3.44605  107.69235    6.44814    8.50000 65000.00000
 1205.50000    9.91091    2.63346    2.56318    2.60657    2.48825  111.05193    0.36935    3.43798  107.10704    6.22786    8.50000 65000.00000
 1205.60000    9.88157    2.66010    2.58313    2.62520    2.48637  111.40159    0.36585    3.42084  106.75435    6.50967    8.50000 65000.00000
 1205.70000    9.86276    2.61542    2.55230    2.58865    2.48765  111.80622    0.36377    3.41342  106.26171    6.49627    8.50000 65000.00000
 1205.80000    9.84092    2.65638    2.59668    2.62637    2.48891  110.67328    0.36581    3.37716  106.48840    6.12742    8.50000 65000.00000
 1205.90000    9.84880    2.80180    2.77684    2.78457    2.48672  110.52190    0.36609    3.37577  106.84375    6.29654    8.50000 65000.00000
 1206.00000    9.86554    2.78530    2.78589    2.78939    2.49422  109.67891    0.36524    3.36192  107.28119    5.87401    8.50000 65000.00000
 1206.10000    9.83991    2.65134    2.66355    2.65454    2.49461  111.23810    0.36646    3.35280  107.07111    5.81767    8.50000 65000.00000
 1206.20000    9.84463    2.72020    2.74595    2.73091    2.49188  110.49097    0.35996    3.34832  107.18527    5.79315    8.50000 65000.00000
 1206.30000    9.88345    2.70322    2.72373    2.71231    2.49216  110.96005    0.36171    3.35281  107.15156    5.76455    8.50000 65000.00000
 1206.40000    9.88236    2.72983    2.75608    2.73586    2.48893  111.67112    0.35516    3.34747  106.78036    5.36111    8.50000 65000.00000
 1206.50000    9.87927    2.60267    2.63311    2.60801    2.49035  112.94748    0.35902    3.33046  106.52704    5.17033    8.50000 65000.00000
 1206.60000    9.89794    2.52237    2.53543    2.51916    2.49371  113.89757    0.36283    3.33150  105.71412    5.04136    8.50000 65000.00000
 1206.70000    9.88621    2.53970    2.59058    2.55892    2.49102  115.41595    0.36075    3.32221  106.36000    4.49798    8.50000 65000.00000
 1206.80000    9.88216    2.60894    2.69358    2.63580    2.48999  113.01669    0.36361    3.33972  106.50466    4.65641    8.50000 65000.00000
 1206.90000    9.83450    2.64509    2.71671    2.66459    2.49058  112.80369    0.36458    3.35245  106.65481    4.59081    8.50000 65000.00000
 1207.00000    9.85453    2.56965    2.66504    2.60684    2.49581  113.51117    0.36553    3.37069  106.46897    4.56217    8.50000 65000.00000
 1207.10000    9.84431    2.56555    2.65647    2.60027    2.49758  114.21969    0.36552    3.37035  106.61330    4.18112    8.50000 65000.00000
