~Version ---------------------------------------------------
VERS.   2.0 : CWLS log ASCII Standard -VERSION 2.0
WRAP.    NO : One line per depth step
DLM . SPACE : Column Data Section Delimiter
~Well ------------------------------------------------------
STRT.m          1000.00000 : START DEPTH
STOP.m          2000.00000 : STOP DEPTH
STEP.m             0.10000 : STEP
NULL.             -9999.25 : NULL VALUE
COMP. FORCE 2020 Recreator : 
WELL.   WELL_FORCE_2020_03 : 
FLD .                      : FIELD
LOC .                      : LOCATION
PROV.                      : PROVINCE
CNTY.                      : COUNTY
STAT.                      : STATE
CTRY.                      : COUNTRY
SRVC.                      : SERVICE COMPANY
DATE.                      : DATE
UWI .                      : UNIQUE WELL ID
API .                      : API NUMBER
~Curve Information -----------------------------------------
DEPT                            .m      : 
CALI                            .in     : 
RSHA                            .ohm.m  : 
RMED                            .ohm.m  : 
RDEP                            .ohm.m  : 
RHOB                            .g/cm3  : 
GR                              .gAPI   : 
NPHI                            .v/v    : 
PEF                             .b/e    : 
DTC                             .us/ft  : 
SP                              .mV     : 
BS                              .in     : 
FORCE_2020_LITHOFACIES_LITHOLOGY.code   : 
~Params ----------------------------------------------------
~Other -----------------------------------------------------
~ASCII -----------------------------------------------------
# ...
 1464.50000    8.57658  165.69097  164.29417  165.70253    1.44194   31.78309    0.52196    1.59773  127.17381   -9.85805    8.50000 90000.00000
 1464.60000    8.57480  155.48843  156.46723  157.40437    1.43904   30.69668    0.52394    1.59614  126.30745  -10.06206    8.50000 90000.00000
 1464.70000    8.57499  156.45893  158.58468  158.85123    1.44015   30.61269    0.52541    1.58217  125.68217  -10.24291    8.50000 90000.00000
 1464.80000    8.57264  166.29900  167.35970  167.29908    1.44325   31.13549    0.53174    1.59988  124.48393  -10.68032    8.50000 90000.00000
 1464.90000    8.57333  166.67658  167.29548  167.34338    1.45713   30.71369    0.53114    1.60874  125.67259  -10.56075    8.50000 90000.00000
 1465.00000    8.57157  173.42313  172.82511  173.01160    1.45104   30.53281    0.53253    1.61908  126.84342  -10.46784    8.50000 90000.00000
 1465.10000    8.57263  177.94939  176.79122  177.06925    1.45421   30.95653    0.53547    1.63048  127.31026  -10.67463    8.50000 90000.00000
 1465.20000    8.57139  183.42521  180.41253  181.71275    1.46855   30.08156    0.53297    1.64967  125.43709  -10.94681    8.50000 90000.00000
 1465.30000    8.56987  214.73470  208.01691  209.07055    1.45754   29.79071    0.52901    1.63996  125.70075  -10.88373    8.50000 90000.00000
 1465.40000    8.57207  218.58459  212.56902  212.75499    1.45543   29.45330    0.53175    1.64223  125.21797  -10.32139    8.50000 90000.00000
 1465.50000    8.56993  227.61212  223.34517  223.61798    1.45196   29.62118    0.52996    1.61941  124.78029   -9.85451    8.50000 90000.00000
 1465.60000    8.57276  251.53002  236.91313  243.23166    1.45924   29.83382    0.52663    1.62506  123.65283   -9.80213    8.50000 90000.00000
 1465.70000    8.57031  252.82835  243.44942  247.34584    1.45032   30.25463    0.52902    1.61206  125.28723   -9.15738    8.50000 90000.00000
 1465.80000    8.57088  256.59972  247.02665  250.98755    1.44376   30.41131    0.52741    1.63016  124.18710   -9.53402    8.50000 90000.00000
 1465.90000    8.57165  255.09327  244.46981  248.92178    1.43370   30.32650    0.52988    1.63855  124.43633   -9.17139    8.50000 90000.00000
 1466.00000    8.56944  266.23959  254.69417  258.61590    1.42567   30.17534    0.52808    1.64142  124.50128   -9.59461    8.50000 90000.00000
 1466.10000    8.56919  261.93011  249.10238  252.73988    1.43037   30.77890    0.53037    1.64480  125.26132   -9.31363    8.50000 90000.00000
 1466.20000    8.57062  261.25460  248.63819  252.15769    1.42092   30.14987    0.53506    1.64017  125.89376   -9.17879    8.50000 90000.00000
 1466.30000    8.57186  260.85679  248.20577  251.90472    1.42296   29.17914    0.53432    1.63001  126.77924   -9.19401    8.50000 90000.00000
 1466.40000    8.57285  242.69343  226.88669  231.78347    1.43046   28.94841    0.53178    1.62804  128.67591   -9.18128    8.50000 90000.00000
 1466.50000    8.57459  244.17201  229.63819  234.34232    1.43171   28.60766    0.53209    1.61920  130.00819   -9.48279    8.50000 90000.00000
 1466.60000    8.57396  248.50263  235.41859  239.85743    1.42510   29.28598    0.52839    1.61184  130.25978   -9.34862    8.50000 90000.00000
 1466.70000    8.57270  258.51542  244.44460  249.32463    1.42984   30.58489    0.52446    1.61613  130.36494   -9.10272    8.50000 90000.00000
 1466.80000    8.56760  250.11302  236.22904  241.27318    1.43472   30.57032    0.52470    1.61367  129.90554   -9.13481    8.50000 90000.00000
 1466.90000    8.56815  241.85577  229.29743  234.43310    1.42907   30.37800    0.52035    1.60020  131.98529   -9.11159    8.50000 90000.00000
 1467.00000    8.56632  267.60135  253.33027  257.16773    1.41825   29.10053    0.52227    1.59110  131.62123   -8.90901    8.50000 90000.00000
 1467.10000    8.56990  277.90695  262.06285  267.17519    1.41044   28.72252    0.52326    1.60375  131.27927   -9.06603    8.50000 90000.00000
 1467.20000    8.56559  278.78369  264.07210  268.74332    1.40482   27.55703    0.52263    1.58424  131.91535   -9.14191    8.50000 90000.00000
 1467.30000    8.56657  269.26830  255.66354  259.47406    1.40704   28.37465    0.52357    1.57285  132.51946   -9.15156    8.50000 90000.00000
 1467.40000    8.56697  228.93062  220.59132  224.85920    1.41209   28.10871    0.52447    1.56623  132.79318   -9.09680    8.50000 90000.00000
 1467.50000    8.56436  221.59659  209.76955  215.58119    1.41843   28.70437    0.52590    1.57267  132.22640   -9.46628    8.50000 90000.00000
 1467.60000    8.56823  213.11820  199.95917  205.95024    1.41340   29.25843    0.52688    1.57998  132.87005   -9.66522    8.50000 90000.00000
 1467.70000    8.56706  185.14653  183.08302  183.05844    1.41138   28.66667    0.52819    1.58939  132.89551   -9.69317    8.50000 90000.00000
 1467.80000    8.56905  172.54644  168.60895  169.58022    1.41440   28.28872    0.52745    1.60027  131.72816  -10.38512    8.50000 90000.00000
 1467.90000    8.56660  172.20046  168.75606  169.87165    1.41392   28.73257    0.52769    1.57690  131.27906   -9.70533    8.50000 90000.00000
 1468.00000    8.56751  168.96526  163.24423  164.15504    1.41930   28.67095    0.52986    1.56437  130.54845   -9.75314    8.50000 90000.00000
 1468.10000    8.56810  163.25815  158.71620  159.48818    1.41918   28.41644    0.52952    1.56874  129.00083   -9.64228    8.50000 90000.00000
 1468.20000    8.56713  179.13519  170.32306  170.15270    1.41592   28.62149    0.52616    1.57285  127.72842   -9.37562    8.50000 90000.00000
 1468.30000    8.56446  187.97888  178.62869  178.78906    1.42645   29.02469    0.52851    1.57034  126.89432   -9.06069    8.50000 90000.00000
 1468.40000    8.56525  198.17967  189.27223  189.61944    1.41572   29.79285    0.52759    1.57728  126.03873   -8.90020    8.50000 90000.00000
 1468.50000    8.56655  198.18190  189.53499  189.27749    1.41675   30.04559    0.53124    1.57504  125.74136   -9.09251    8.50000 90000.00000
 1468.60000    8.56342  199.66817  189.00576  189.06971    1.41371   30.34982    0.53376    1.57432  123.97506   -8.84847    8.50000 90000.00000
 1468.70000    8.56566  203.89001  195.41567  195.37049    1.41021   29.34840    0.53789    1.58161  123.24500   -8.89472    8.50000 90000.00000
 1468.80000    8.56693  194.98752  187.05986  186.80261    1.41295   28.93380    0.54462    1.58706  122.74613   -8.59572    8.50000 90000.00000
 1468.90000    8.56995  223.56535  213.28813  212.85382    1.41505   28.13537    0.54485    1.59600  124.08446   -8.23968    8.50000 90000.00000
 1469.00000    8.57081  221.94512  210.97756  210.55659    1.41473   27.89474    0.54755    1.60016  123.52039   -7.98355    8.50000 90000.00000
 1469.10000    8.57280  197.05376  187.21050  188.39874    1.41164   28.52272    0.54578    1.61022  123.14943   -8.41073    8.50000 90000.00000
 1469.20000    8.57094  186.67275  180.41496  179.57800    1.42459   29.10038    0.54606    1.59154  121.82434   -8.30962    8.50000 90000.00000
 1469.30000    8.57340  190.71224  186.56621  184.87274    1.42779   30.52470    0.54128    1.59626  121.29569   -7.73840    8.50000 90000.00000
 1469.40000    8.57599  192.27775  187.24786  185.47727    1.41365   29.86310    0.53897    1.59297  122.39799   -7.85206    8.50000 90000.00000
 1469.50000    8.57610  212.71883  203.64126  204.17194    1.40657   30.15852    0.53817    1.58620  120.96956   -7.48455    8.50000 90000.00000
 1469.60000    8.57417  284.51224  273.31276  272.24499    1.39628   29.32121    0.53215    1.58544  122.18751   -7.34599    8.50000 90000.00000
 1469.70000    8.57015  297.02048  287.09294  284.48029    1.39769   29.05836    0.53270    1.59470  121.66975   -7.42554    8.50000 90000.00000
 1469.80000    8.57041  295.87711  284.27918  282.43254    1.39483   29.55515    0.54513    1.57520  120.29329   -7.43923    8.50000 90000.00000
 1469.90000    8.57192  296.41786  284.62216  282.93486    1.39438   29.91766    0.54247    1.57230  120.18205   -6.86543    8.50000 90000.00000
 1470.00000    8.57774  304.85271  292.67838  291.21059    1.39254   29.18077    0.54144    1.58454  120.92214   -7.06428    8.50000 90000.00000
