~Version ---------------------------------------------------
VERS.   2.0 : CWLS log ASCII Standard -VERSION 2.0
WRAP.    NO : One line per depth step
DLM . SPACE : Column Data Section Delimiter
~Well ------------------------------------------------------
STRT.m          1000.00000 : START DEPTH
STOP.m          2000.00000 : STOP DEPTH
STEP.m             0.10000 : STEP
NULL.             -9999.25 : NULL VALUE
COMP. FORCE 2020 Recreator : 
WELL.   WELL_FORCE_2020_02 : 
FLD .                      : FIELD
LOC .                      : LOCATION
PROV.                      : PROVINCE
CNTY.                      : COUNTY
STAT.                      : STATE
CTRY.                      : COUNTRY
SRVC.                      : SERVICE COMPANY
DATE.                      : DATE
UWI .                      : UNIQUE WELL ID
API .                      : API NUMBER
~Curve Information -----------------------------------------
DEPT                            .m      : 
CALI                            .in     : 
RSHA                            .ohm.m  : 
RMED                            .ohm.m  : 
RDEP                            .ohm.m  : 
RHOB                            .g/cm3  : 
GR                              .gAPI   : 
NPHI                            .v/v    : 
PEF                             .b/e    : 
DTC                             .us/ft  : 
SP                              .mV     : 
BS                              .in     : 
FORCE_2020_LITHOFACIES_LITHOLOGY.code   : 
~Params ----------------------------------------------------
~Other -----------------------------------------------------
~ASCII -----------------------------------------------------
# ...
 1263.20000    8.58675    4.01273    3.96599    3.98340    2.50486   76.51267    0.31773    3.18911   93.99397   -0.80266    8.50000 80000.00000
 1263.30000    8.58525    4.07367    4.04800    4.07237    2.49796   76.78965    0.31571    3.18254   93.34388   -1.03809    8.50000 80000.00000
 1263.40000    8.58570    3.99774    4.00310    4.01917    2.49815   77.26519    0.31859    3.17675   93.25354   -1.18631    8.50000 80000.00000
 1263.50000    8.58625    4.14885    4.15906    4.15157    2.49685   76.63462    0.32079    3.18081   93.12326   -1.10715    8.50000 80000.00000
 1263.60000    8.58638    4.15378    4.14837    4.13704    2.50773   77.31871    0.32191    3.19228   93.58870   -0.76199    8.50000 80000.00000
 1263.70000    8.58492    4.19374    4.19206    4.18954    2.50442   77.71413    0.32269    3.19132   93.82650   -0.31847    8.50000 80000.00000
 1263.80000    8.58502    4.32752    4.35528    4.35148    2.50081   78.37090    0.32224    3.18310   93.73860   -0.56211    8.50000 80000.00000
 1263.90000    8.58147    4.66060    4.70398    4.64764    2.49705   79.45317    0.32326    3.17869   93.77394   -0.58694    8.50000 80000.00000
 1264.00000    8.57974    4.79523    4.94730    4.87872    2.49918   79.80619    0.32428    3.17912   93.22672   -0.27760    8.50000 80000.00000
 1264.10000    8.58400    4.74004    4.85375    4.77090    2.49598   79.89127    0.32230    3.18324   93.11459   -0.11042    8.50000 80000.00000
 1264.20000    8.58295    4.83796    4.95795    4.89127    2.49595   80.90762    0.32269    3.18255   92.69892   -0.24597    8.50000 80000.00000
 1264.30000    8.57839    4.87070    4.96088    4.90101    2.49773   79.84382    0.32107    3.17169   92.72710   -0.43381    8.50000 80000.00000
 1264.40000    8.57933    4.88004    4.99917    4.93363    2.50009   79.70044    0.32008    3.18265   93.48118   -0.49433    8.50000 80000.00000
 1264.50000    8.57922    4.89834    5.03365    4.95934    2.50006   80.19680    0.32083    3.17837   -9999.25   -0.64127    8.50000 80000.00000
 1264.60000    8.57919    5.01173    5.18063    5.11211    2.50965   79.98197    0.31948    3.17942   93.57821   -0.02475    8.50000 80000.00000
 1264.70000    8.57845    4.87741    5.08775    4.98702    2.50810   79.54853    0.31790    3.16979   93.18658   -0.00013    8.50000 80000.00000
 1264.80000    8.57568    5.01500    5.27031    5.15333    2.51214   79.55270    0.32030    3.16674   92.82647   -0.21280    8.50000 80000.00000
 1264.90000    8.57627   -9999.25    5.35078    5.23291    2.50734   78.97689    0.31966    3.16314   92.92132   -0.01027    8.50000 80000.00000
 1265.00000    8.57521    4.98826    5.30494    5.19540    2.51112   79.52068    0.32027    3.15164   93.66432    0.15820    8.50000 80000.00000
 1265.10000    8.57650    5.07368    5.42782    5.30237    2.51209   79.39637    0.31948    3.16975   93.99743    0.47534    8.50000 80000.00000
 1265.20000    8.57623    5.01754    5.36273    5.24252    2.50698   79.90925    0.31492    3.19105   94.61780    0.66015    8.50000 80000.00000
 1265.30000    8.57656    4.93620    5.27753    5.16577    2.50950   80.95047    0.31599    3.19419   95.30377    0.85924    8.50000 80000.00000
 1265.40000    8.57647    4.83385    5.14516    5.03425    2.50550   81.09871    0.31617    3.20593   95.63239    1.06058    8.50000 80000.00000
 1265.50000    8.57447    4.72757    5.00896    4.90842    2.50814   80.14606    0.31462    3.21529   95.30091    1.05167    8.50000 80000.00000
 1265.60000    8.57290    4.69108    4.98526    4.92641    2.50679   80.47703    0.31216    3.21410   95.18621    0.87340    8.50000 80000.00000
 1265.70000    8.56936    4.87962    5.18202    5.12932    2.50308   80.97302    0.31159    3.20867   94.79325    0.97143    8.50000 80000.00000
 1265.80000    8.56919    4.85474    5.20753    5.12872    2.50437   80.85151    0.31197    3.22412   94.12653    0.56972    8.50000 80000.00000
 1265.90000    8.56615    4.74136    5.03127    4.96558    2.50918   80.85468    0.30841    3.22127   94.57705    0.71899    8.50000 80000.00000
 1266.00000    8.56632    4.30630    4.60629    4.60086    2.51192   80.53574    0.30932    3.20979   94.89644    1.13558    8.50000 80000.00000
 1266.10000    8.56936    4.07964    4.29626    4.29382    2.50947   79.97484    0.30649    3.20478   95.37732    0.82639    8.50000 80000.00000
 1266.20000    8.56468    4.26296    4.43739    4.45485    2.51032   80.40881    0.30661    3.21379   95.58817    0.79849    8.50000 80000.00000
 1266.30000    8.56303    4.35340    4.58608    4.56626    2.50606   79.65723    0.30733    3.22964   95.69858    0.75528    8.50000 80000.00000
 1266.40000    8.56515    4.35591    4.59639    4.57853    2.50315   80.36851    0.30600    3.24647   96.22234    1.03217    8.50000 80000.00000
 1266.50000    8.56514    4.33991    4.58829    4.56879    2.49984   80.38536    0.30742    3.26106   96.01512    0.89045    8.50000 80000.00000
 1266.60000    8.56619    4.29318    4.60832    4.60469    2.50064   80.06675    0.30583    3.27015   96.11678    0.85426    8.50000 80000.00000
 1266.70000    8.56443    4.70182    4.90882    4.89030    2.49598   80.70370    0.30518    3.26689   95.93684    1.01938    8.50000 80000.00000
 1266.80000    8.56427    4.65946    4.86253    4.86152    2.49637   81.07498    0.30900    3.26449   95.93756    1.13197    8.50000 80000.00000
 1266.90000    8.56560    4.62964    4.79809    4.82221    2.50005   81.08671    0.31040    3.27189   95.94410    1.20381    8.50000 80000.00000
 1267.00000    8.56485    4.72815    4.78827    4.82836    2.50528   80.35519    0.31171    3.27797   95.59582    0.84591    8.50000 80000.00000
 1267.10000    8.56619    4.83724    4.91857    4.93172    2.50227   80.44829    0.30897    3.28739   95.24570    0.92245    8.50000 80000.00000
 1267.20000    8.56671    4.81230    4.89341    4.91631    2.50291   79.98345    0.30917    3.27517   95.43979    0.84586    8.50000 80000.00000
 1267.30000    8.56789    4.98031    5.08693    5.09383    2.50545   79.67203    0.31129    3.27353   95.16213    0.89730    8.50000 80000.00000
 1267.40000    8.56884    4.96019    5.11418    5.10867    2.50686   79.32464    0.31187    3.27412   95.13103    1.11810    8.50000 80000.00000
 1267.50000    8.56971    5.00263    5.15630    5.14496    2.51531   79.05239    0.31041    3.25983   94.85204    0.93410    8.50000 80000.00000
 1267.60000    8.56960    5.05998    5.19490    5.19364    2.51695   80.49528    0.30960    3.25717   95.40411    1.38033    8.50000 80000.00000
 1267.70000    8.57278    4.97907    5.08542    5.06276    2.51810   80.50202    0.31103    3.25836   95.28902    1.30327    8.50000 80000.00000
 1267.80000    8.57608    4.86697    4.97759    4.95041    2.52355   80.17987    0.30705    3.24057   95.34010    1.16403    8.50000 80000.00000
 1267.90000    8.57860    4.90506    4.97866    4.95917    2.52622   80.22832    0.30368    3.22989   95.83504    1.34321    8.50000 80000.00000
 1268.00000    8.57966    4.98357    5.06713    5.03996    2.52841   79.64383    0.30800    3.23636   95.66539    1.15552    8.50000 80000.00000
 1268.10000    8.58361    5.18522    5.27273    5.22954    2.52809   79.49250    0.30574    3.23615   95.76256    0.80416    8.50000 80000.00000
 1268.20000    8.58323    5.13818    5.22047    5.20119    2.52828   79.58561    0.30922    3.23913   95.47763    1.24548    8.50000 80000.00000
 1268.30000    8.58267    4.75684    4.89393    4.85251    2.52609   80.83129    0.30798    3.21869   95.44882    0.94251    8.50000 80000.00000
 1268.40000    8.58458    4.65824    4.72738    4.71115    2.52896   81.70463    0.30603    3.19851   95.11028    0.83246    8.50000 80000.00000
 1268.50000    8.58764    4.61932    4.70940    4.71100    2.53030   80.15509    0.30583    3.18279   94.73374    0.95950    8.50000 80000.00000
 1268.60000    8.58566    4.65160    4.69648    4.71772    2.52747   80.14957    0.30476    3.16527   94.78008    1.06044    8.50000 80000.00000
 1268.70000    8.58468    4.63070    4.57861    4.60968    2.52784   80.52592    0.30705    3.16307   94.75710    1.16487    8.50000 80000.00000
