~Version ---------------------------------------------------
VERS.   2.0 : CWLS log ASCII Standard -VERSION 2.0
WRAP.    NO : One line per depth step
DLM . SPACE : Column Data Section Delimiter
~Well ------------------------------------------------------
STRT.m          1000.00000 : START DEPTH
STOP.m          2000.00000 : STOP DEPTH
STEP.m             0.10000 : STEP
NULL.             -9999.25 : NULL VALUE
COMP. FORCE 2020 Recreator : 
WELL.   WELL_FORCE_2020_06 : 
FLD .                      : FIELD
LOC .                      : LOCATION
PROV.                      : PROVINCE
CNTY.                      : COUNTY
STAT.                      : STATE
CTRY.                      : COUNTRY
SRVC.                      : SERVICE COMPANY
DATE.                      : DATE
UWI .                      : UNIQUE WELL ID
API .                      : API NUMBER
~Curve Information -----------------------------------------
DEPT                            .m      : 
CALI                            .in     : 
RSHA                            .ohm.m  : 
RMED                            .ohm.m  : 
RDEP                            .ohm.m  : 
RHOB                            .g/cm3  : 
GR                              .gAPI   : 
NPHI                            .v/v    : 
PEF                             .b/e    : 
DTC                             .us/ft  : 
SP                              .mV     : 
BS                              .in     : 
FORCE_2020_LITHOFACIES_LITHOLOGY.code   : 
~Params ----------------------------------------------------
~Other -----------------------------------------------------
~ASCII -----------------------------------------------------
# ...
 1795.10000    9.89207    3.09696    2.95615    2.92139    2.47607  114.74883    0.35663    3.44185  109.65079    5.94539    8.50000 65000.00000
 1795.20000    9.89499    3.01898    2.88857    2.86856    2.47373  115.36542    0.36190    3.44120  110.02616    5.65551    8.50000 65000.00000
 1795.30000    9.90820    3.17069    3.03397    3.02483    2.48150  115.61210    0.35638    3.42249  109.84283    5.72935    8.50000 65000.00000
 1795.40000    9.92030    3.11467    2.99733    2.99064    2.48732  115.73903    0.35886    3.39464  109.85369    5.76345    8.50000 65000.00000
 1795.50000    9.92364    3.08533    2.94380    2.93596    2.49058  116.29576    0.36041    3.41394  109.86332    5.68291    8.50000 65000.00000
 1795.60000    9.91012    3.06476    2.94340    2.93895    2.48964  116.49806    0.36233    3.39833  109.97451    5.77755    8.50000 65000.00000
 1795.70000    9.87702    3.05176    2.94649    2.94008    2.48755  116.29045    0.36417    3.38283  110.23605    5.55449    8.50000 65000.00000
 1795.80000    9.87404    3.02973    2.91690    2.91555    2.48704  115.61929    0.36358    3.36782  110.31250    5.26735    8.50000 65000.00000
 1795.90000    9.89692    2.86011    2.81266    2.78159    2.49259  113.85032    0.36093    3.35061  110.58643    5.42737    8.50000 65000.00000
 1796.00000    9.92832    2.85341    2.80525    2.77811    2.49488  114.17990    0.35777    3.37185  110.04730    5.30627    8.50000 65000.00000
 1796.10000    9.91308    2.89645    2.84634    2.81807    2.49791  112.44112    0.35512    3.36499  110.99424    5.32873    8.50000 65000.00000
 1796.20000    9.91684    2.86506    2.83454    2.81242    2.50124  113.27064    0.35211    3.37074  110.38547    4.81289    8.50000 65000.00000
 1796.30000    9.89160    2.82255    2.82469    2.79587    2.50119  112.10771    0.34931    3.35755  110.45513    4.70882    8.50000 65000.00000
 1796.40000    9.88964    2.80833    2.78243    2.76815    2.49520  111.98522    0.35428    3.36245  109.68752    4.43306    8.50000 65000.00000
 1796.50000    9.85455    2.81963    2.76646    2.76538    2.49748  111.05559    0.35495    3.35687  109.50001    3.98173    8.50000 65000.00000
 1796.60000    9.88213    2.81193    2.75978    2.76425    2.49668  110.03712    0.35547    3.35779  109.08097    3.85257    8.50000 65000.00000
 1796.70000    9.89372    2.80101    2.76025    2.76349    2.50052  108.43655    0.35971    3.36486  108.91612    3.80858    8.50000 65000.00000
 1796.80000    9.92474    2.77733    2.72294    2.72746    2.50017  108.91626    0.36067    3.36698  108.90650    3.97403    8.50000 65000.00000
 1796.90000    9.92258    2.57632    2.55128    2.55919    2.50399  107.59631    0.36246    3.37879  108.73650    4.15194    8.50000 65000.00000
 1797.00000    9.91073    2.61419    2.56864    2.58035    2.50399  109.61165    0.36553    3.39611  108.82410    3.69414    8.50000 65000.00000
 1797.10000    9.96199    2.61024    2.57856    2.58365    2.50040  111.46624    0.36202    3.39597  108.46191    3.88306    8.50000 65000.00000
 1797.20000    9.95004    2.67455    2.66976    2.67605    2.49719  113.36788    0.36219    3.38732  107.93093    3.86093    8.50000 65000.00000
 1797.30000    9.93388    2.69735    2.73369    2.72120    2.49804  112.40673    0.35922    3.38276  107.57064    4.00374    8.50000 65000.00000
 1797.40000    9.91836    2.59106    2.64521    2.63443    2.49783  110.47676    0.35799    3.39646  107.71973    3.98406    8.50000 65000.00000
 1797.50000    9.91892    2.58568    2.65067    2.64065    2.49574  109.83624    0.35496    3.42556  107.10838    3.63323    8.50000 65000.00000
 1797.60000    9.92337    2.64065    2.69694    2.69658    2.49431  108.74799    0.35581    3.40988  107.13550    3.74277    8.50000 65000.00000
 1797.70000    9.94776    2.65424    2.71291    2.69755    2.49791  110.10071    0.35941    3.43968  107.44059    3.70581    8.50000 65000.00000
 1797.80000    9.95061    2.71031    2.77786    2.75306    2.50032  109.69706    0.36096    3.44824  108.15008    3.72783    8.50000 65000.00000
 1797.90000    9.92721    2.70617    2.76493    2.73734    2.49938  110.10947    0.36208    3.45315  108.05732    3.69380    8.50000 65000.00000
 1798.00000    9.89259    2.67865    2.72042    2.70684    2.50224  111.39137    0.36310    3.45042  108.15209    3.77992    8.50000 65000.00000
 1798.10000    9.87121    2.61646    2.66507    2.64278    2.50331  110.27973    0.36806    3.43879  107.69624    3.87309    8.50000 65000.00000
 1798.20000    9.87456    2.60398    2.65799    2.63102    2.50055  110.41780    0.37125    3.43465  107.87612    3.83738    8.50000 65000.00000
 1798.30000    9.85868    2.58248    2.61668    2.60092    2.49948  110.41617    0.37350    3.44405  107.70977    4.00738    8.50000 65000.00000
 1798.40000    9.87680    2.49072    2.53718    2.53159    2.49466  110.64297    0.37561    3.44739  108.21243    4.15870    8.50000 65000.00000
 1798.50000    9.88052    2.47762    2.54141    2.52416    2.49848  109.73337    0.37315    3.43094  107.67943    4.62534    8.50000 65000.00000
 1798.60000    9.90762    2.49774    2.58227    2.56415    2.50125  108.80990    0.37243    3.43607  108.06937    4.79327    8.50000 65000.00000
 1798.70000    9.88854    2.55788    2.63995    2.60571    2.50418  110.36189    0.37432    3.42098  107.95885    4.92937    8.50000 65000.00000
 1798.80000    9.87595    2.53221    2.62373    2.58869    2.49839  111.26750    0.37137    3.39397  107.43764    5.20769    8.50000 65000.00000
 1798.90000    9.84946    2.56382    2.64290    2.60748    2.50100  111.30300    0.36680    3.38470  107.75638    4.89225    8.50000 65000.00000
 1799.00000    9.87943    2.63595    2.69287    2.65873    2.49918  109.59484    0.36499    3.38262  108.48120    4.94801    8.50000 65000.00000
 1799.10000    9.90044    2.57164    2.64086    2.59800    2.50462  109.03507    0.36142    3.37165  108.76259    5.32035    8.50000 65000.00000
 1799.20000    9.86102    2.61875    2.68327    2.63909    2.50824  108.17712    0.36478    3.36495  108.92733    5.12925    8.50000 65000.00000
 1799.30000    9.86000    2.59197    2.61457    2.57708    2.50261  106.99974    0.36030    3.37328  109.20165    4.98500    8.50000 65000.00000
 1799.40000    9.89350    2.47447    2.46996    2.43884    2.50406  107.66911    0.35996    3.38206  108.97524    5.28667    8.50000 65000.00000
 1799.50000    9.88967    2.38910    2.39853    2.35368    2.50267  108.35794    0.35972    3.37944  108.97313    4.93534    8.50000 65000.00000
 1799.60000    9.88559    2.41976    2.43632    2.39942    2.50539  108.40981    0.35815    3.36441  109.73020    5.14276    8.50000 65000.00000
 1799.70000    9.87849    2.44848    2.46865    2.43297    2.50466  108.76450    0.35823    3.36663  109.76649    5.34803    8.50000 65000.00000
 1799.80000    9.86241    2.53852    2.53618    2.50205    2.50216  107.09349    0.35649    3.35552  109.32840    5.27292    8.50000 65000.00000
 1799.90000    9.85868    2.52539    2.50893    2.47949    2.49916  106.97292    0.35435    3.35647  108.55139    5.50439    8.50000 65000.00000
 1800.00000    9.89395    2.54768    2.54312    2.51101    2.49658  107.83030    0.35271    3.36060  108.06443    5.37717    8.50000 65000.00000
 1800.10000    9.93348    2.49549    2.51665    2.48354    2.49142  108.37733    0.35285    3.37047  108.45888    5.28243    8.50000 65000.00000
 1800.20000    9.93453    2.53775    2.54494    2.51214    2.49115  109.87222    0.35032    3.39019  109.41091    5.17144    8.50000 65000.00000
 1800.30000    9.88836    2.49056    2.49793    2.47073    2.49413  110.26190    0.35368    3.40929  108.61485    5.44763    8.50000 65000.00000
 1800.40000    9.89584    2.47365    2.46931    2.44419    2.49684  110.17927    0.35029    3.40420  108.10961    5.46692    8.50000 65000.00000
 1800.50000    9.91515    2.45409    2.45746    2.42968    2.49627  109.92214    0.34939    3.41556  108.13362    5.51420    8.50000 65000.00000
 1800.60000    9.89878    2.42873    2.44038    2.41747    2.49873  111.10167    0.34777    3.42996  107.93658    5.33162    8.50000 65000.00000
