~Version ---------------------------------------------------
VERS.   2.0 : CWLS log ASCII Standard -VERSION 2.0
WRAP.    NO : One line per depth step
DLM . SPACE : Column Data Section Delimiter
~Well ------------------------------------------------------
STRT.m          1000.00000 : START DEPTH
STOP.m          2000.00000 : STOP DEPTH
STEP.m             0.10000 : STEP
NULL.             -9999.25 : NULL VALUE
COMP. FORCE 2020 Recreator : 
WELL.   WELL_FORCE_2020_07 : 
FLD .                      : FIELD
LOC .                      : LOCATION
PROV.                      : PROVINCE
CNTY.                      : COUNTY
STAT.                      : STATE
CTRY.                      : COUNTRY
SRVC.                      : SERVICE COMPANY
DATE.                      : DATE
UWI .                      : UNIQUE WELL ID
API .                      : API NUMBER
~Curve Information -----------------------------------------
DEPT                            .m      : 
CALI                            .in     : 
RSHA                            .ohm.m  : 
RMED                            .ohm.m  : 
RDEP                            .ohm.m  : 
RHOB                            .g/cm3  : 
GR                              .gAPI   : 
NPHI                            .v/v    : 
PEF                             .b/e    : 
DTC                             .us/ft  : 
SP                              .mV     : 
BS                              .in     : 
FORCE_2020_LITHOFACIES_LITHOLOGY.code   : 
~Params ----------------------------------------------------
~Other -----------------------------------------------------
~ASCII -----------------------------------------------------
# ...
 1599.20000    9.84612    2.66766    2.60334    2.62042    2.47119  122.41889    0.36169    3.43986  108.39893    4.83205    8.50000 65000.00000
 1599.30000    9.81950    2.68844    2.59739    2.64039    2.47234  121.71311    0.36646    3.43239  107.90659    4.87223    8.50000 65000.00000
 1599.40000    9.81790    2.61946    2.54738    2.58868    2.47461  121.13143    0.36758    3.41737  108.48345    4.77488    8.50000 65000.00000
 1599.50000    9.81230    2.68026    2.61049    2.64043    2.47607  119.83209    0.36477    3.40209  108.41635    4.94852    8.50000 65000.00000
 1599.60000    9.79901    2.73156    2.67008    2.70567    2.47515  119.88364    0.36310    3.39300  108.01774    4.93532    8.50000 65000.00000
 1599.70000    9.79765    2.63024    2.59077    2.62648    2.46974  119.94476    0.36131    3.39031  106.89139    5.38995    8.50000 65000.00000
 1599.80000    9.81363    2.61116    2.57164    2.60700    2.46895  118.96652    0.35874    3.38402  106.44757    5.52091    8.50000 65000.00000
 1599.90000    9.81013    2.61331    2.55505    2.58794    2.46646  119.49118    0.35689    3.41305  106.34995    5.46592    8.50000 65000.00000
 1600.00000    9.80224    2.67713    2.64190    2.67058    2.46833  119.33825    0.35367    3.42803  106.50131    5.39536    8.50000 65000.00000
 1600.10000    9.76187    2.58661    2.52404    2.55393    2.46922  119.91089    0.35667    3.42860  106.25044    5.48679    8.50000 65000.00000
 1600.20000    9.77443    2.51268    2.47506    2.50829    2.47177  120.94732    0.35723    3.42391  105.19628    5.43341    8.50000 65000.00000
 1600.30000    9.77386    2.53703    2.48890    2.52526    2.47689  120.01616    0.35796    3.42636  104.58134    5.10572    8.50000 65000.00000
 1600.40000    9.76789    2.45391    2.43090    2.45077    2.47140  119.19713    0.35200    3.42257  104.29388    5.33709    8.50000 65000.00000
 1600.50000    9.79883    2.32669    2.31243    2.33536    2.47610  117.93237    0.35128    3.41224  103.74503    5.40468    8.50000 65000.00000
 1600.60000    9.77620    2.31854    2.30531    2.31697    2.47520  116.75357    0.35148    3.41830  103.31558    5.25644    8.50000 65000.00000
 1600.70000    9.73896    2.34996    2.32824    2.33402    2.47276  114.85652    0.35013    3.43110  103.32728    5.09931    8.50000 65000.00000
 1600.80000    9.72868    2.29738    2.33789    2.33613    2.46971  114.42723    0.35234    3.41796  103.59330    5.26324    8.50000 65000.00000
 1600.90000    9.73720    2.28055    2.35374    2.36017    2.47251  114.31564    0.35234    3.42313  103.64673    5.18562    8.50000 65000.00000
 1601.00000    9.72563    2.35014    2.43057    2.43781    2.47104  115.05472    0.35188    3.41797  103.72757    4.70349    8.50000 65000.00000
 1601.10000    9.74095    2.28796    2.34874    2.35243    2.46736  112.65401    0.35150    3.42846  105.15502    4.26684    8.50000 65000.00000
 1601.20000    9.75279    2.33056    2.38803    2.40370    2.46798  113.94639    0.35333    3.42979  105.90899    4.24046    8.50000 65000.00000
 1601.30000    9.72242    2.35491    2.37967    2.40845    2.47166  114.13711    0.35519    3.42387  107.15055    4.21823    8.50000 65000.00000
 1601.40000    9.70305    2.24815    2.29080    2.30124    2.47360  113.93438    0.35142    3.44553  108.46115    4.20745    8.50000 65000.00000
 1601.50000    9.71619    2.29306    2.32660    2.33813    2.47498  115.82945    0.35139    3.44856  107.41594    4.36839    8.50000 65000.00000
 1601.60000    9.72499    2.20783    2.23709    2.25598    2.47474  115.79705    0.34963    3.47708  107.20222    4.24561    8.50000 65000.00000
 1601.70000    9.73864    2.24025    2.27290    2.27817    2.47816  115.20575    0.35291    3.48972  106.73724    4.19862    8.50000 65000.00000
 1601.80000    9.74490    2.21553    2.26190    2.26465    2.48425  113.79556    0.35349    3.48017  107.34390    3.92963    8.50000 65000.00000
 1601.90000    9.73353    2.24510    2.27109    2.27997    2.48424  114.40915    0.35267    3.46612  107.28151    3.76449    8.50000 65000.00000
 1602.00000    9.73748    2.25947    2.29804    2.30447    2.48084  114.46602    0.35196    3.44700  107.98936    3.87284    8.50000 65000.00000
 1602.10000    9.71715    2.27596    2.29450    2.30462    2.47791  115.17004    0.34973    3.43999  108.51732    4.00713    8.50000 65000.00000
 1602.20000   -9999.25    2.27923    2.29250    2.30318    2.47489  115.49080    0.34738    3.43513  108.63324    3.87600    8.50000 65000.00000
 1602.30000    9.74698    2.35463    2.36254    2.36853    2.46863  113.13109    0.35202    3.42549  109.10248    3.82143    8.50000 65000.00000
 1602.40000    9.74081    2.37527    2.38954    2.39737    2.46735  112.63572    0.35039    3.42443  109.34829    4.11162    8.50000 65000.00000
 1602.50000    9.79352    2.46076    2.42863    2.44195    2.46630  113.13474    0.35227    3.43746  110.17400    4.03903    8.50000 65000.00000
 1602.60000    9.79129    2.49819    2.47243    2.49366    2.46969  113.29740    0.35379    3.44558  110.28293    4.29082    8.50000 65000.00000
 1602.70000    9.76721    2.67917    2.67973    2.69624    2.46860  111.92047    0.35472    3.43409  110.42869    4.52681    8.50000 65000.00000
 1602.80000    9.77696    2.62813    2.64116    2.66229    2.46882  113.09327    0.36222    3.42634  110.87785    4.70595    8.50000 65000.00000
 1602.90000    9.80449    2.56672    2.56000    2.57955    2.46959  113.73708    0.36060    3.45058  110.37832    4.78675    8.50000 65000.00000
 1603.00000    9.78933    2.63333    2.61900    2.62500    2.47210  112.92388    0.36201    3.45689  110.46955    4.79618    8.50000 65000.00000
 1603.10000    9.81202    2.62470    2.60982    2.60834    2.47414  111.05144    0.36537    3.45670  110.94160    5.44285    8.50000 65000.00000
 1603.20000    9.81101    2.69889    2.68932    2.68256    2.47709  112.46545    0.36547    3.45758  110.06001    5.63716    8.50000 65000.00000
 1603.30000    9.85259    2.64191    2.62112    2.61209    2.47820  111.81278    0.36398    3.47536  109.83592    5.49675    8.50000 65000.00000
 1603.40000    9.88006    2.68646    2.70026    2.67822    2.47971  112.72467    0.36256    3.47117  108.83797    5.32518    8.50000 65000.00000
 1603.50000    9.92792    2.79206    2.82694    2.80591    2.47947  111.58622    0.36276    3.44337  107.70094    5.36361    8.50000 65000.00000
 1603.60000    9.91302    2.72197    2.74879    2.73345    2.47964  110.41810    0.36561    3.43743  107.46742    5.48823    8.50000 65000.00000
 1603.70000    9.91470    2.88250    2.92633    2.91210    2.47770  109.57764    0.36971    3.43369  106.88370    5.42067    8.50000 65000.00000
 1603.80000    9.92915    2.78925    2.82956    2.81946    2.47318  110.64398    0.36471    3.41839  107.14867    5.43628    8.50000 65000.00000
 1603.90000    9.91427    2.88817    2.96172    2.95204    2.47339  111.30630    0.36654    3.42481  106.87294    5.40036    8.50000 65000.00000
 1604.00000    9.92858    2.92079    3.00632    2.98939    2.47977  109.91533    0.36672    3.43226  107.57454    5.74659    8.50000 65000.00000
 1604.10000    9.92960    3.02404    3.10825    3.09365    2.48068  110.20145    0.36934    3.44227  107.30648    5.69686    8.50000 65000.00000
 1604.20000    9.97293    2.96722    3.04791    3.03403    2.48301  110.87396    0.37307    3.41607  106.71500    5.54973    8.50000 65000.00000
 1604.30000    9.94983    2.93798    3.03731    3.02880    2.48936  111.94926    0.37446    3.42411  107.46505    5.72780    8.50000 65000.00000
 1604.40000    9.92407    2.96862    3.06774    3.05500    2.49370  114.52315    0.36752    3.40723  108.18165    5.98827    8.50000 65000.00000
 1604.50000    9.93293    2.93858    3.03202    3.01268    2.49432  115.93808    0.36726    3.39060  108.28232    5.71956    8.50000 65000.00000
 1604.60000    9.93472    2.95336    3.06745    3.04421    2.49845  114.80505    0.37048    3.38149  108.18795    5.82267    8.50000 65000.00000
 1604.70000    9.93124    2.93514    3.03158    3.00616    2.49311  114.71073    0.37080    3.38906  108.42620    5.95467    8.50000 65000.00000
