~Version ---------------------------------------------------
VERS.   2.0 : CWLS log ASCII Standard -VERSION 2.0
WRAP.    NO : One line per depth step
DLM . SPACE : Column Data Section Delimiter
~Well ------------------------------------------------------
STRT.m          1000.00000 : START DEPTH
STOP.m          2000.00000 : STOP DEPTH
STEP.m             0.10000 : STEP
NULL.             -9999.25 : NULL VALUE
COMP. FORCE 2020 Recreator : 
WELL.   WELL_FORCE_2020_05 : 
FLD .                      : FIELD
LOC .                      : LOCATION
PROV.                      : PROVINCE
CNTY.                      : COUNTY
STAT.                      : STATE
CTRY.                      : COUNTRY
SRVC.                      : SERVICE COMPANY
DATE.                      : DATE
UWI .                      : UNIQUE WELL ID
API .                      : API NUMBER
~Curve Information -----------------------------------------
DEPT                            .m      : 
CALI                            .in     : 
RSHA                            .ohm.m  : 
RMED                            .ohm.m  : 
RDEP                            .ohm.m  : 
RHOB                            .g/cm3  : 
GR                              .gAPI   : 
NPHI                            .v/v    : 
PEF                             .b/e    : 
DTC                             .us/ft  : 
SP                              .mV     : 
BS                              .in     : 
FORCE_2020_LITHOFACIES_LITHOLOGY.code   : 
~Params ----------------------------------------------------
~Other -----------------------------------------------------
~ASCII -----------------------------------------------------
# ...
 1862.30000    8.58403   12.12620   11.86461   11.89521    2.26215   14.68513    0.28318   -9999.25   75.80006   -1.95135    8.50000 70032.00000
 1862.40000    8.57934   12.56523   12.04649   12.15016    2.26509   14.92569    0.28401   -9999.25   74.99486   -2.01238    8.50000 70032.00000
 1862.50000    8.58060   13.03778   12.41746   12.51761    2.26430   14.76037    0.28387   -9999.25   74.99506   -1.85737    8.50000 70032.00000
 1862.60000    8.58120   13.50536   12.91140   13.04188    2.26735   14.80346    0.28050   -9999.25   75.26559   -1.72374    8.50000 70032.00000
 1862.70000    8.57886   12.75838   12.40456   12.40440    2.27283   14.40603    0.28047   -9999.25   75.65148   -1.70920    8.50000 70032.00000
 1862.80000    8.57520   12.59841   12.28277   12.32974    2.27120   14.26707    0.28055   -9999.25   76.35021   -1.61551    8.50000 70032.00000
 1862.90000    8.57302   12.88246   12.90809   12.90086    2.27433   14.55953    0.27760   -9999.25   76.16792   -1.44042    8.50000 70032.00000
 1863.00000    8.57278   12.73835   12.72029   12.72555    2.27658   14.49501    0.27938   -9999.25   76.22438   -1.31799    8.50000 70032.00000
 1863.10000    8.57435   12.36060   12.24936   12.35200    2.27893   14.93475    0.27800   -9999.25   76.04375   -1.37546    8.50000 70032.00000
 1863.20000    8.57546   12.67615   12.54956   12.65553    2.28284   14.99645    0.28014   -9999.25   76.19808   -1.42177    8.50000 70032.00000
 1863.30000    8.57382   12.92873   12.95349   12.99852    2.27805   14.59098    0.28092   -9999.25   75.98314   -1.51627    8.50000 70032.00000
 1863.40000    8.57370   12.95934   13.02347   13.01597    2.27317   14.45362    0.28398   -9999.25   75.59999   -1.52672    8.50000 70032.00000
 1863.50000    8.57643   12.43659   12.69116   12.69284    2.27403   14.42430    0.28356   -9999.25   74.95693   -1.69961    8.50000 70032.00000
 1863.60000    8.57671   12.61870   12.95514   12.88186    2.27500   15.03870    0.28032   -9999.25   75.33283   -1.63986    8.50000 70032.00000
 1863.70000    8.57753   13.03801   13.17207   13.23251    2.27794   14.99730    0.28130   -9999.25   75.21581   -1.70842    8.50000 70032.00000
 1863.80000    8.57719   13.26216   13.47030   13.46573    2.27961   15.48061    0.28013   -9999.25   75.16031   -1.79706    8.50000 70032.00000
 1863.90000    8.57779   13.55685   13.84246   13.83683    2.28357   15.92892    0.28083   -9999.25   75.61448   -1.71742    8.50000 70032.00000
 1864.00000    8.57777   13.79929   14.19266   14.16445    2.28769   16.26949    0.28224   -9999.25   75.39637   -1.99466    8.50000 70032.00000
 1864.10000    8.57578   13.81626   14.17299   14.15994    2.28032   16.79065    0.28281   -9999.25   75.63372   -1.77962    8.50000 70032.00000
 1864.20000    8.57273   13.87451   14.18475   14.15431    2.27656   16.66775    0.27917   -9999.25   75.52032   -1.59171    8.50000 70032.00000
 1864.30000    8.57204   14.10955   14.31338   14.38370    2.27949   16.26603    0.27816   -9999.25   75.71747   -1.89365    8.50000 70032.00000
 1864.40000    8.57410   13.74001   13.98954   13.99661    2.27809   16.03446    0.28129   -9999.25   75.61941   -1.80206    8.50000 70032.00000
 1864.50000    8.57746   13.18699   13.69755   13.65368    2.27964   15.94443    0.28133   -9999.25   76.00379   -1.61447    8.50000 70032.00000
 1864.60000    8.57641   13.00783   13.60029   13.52085    2.28190   16.29386    0.28709   -9999.25   76.12639   -1.57696    8.50000 70032.00000
 1864.70000    8.57737   12.64703   13.36102   13.21535    2.28490   16.08714    0.28730   -9999.25   75.95304   -1.59479    8.50000 70032.00000
 1864.80000    8.58287   12.68268   13.45625   13.31421    2.28207   16.12113    0.28895   -9999.25   75.64248   -1.60622    8.50000 70032.00000
 1864.90000    8.58693   13.00051   13.77921   13.54231    2.28153   15.84044    0.28861   -9999.25   75.05539   -1.66121    8.50000 70032.00000
 1865.00000    8.59053   12.60039   13.23166   13.04320    2.28315   15.88626    0.28730   -9999.25   75.39302   -1.43283    8.50000 70032.00000
 1865.10000    8.59071   12.56029   13.12125   12.95138    2.27827   16.00741    0.28660   -9999.25   75.29064   -1.85730    8.50000 70032.00000
 1865.20000    8.58889   12.97673   13.54875   13.32428    2.27731   15.44253    0.28340   -9999.25   75.15879   -1.84196    8.50000 70032.00000
 1865.30000    8.58936   12.82249   13.45277   13.23575    2.27991   15.08648    0.28097   -9999.25   75.40922   -1.74387    8.50000 70032.00000
 1865.40000    8.58935   12.52804   13.01720   12.84921    2.28320   15.08531    0.27773   -9999.25   76.15710   -1.99706    8.50000 70032.00000
 1865.50000    8.59091   12.61318   13.06782   12.92365    2.28800   15.26438    0.27531   -9999.25   76.12509   -1.74086    8.50000 70032.00000
 1865.60000    8.58600   12.57637   12.91914   12.77221    2.28998   15.43494    0.27344   -9999.25   76.33153   -1.64726    8.50000 70032.00000
 1865.70000    8.58847   12.09276   12.41311   12.31821    2.28149   15.23843    0.27496   -9999.25   75.63181   -1.53320    8.50000 70032.00000
 1865.80000    8.59150   11.44094   11.95582   11.78720    2.28039   15.29285    0.27344   -9999.25   75.22245   -1.68222    8.50000 70032.00000
 1865.90000    8.59080   11.06525   11.60878   11.47672    2.27575   14.93290    0.27230   -9999.25   75.99919   -1.50685    8.50000 70032.00000
 1866.00000    8.58999   10.99916   11.54163   11.35642    2.27433   14.87576    0.27058   -9999.25   75.68926   -1.41329    8.50000 70032.00000
 1866.10000    8.58959   10.67110   11.15045   10.93647    2.27498   14.43451    0.26955   -9999.25   75.60086   -1.33934    8.50000 70032.00000
 1866.20000    8.59201   10.85957   11.35585   11.12164    2.28134   14.01814    0.27100   -9999.25   75.19235   -1.56100    8.50000 70032.00000
 1866.30000    8.59300   10.93357   11.58970   11.39971    2.28190   14.19013    0.27279   -9999.25   75.37449   -1.96049    8.50000 70032.00000
 1866.40000    8.59525   11.03782   11.82229   11.56739    2.28736   14.43816    0.27334   -9999.25   75.52785   -1.84992    8.50000 70032.00000
 1866.50000    8.59641   11.44197   12.05809   11.79905    2.28956   14.28532    0.26913   -9999.25   74.80285   -1.92136    8.50000 70032.00000
 1866.60000    8.59435   11.77134   12.41852   12.17590    2.28310   14.22139    0.26652   -9999.25   75.23228   -1.63923    8.50000 70032.00000
 1866.70000    8.59362   12.05948   12.65864   12.39774    2.27715   14.15850    0.26470   -9999.25   74.48531   -2.00999    8.50000 70032.00000
 1866.80000    8.59393   11.93977   12.39730   12.18889    2.26737   14.35388    0.26519   -9999.25   74.23692   -2.07496    8.50000 70032.00000
 1866.90000    8.59028   11.98440   12.43039   12.18020    2.26977   14.54704    0.26404   -9999.25   73.83360   -1.89397    8.50000 70032.00000
 1867.00000    8.58777   11.60940   12.10633   11.94639    2.27432   14.93345    0.26324   -9999.25   74.11225   -1.55134    8.50000 70032.00000
 1867.10000    8.58637   11.57155   11.91646   11.83912    2.27367   14.97097    0.26696   -9999.25   74.08825   -1.60998    8.50000 70032.00000
 1867.20000    8.58794   11.82250   12.23947   12.12888    2.27914   15.07002    0.26603   -9999.25   73.57872   -1.20940    8.50000 70032.00000
 1867.30000    8.58756   11.35247   11.83463   11.76559    2.27453   15.41316    0.26975   -9999.25   73.83259   -0.82619    8.50000 70032.00000
 1867.40000    8.58527   11.66503   12.08001   11.99197    2.27185   15.73105    0.27211   -9999.25   73.72212   -0.89403    8.50000 70032.00000
 1867.50000    8.58508   12.68550   13.10046   12.88508    2.26935   16.42553    0.27214   -9999.25   73.27496   -0.83562    8.50000 70032.00000
 1867.60000    8.58384   12.55171   12.99871   12.76919    2.26709   16.34736    0.27058   -9999.25   73.70835   -1.20361    8.50000 70032.00000
 1867.70000    8.58738   12.63814   13.07766   12.86065    2.26650   16.11450    0.27430   -9999.25   73.66116   -1.11889    8.50000 70032.00000
 1867.80000    8.58602   12.87997   13.34339   13.11914    2.27152   16.30519    0.27222   -9999.25   73.82977   -1.26582    8.50000 70032.00000
