~Version ---------------------------------------------------
VERS.   2.0 : CWLS log ASCII Standard -VERSION 2.0
WRAP.    NO : One line per depth step
DLM . SPACE : Column Data Section Delimiter
~Well ------------------------------------------------------
STRT.m          1000.00000 : START DEPTH
STOP.m          2000.00000 : STOP DEPTH
STEP.m             0.10000 : STEP
NULL.             -9999.25 : NULL VALUE
COMP. FORCE 2020 Recreator : 
WELL.   WELL_FORCE_2020_03 : 
FLD .                      : FIELD
LOC .                      : LOCATION
PROV.                      : PROVINCE
CNTY.                      : COUNTY
STAT.                      : STATE
CTRY.                      : COUNTRY
SRVC.                      : SERVICE COMPANY
DATE.                      : DATE
UWI .                      : UNIQUE WELL ID
API .                      : API NUMBER
~Curve Information -----------------------------------------
DEPT                            .m      : 
CALI                            .in     : 
RSHA                            .ohm.m  : 
RMED                            .ohm.m  : 
RDEP                            .ohm.m  : 
RHOB                            .g/cm3  : 
GR                              .gAPI   : 
NPHI                            .v/v    : 
PEF                             .b/e    : 
DTC                             .us/ft  : 
SP                              .mV     : 
BS                              .in     : 
FORCE_2020_LITHOFACIES_LITHOLOGY.code   : 
~Params ----------------------------------------------------
~Other -----------------------------------------------------
~ASCII -----------------------------------------------------
# ...
 1531.70000    8.58596  262.19345  261.19584  255.30617    1.43094   32.74515    0.52655    1.63157  126.98075   -8.62054    8.50000 90000.00000
 1531.80000    8.58574  256.21976  257.96712  251.01323    1.43067   32.71316    0.52594    1.63760  127.24185   -8.38723    8.50000 90000.00000
 1531.90000    8.58286  242.40464  242.64845  236.80236    1.43099   31.91073    0.52326    1.62936  127.19690   -8.57179    8.50000 90000.00000
 1532.00000    8.58250  230.90523  231.11160  225.27735    1.42611   31.02520    0.52053    1.62781  126.61072   -8.51116    8.50000 90000.00000
 1532.10000    8.58497  218.24798  218.19713  212.19750    1.42398   30.61296    0.51912    1.62899  125.19166   -8.52358    8.50000 90000.00000
 1532.20000    8.58646  217.49968  218.36492  212.90234    1.41794   31.19192    0.52099    1.62680  125.72927   -8.29102    8.50000 90000.00000
 1532.30000    8.58368  211.07813  212.00003  206.54552    1.41284   31.42125    0.52126    1.64868  126.79697   -8.34286    8.50000 90000.00000
 1532.40000    8.58546  187.53822  185.95725  181.86537    1.41838   30.74425    0.52391    1.65391  126.64188   -8.07040    8.50000 90000.00000
 1532.50000    8.58947  199.42025  196.76309  192.16329    1.41225   30.63995    0.52188    1.64681  126.18786   -8.13716    8.50000 90000.00000
 1532.60000    8.58893  203.73296  199.66458  195.60907    1.41444   31.83480    0.52621    1.63793  126.49885   -8.11849    8.50000 90000.00000
 1532.70000    8.58936  204.93325  200.50702  195.92996    1.41506   31.55998    0.52590    1.64411  124.89009   -7.65010    8.50000 90000.00000
 1532.80000    8.59078  206.15149  201.52241  196.92671    1.41237   31.77821    0.52836    1.64481  123.50669   -7.30957    8.50000 90000.00000
 1532.90000    8.58784  208.73973  203.90333  199.34230    1.40452   32.12237    0.52435    1.63302  124.25879   -7.11200    8.50000 90000.00000
 1533.00000    8.58745  203.44267  199.26307  195.19882    1.41417   32.81328    0.52287    1.62194  123.34744   -6.60471    8.50000 90000.00000
 1533.10000    8.58894  206.50115  202.34935  198.55538    1.40640   32.81156    0.52069    1.61474  123.56325   -7.04360    8.50000 90000.00000
 1533.20000    8.58734  232.95546  221.12731  225.53827    1.40540   32.50084    0.51826    1.59832  122.92262   -7.04372    8.50000 90000.00000
 1533.30000    8.58943  196.13823  186.25504  192.38667    1.40997   32.59764    0.51527    1.58022  123.67896   -6.93902    8.50000 90000.00000
 1533.40000    8.59192  197.86357  185.90472  192.89619    1.41180   32.48055    0.51917    1.58532  124.35210   -6.75392    8.50000 90000.00000
 1533.50000    8.59055  207.07757  193.17726  200.90903    1.40837   32.02077    0.51807    1.57848  125.09550   -6.96621    8.50000 90000.00000
 1533.60000    8.58702  209.99319  196.51584  204.03598    1.40915   32.22844    0.52149    1.57457  125.73035   -7.01093    8.50000 90000.00000
 1533.70000    8.58473  220.84702  205.77789  215.36755    1.41630   31.93575    0.51803    1.57466  125.54891   -7.10307    8.50000 90000.00000
 1533.80000    8.58780  206.49200  192.17986  201.88830    1.41016   31.17562    0.51142    1.56923  124.90832   -6.76300    8.50000 90000.00000
 1533.90000    8.58980  204.44998  189.11756  198.64366    1.41391   30.81052    0.50837    1.57368  124.89024   -7.16983    8.50000 90000.00000
 1534.00000    8.59283  225.67337  213.55813  224.25188    1.41261   29.81184    0.50964    1.56744  124.81341   -6.89172    8.50000 90000.00000
 1534.10000    8.59211  239.00396  225.50496  235.68296    1.41892   30.45874    0.51279    1.57663  124.36280   -6.55514    8.50000 90000.00000
 1534.20000    8.59251  245.43046  231.34870  241.52509    1.42097   30.50167    0.51134    1.57308  124.38008   -6.37512    8.50000 90000.00000
 1534.30000    8.59193  243.88035  229.53285  239.66413    1.42219   30.01186    0.51380    1.58787  124.48897   -6.29825    8.50000 90000.00000
 1534.40000    8.59583  243.18388  228.91306  238.91699    1.42827   29.58646    0.51141    1.56751  123.52752   -6.32624    8.50000 90000.00000
 1534.50000    8.59445  256.41904  242.87481  250.97486    1.42884   31.17054    0.50790    1.55128  124.13898   -6.09977    8.50000 90000.00000
 1534.60000    8.58828  255.32565  241.18359  250.91049    1.42976   31.43380    0.51340    1.53781  123.84575   -6.11354    8.50000 90000.00000
 1534.70000    8.59190  278.86500  265.90158  272.93040    1.42636   30.42099    0.50809    1.54957  123.83612   -6.20127    8.50000 90000.00000
 1534.80000    8.58736  285.81722  272.56096  280.29937    1.42482   30.01913    0.50824    1.54335  124.70135   -6.52965    8.50000 90000.00000
 1534.90000    8.58552  288.87088  276.62366  283.68037    1.43305   29.50307    0.50354    1.53421  125.89368   -6.33636    8.50000 90000.00000
 1535.00000    8.58502  296.93704  283.66710  291.29923    1.43976   29.43505    0.50830    1.54515  126.41051   -6.51274    8.50000 90000.00000
 1535.10000    8.58338  299.57107  286.56232  294.37013    1.44168   29.53139    0.50846    1.54505  126.33375   -6.48983    8.50000 90000.00000
 1535.20000    8.58455  304.68022  290.80094  298.41630    1.44382   29.32364    0.50475    1.56150  125.66289   -6.09733    8.50000 90000.00000
 1535.30000    8.58643  241.10137  237.59830  239.31125    1.45205   29.19886    0.50790    1.55963  126.27865   -6.04979    8.50000 90000.00000
 1535.40000    8.58511  240.15486  235.36459  236.88807    1.44973   28.38693    0.51222    1.58326  126.15756   -6.26520    8.50000 90000.00000
 1535.50000    8.58485  237.08486  232.03396  233.43467    1.44821   28.56211    0.51553    1.58673  126.22417   -6.30572    8.50000 90000.00000
 1535.60000    8.58921  228.98889  225.45211  227.01852    1.45211   28.66197    0.51210    1.59500  126.12692   -5.99067    8.50000 90000.00000
 1535.70000    8.58726  234.81925  232.76756  233.01217    1.45848   28.32425    0.51174    1.59995  126.22033   -9999.25    8.50000 90000.00000
 1535.80000    8.58771  220.82871  221.08119  219.53797    1.45826   28.20399    0.51447    1.59408  125.45245   -5.22502    8.50000 90000.00000
 1535.90000    8.58731  221.43119  223.37034  221.31232    1.45908   28.06059    0.51654    1.59041  125.94621   -5.86559    8.50000 90000.00000
 1536.00000    8.58571  247.59849  247.77290  248.56321    1.45956   28.84721    0.52383    1.57999  124.61712   -5.56926    8.50000 90000.00000
 1536.10000    8.58379  238.18134  236.99092  236.24574    1.46767   30.49906    0.52702    1.58923  123.88103   -5.85345    8.50000 90000.00000
 1536.20000    8.58599  247.75303  246.96729  247.46746    1.46504   30.19656    0.52565    1.57769  123.24967   -5.07739    8.50000 90000.00000
 1536.30000    8.58706  249.00063  248.36841  249.55921    1.46182   30.35692    0.52590    1.56681  123.40575   -5.10441    8.50000 90000.00000
 1536.40000    8.58660  251.65852  251.40628  252.61904    1.46889   30.50169    0.52080    1.55423  123.70312   -5.17721    8.50000 90000.00000
 1536.50000    8.58254  253.90087  252.97436  254.54257    1.46505   30.10661    0.52183    1.56020  123.85450   -5.44030    8.50000 90000.00000
 1536.60000    8.58114  238.09508  236.95295  239.96816    1.46940   29.22617    0.52387    1.57106  122.42819   -4.94995    8.50000 90000.00000
 1536.70000    8.58092  245.96616  244.14384  246.20048    1.46448   29.48114    0.52241    1.58219  122.81131   -5.21296    8.50000 90000.00000
 1536.80000    8.57808  219.27647  217.46379  222.00072    1.46916   30.07673    0.52292    1.58088  123.04549   -5.38837    8.50000 90000.00000
 1536.90000    8.58338  210.98318  209.57273  213.32998    1.46830   30.34738    0.51745    1.57783  122.44023   -5.61913    8.50000 90000.00000
 1537.00000    8.58067  209.24742  206.93472  211.70955    1.47311   30.39828    0.51913    1.57430  122.42517   -5.95383    8.50000 90000.00000
 1537.10000    8.58078  199.54315  197.41809  201.78847    1.47529   30.33732    0.51521    1.57888  122.06254   -5.77462    8.50000 90000.00000
 1537.20000    8.58244  215.25958  213.41885  217.55497    1.47329   30.07543    0.51378    1.58966  122.89086   -5.82539    8.50000 90000.00000
