~Version ---------------------------------------------------
VERS.   2.0 : CWLS log ASCII Standard -VERSION 2.0
WRAP.    NO : One line per depth step
DLM . SPACE : Column Data Section Delimiter
~Well ------------------------------------------------------
STRT.m          1000.00000 : START DEPTH
STOP.m          2000.00000 : STOP DEPTH
STEP.m             0.10000 : STEP
NULL.             -9999.25 : NULL VALUE
COMP. FORCE 2020 Recreator : 
WELL.   WELL_FORCE_2020_06 : 
FLD .                      : FIELD
LOC .                      : LOCATION
PROV.                      : PROVINCE
CNTY.                      : COUNTY
STAT.                      : STATE
CTRY.                      : COUNTRY
SRVC.                      : SERVICE COMPANY
DATE.                      : DATE
UWI .                      : UNIQUE WELL ID
API .                      : API NUMBER
~Curve Information -----------------------------------------
DEPT                            .m      : 
CALI                            .in     : 
RSHA                            .ohm.m  : 
RMED                            .ohm.m  : 
RDEP                            .ohm.m  : 
RHOB                            .g/cm3  : 
GR                              .gAPI   : 
NPHI                            .v/v    : 
PEF                             .b/e    : 
DTC                             .us/ft  : 
SP                              .mV     : 
BS                              .in     : 
FORCE_2020_LITHOFACIES_LITHOLOGY.code   : 
~Params ----------------------------------------------------
~Other -----------------------------------------------------
~ASCII -----------------------------------------------------
# ...
 1996.40000    8.57555 6787.60869 6413.69033 6677.54670    2.73136  142.55135    0.01524    3.86323   45.84806   13.85638    8.50000 93000.00000
 1996.50000    8.57597 6859.97457 6518.73351 6781.19601    2.72357  144.19787    0.01558    3.82219   46.21540   13.62527    8.50000 93000.00000
 1996.60000    8.57769 6903.57783 6549.86057 6810.60175    2.70751  143.52981    0.01564    3.77662   46.27414   13.82527    8.50000 93000.00000
 1996.70000    8.57605 7111.73507 6777.61565 7041.41845    2.70679  145.28918    0.01536    3.81460   47.16102   13.92431    8.50000 93000.00000
 1996.80000    8.57618 7350.93167 6988.53064 7253.62568    2.69829  144.07960    0.01496    3.83970   46.12854   13.37907    8.50000 93000.00000
 1996.90000    8.57504 3476.46163 3251.00361 3331.31618    2.70728  144.20674    0.01484    3.87391   45.68742   13.22733    8.50000 93000.00000
 1997.00000    8.57249 4032.89230 3835.22180 3872.77993    2.71656  146.06756    0.01456    3.91489   46.04991   12.98722    8.50000 93000.00000
 1997.10000    8.57299 3911.99406 3705.77200 3752.80838    2.73149  145.68329    0.01465    3.83643   44.98194   12.94010    8.50000 93000.00000
 1997.20000    8.57362 4248.35934 4089.13946 4153.02377    2.74077  146.05233    0.01529    3.82020   45.76854   12.85217    8.50000 93000.00000
 1997.30000    8.57283 4492.09258 4348.72281 4397.48116    2.74906  144.63269    0.01543    3.81189   46.20714   12.64967    8.50000 93000.00000
 1997.40000    8.57196 5681.67634 5713.57994 5702.61815    2.77297  143.86458    0.01491    3.68924   46.54111   12.65445    8.50000 93000.00000
 1997.50000    8.57164 4120.71634 4292.42083 4217.15028    2.78680  143.94657    0.01539    3.70461   46.86180   12.54710    8.50000 93000.00000
 1997.60000    8.56934 4105.99917 4282.05580 4207.66285    2.79772  143.25751    0.01452    3.69859   46.44246   12.94538    8.50000 93000.00000
 1997.70000    8.56803 4469.42395 4616.82400 4545.76267    2.80512  143.86814    0.01470    3.73037   46.60975   13.50386    8.50000 93000.00000
 1997.80000    8.56646 4851.14553 4814.52865 4782.28983    2.78661  143.19580    0.01461    3.71654   46.18455   13.28505    8.50000 93000.00000
 1997.90000    8.56812 6618.31237 6558.56412 6638.60024    2.78791  139.50327    0.01491    3.78624   45.99755   13.31748    8.50000 93000.00000
 1998.00000    8.57102 7655.21035 7710.11511 7751.91417    2.77661  138.65297    0.01452    3.79022   46.06019   13.31945    8.50000 93000.00000
 1998.10000    8.57238 7724.83185 7777.12999 7818.85564    2.78293  137.38998    0.01532    3.75831   46.13659   13.19169    8.50000 93000.00000
 1998.20000    8.57122 7746.53938 7799.00600 7839.60556    2.78711  138.18750    0.01524    3.75187   46.96578   12.76585    8.50000 93000.00000
 1998.30000    8.57128 9223.97315 9383.58808 9360.45322    2.77612  141.98686    0.01541    3.78683   46.42290   12.04385    8.50000 93000.00000
 1998.40000    8.57354 9271.93474 9445.87556 9423.84874    2.75862  142.94331    0.01602    3.80036   45.63095   12.05138    8.50000 93000.00000
 1998.50000    8.57495 9235.12339 9406.78152 9387.27454    2.75292  144.40969    0.01551    3.73594   45.74637   12.38853    8.50000 93000.00000
 1998.60000    8.57419 9198.88803 9333.95898 9318.48864    2.75377  145.45721    0.01538    3.75828   45.51200   12.83493    8.50000 93000.00000
 1998.70000    8.57326 9134.22421 9279.83435 9265.37592    2.77038  142.80571    0.01552    3.79500   45.58232   12.80077    8.50000 93000.00000
 1998.80000    8.57434 9020.63004 9137.21160 9115.19974    2.75930  141.73070    0.01557    3.80672   44.93728   12.36662    8.50000 93000.00000
 1998.90000    8.57493 9179.74214 9272.06441 9244.67581    2.76912  141.76984    0.01516    3.79636   45.37672   12.10861    8.50000 93000.00000
 1999.00000    8.56566 9160.32815 9254.41371 9227.36932    2.74127  135.53856    0.02269    3.68707   48.08149    9.85158    8.50000 93000.00000
 1999.10000    8.56572 8841.54464 8928.81637 8949.82777    2.72145  133.63853    0.02280    3.66725   47.99010    9.86449    8.50000 93000.00000
 1999.20000    8.56415 9302.53361 9394.05726 9416.04114    2.70428  133.59969    0.02337    3.69092   48.42315    9.94390    8.50000 93000.00000
 1999.30000    8.55947 9311.38554 9365.43216 9371.68480    2.68824  135.19995    0.02314    3.66340   48.18806    9.86137    8.50000 93000.00000
 1999.40000    8.55933 9518.45148 9566.64414 9589.56860    2.68317  135.28809    0.02371    3.67313   47.97931    9.67646    8.50000 93000.00000
 1999.50000    8.55822 8496.27191 8320.12463 8424.93643    2.67398  134.45507    0.02457    3.76201   47.79921    9.17671    8.50000 93000.00000
 1999.60000    8.55661 9009.49226 8833.59833 8944.50470    2.64673  134.69262    0.02464    3.76385   47.60563    8.71532    8.50000 93000.00000
 1999.70000    8.55719 9636.85488 9448.11776 9564.93473    2.63257  135.65855    0.02545    3.75881   48.27033    7.93940    8.50000 93000.00000
 1999.80000    8.55758 9739.17572 9589.24147 9708.25549    2.62638  135.08814    0.02622    3.76682   48.51776    7.39360    8.50000 93000.00000
 1999.90000    8.56112 9179.47201 9412.02693 9425.94140    2.64179  134.20113    0.02761    3.74163   49.44509    7.11531    8.50000 93000.00000
 2000.00000    8.55683 6555.76293 6845.72897 6648.96185    2.64523  135.36422    0.02797    3.69140   49.97345    5.81426    8.50000 30000.00000
