~Version ---------------------------------------------------
VERS.   2.0 : CWLS log ASCII Standard -VERSION 2.0
WRAP.    NO : One line per depth step
DLM . SPACE : Column Data Section Delimiter
~Well ------------------------------------------------------
STRT.m          1000.00000 : START DEPTH
STOP.m          2000.00000 : STOP DEPTH
STEP.m             0.10000 : STEP
NULL.             -9999.25 : NULL VALUE
COMP. FORCE 2020 Recreator : 
WELL.   WELL_FORCE_2020_07 : 
FLD .                      : FIELD
LOC .                      : LOCATION
PROV.                      : PROVINCE
CNTY.                      : COUNTY
STAT.                      : STATE
CTRY.                      : COUNTRY
SRVC.                      : SERVICE COMPANY
DATE.                      : DATE
UWI .                      : UNIQUE WELL ID
API .                      : API NUMBER
~Curve Information -----------------------------------------
DEPT                            .m      : 
CALI                            .in     : 
RSHA                            .ohm.m  : 
RMED                            .ohm.m  : 
RDEP                            .ohm.m  : 
RHOB                            .g/cm3  : 
GR                              .gAPI   : 
NPHI                            .v/v    : 
PEF                             .b/e    : 
DTC                             .us/ft  : 
SP                              .mV     : 
BS                              .in     : 
FORCE_2020_LITHOFACIES_LITHOLOGY.code   : 
~Params ----------------------------------------------------
~Other -----------------------------------------------------
~ASCII -----------------------------------------------------
 1000.00000    8.58610    8.65737    8.72695    8.67517    2.37150   77.60134    0.24500    2.60180   93.93696  -16.12764    8.50000 65030.00000
 1000.10000    8.58906    8.85095    8.92545    8.91943    2.37075   78.93555    0.24712    2.59268   92.38718  -15.46204    8.50000 65030.00000
 1000.20000    8.58693    8.78031    9.04305    8.99323    2.37881   79.31822    0.24345    2.59530   92.14925  -16.01922    8.50000 65030.00000
 1000.30000    8.58767    8.36966    8.63607    8.56866    2.38383   79.52792    0.24321    2.60567   91.39443  -15.65650    8.50000 65030.00000
 1000.40000    8.58295    8.32003    8.52778    8.48128    2.38102   79.74104    0.24762    2.58585   91.56624  -15.85967    8.50000 65030.00000
 1000.50000    8.58038    7.92026    8.11632    8.07002    2.38782   80.77196    0.24755    2.58232   91.54408  -16.33095    8.50000 65030.00000
 1000.60000    8.58389    7.83351    7.98018    7.92478    2.39102   80.25094    0.24657    2.59067   91.56478  -16.49933    8.50000 65030.00000
 1000.70000    8.58565    8.16229    8.16836    8.16498    2.39030   80.07563    0.24637    2.57905   91.08848  -16.15478    8.50000 65030.00000
 1000.80000    8.58391    8.15512    8.07217    8.09082    2.38950   80.21674    0.24281    2.58913   91.29917  -16.19496    8.50000 65030.00000
 1000.90000    8.58263    8.37605    8.24285    8.28525    2.38537   80.21537    0.24061    2.58906   91.84568  -15.85411    8.50000 65030.00000
 1001.00000    8.58320    8.16869    8.06704    8.08938    2.39071   79.44589    0.24244    2.59345   91.65785  -15.57881    8.50000 65030.00000
 1001.10000    8.58583    8.09296    7.95997    7.96850    2.39172   79.57286    0.24164    2.58591   91.98033  -15.09724    8.50000 65030.00000
 1001.20000    8.58309    7.20592    7.00211    7.02322    2.39090   78.77196    0.23981    2.57175   91.86937  -15.64338    8.50000 65030.00000
 1001.30000    8.58256    7.09357    6.80333    6.85003    2.39420   79.26097    0.24443    2.58335   92.38813  -15.33914    8.50000 65030.00000
 1001.40000    8.58170    7.46774    7.24912    7.26430    2.39562   78.56539    0.24929    2.57808   92.29467  -15.79247    8.50000 65030.00000
 1001.50000    8.58258    7.33839    7.18267    7.19001    2.39559   77.99781    0.25188    2.58331   92.19809  -16.09206    8.50000 65030.00000
 1001.60000    8.58201    7.06864    6.95318    6.92796    2.39329   77.55990    0.25116    2.56181   91.08776  -15.87587    8.50000 65030.00000
 1001.70000    8.58314    7.65565    7.52075    7.46278    2.38785   75.57887    0.25064    2.56841   91.26700  -15.64466    8.50000 65030.00000
 1001.80000    8.58264    7.68018    7.56019    7.53595    2.39169   77.06894    0.25194    2.57550   91.31853  -16.09293    8.50000 65030.00000
 1001.90000    8.58615    8.00121    7.91524    7.87856    2.38590   76.87901    0.25573    2.58139   90.62399  -15.83878    8.50000 65030.00000
 1002.00000    8.58976    7.82543    7.73751    7.70261    2.39175   77.60159    0.25616    2.58096   90.23060  -15.81174    8.50000 65030.00000
 1002.10000    8.59165    7.83344    7.73903    7.70987    2.39945   77.74134    0.25958    2.58078   89.31681  -15.44520    8.50000 65030.00000
 1002.20000    8.59002    7.50183    7.41187    7.38038    2.40443   76.67165    0.26167    2.59922   90.27568  -15.83765    8.50000 65030.00000
 1002.30000    8.59031    7.24608    7.04649    7.03654    2.40255   75.96155    0.26104    2.60949   90.52295  -15.85111    8.50000 65030.00000
 1002.40000    8.59163    7.32069    7.08589    7.09244    2.40484   74.91068    0.25961    2.59592   91.26387  -16.00218    8.50000 65030.00000
 1002.50000    8.59362    7.61750    7.36546    7.41168    2.41479   73.98346    0.25915    2.60685   90.76809  -15.69684    8.50000 65030.00000
 1002.60000    8.59678    7.74022    7.50451    7.55133    2.41026   72.39017    0.25615    2.60436   91.26812  -15.47059    8.50000 65030.00000
 1002.70000    8.59284    7.97097    7.67154    7.70431    2.40853   72.95430    0.25662    2.58554   90.99103  -14.77533    8.50000 65030.00000
 1002.80000    8.58951    7.94524    7.72338    7.73187    2.41165   73.00854    0.25721    2.59993   91.27446  -15.12813    8.50000 65030.00000
 1002.90000    8.59230    7.80030    7.61530    7.61782    2.41383   72.35288    0.26096    2.59026   90.72168  -14.78626    8.50000 65030.00000
 1003.00000    8.59296    7.56984    7.45893    7.43098    2.41560   71.62232    0.26299    2.58504   90.80151  -14.75479    8.50000 65030.00000
 1003.10000    8.59469    8.55150    8.30043    8.25628    2.40985   72.51239    0.26106    2.58437   91.65949  -15.04491    8.50000 65030.00000
 1003.20000    8.59260    8.77394    8.47378    8.42915    2.40900   73.38304    0.26010    2.57242   90.69266  -15.37297    8.50000 65030.00000
 1003.30000    8.59343    9.06117    8.72293    8.65879    2.41048   73.04518    0.26508    2.59958   89.89262  -15.24295    8.50000 65030.00000
 1003.40000    8.59103    9.03149    8.65018    8.60209    2.40721   71.42135    0.26428   -9999.25   89.76259  -15.47011    8.50000 65030.00000
 1003.50000    8.59001    8.80476    8.35005    8.34433    2.40916   73.31296    0.26577    2.61308   89.61139  -15.25335    8.50000 65030.00000
 1003.60000    8.58932    8.75826    8.28126    8.29353    2.40935   73.24673    0.26271    2.60025   90.49251  -15.07494    8.50000 65030.00000
 1003.70000    8.58797    8.71490    8.30401    8.33406    2.41279   73.55133    0.26253    2.60977   91.57685  -15.16130    8.50000 65030.00000
 1003.80000    8.58462    8.08441    7.65038    7.72033    2.41582   74.56981    0.26343    2.61114   91.56410  -14.99584    8.50000 65030.00000
 1003.90000    8.58156    8.07666    7.61821    7.66636    2.41528   72.31072    0.26312    2.59616   91.98735  -14.38505    8.50000 65030.00000
 1004.00000    8.58288    7.86654    7.38043    7.44520    2.42050   72.40231    0.26451    2.59516   91.93191  -14.33839    8.50000 65030.00000
 1004.10000    8.57824    8.20270    7.69258    7.74168    2.41742   72.02028    0.26478    2.59416   92.36800  -14.11256    8.50000 65030.00000
 1004.20000    8.57244    8.18276    7.62114    7.70085    2.41983   72.47938    0.26350    2.60015   92.87339  -14.10978    8.50000 65030.00000
 1004.30000    8.57255    8.19420    7.63250    7.67861    2.42285   72.82461    0.26328    2.57875   92.39551  -14.24710    8.50000 65030.00000
 1004.40000    8.57252    8.78478    8.32826    8.34438    2.41643   73.21455    0.26780    2.56185   92.26558  -14.00529    8.50000 65030.00000
 1004.50000    8.56950    8.90908    8.47521    8.49627    2.41022   73.50499    0.26995    2.57817   91.71788  -13.79858    8.50000 65030.00000
 1004.60000    8.57189    8.59221    8.16559    8.14373    2.40533   73.47307    0.26521    2.59125   93.31513  -14.11401    8.50000 65030.00000
 1004.70000    8.56946    8.47041    8.02378    8.00006    2.41025   73.36389    0.26832    2.59676   93.69621  -14.11162    8.50000 65030.00000
 1004.80000    8.57106    8.17011    7.80464    7.80216    2.40788   73.34028    0.26777    2.60307   94.10380  -14.58028    8.50000 65030.00000
 1004.90000    8.57372    8.35705    8.08695    8.03742    2.40017   72.58502    0.26798    2.59677   94.46870  -14.27398    8.50000 65030.00000
 1005.00000    8.57187    8.32547    8.10105    8.03798    2.40403   73.19650    0.27029    2.60235   94.83445  -14.37737    8.50000 65030.00000
 1005.10000    8.57112    8.22956    7.99145    7.92524    2.40454   73.01851    0.27413    2.60032   94.60864  -14.43788    8.50000 65030.00000
 1005.20000    8.56722    7.42521    7.26055    7.21874    2.40517   73.37768    0.27742    2.59601   93.39713  -15.01731    8.50000 65030.00000
 1005.30000    8.56381    7.31745    7.18315    7.13826    2.41563   72.13018    0.27461    2.61448   93.61737  -15.45474    8.50000 65030.00000
 1005.40000    8.56317    7.30803    7.28336    7.24138    2.41904   71.84232    0.27186    2.59499   94.71801  -14.87786    8.50000 65030.00000
 1005.50000    8.56410    7.42005    7.38684    7.34245    2.41982   72.57549    0.27155    2.59365   94.39418  -14.45356    8.50000 65030.00000
