~Version ---------------------------------------------------
VERS.   2.0 : CWLS log ASCII Standard -VERSION 2.0
WRAP.    NO : One line per depth step
DLM . SPACE : Column Data Section Delimiter
~Well ------------------------------------------------------
STRT.m          1000.00000 : START DEPTH
STOP.m          2000.00000 : STOP DEPTH
STEP.m             0.10000 : STEP
NULL.             -9999.25 : NULL VALUE
COMP. FORCE 2020 Recreator : 
WELL.   WELL_FORCE_2020_05 : 
FLD .                      : FIELD
LOC .                      : LOCATION
PROV.                      : PROVINCE
CNTY.                      : COUNTY
STAT.                      : STATE
CTRY.                      : COUNTRY
SRVC.                      : SERVICE COMPANY
DATE.                      : DATE
UWI .                      : UNIQUE WELL ID
API .                      : API NUMBER
~Curve Information -----------------------------------------
DEPT                            .m      : 
CALI                            .in     : 
RSHA                            .ohm.m  : 
RMED                            .ohm.m  : 
RDEP                            .ohm.m  : 
RHOB                            .g/cm3  : 
GR                              .gAPI   : 
NPHI                            .v/v    : 
PEF                             .b/e    : 
DTC                             .us/ft  : 
SP                              .mV     : 
BS                              .in     : 
FORCE_2020_LITHOFACIES_LITHOLOGY.code   : 
~Params ----------------------------------------------------
~Other -----------------------------------------------------
~ASCII -----------------------------------------------------
# ...
 1067.20000    8.56931  265.09023  269.99969  266.89443    1.40583   26.97635    0.52345   -9999.25  121.57563   -9.38304    8.50000 90000.00000
 1067.30000    8.56546  273.44404  278.66281  274.29642    1.41802   27.19955    0.52350   -9999.25  122.20104   -9.27170    8.50000 90000.00000
 1067.40000    8.56668  252.40718  256.95023  252.96865    1.41107   26.89968    0.52443   -9999.25  123.31781   -9.53519    8.50000 90000.00000
 1067.50000    8.57205  254.69059  259.48881  255.90509    1.42039   27.14424    0.52040   -9999.25  122.82026   -9.89297    8.50000 90000.00000
 1067.60000    8.57231  256.39185  260.86283  257.26347    1.42244   27.02158    0.52433   -9999.25  122.49339   -9.51486    8.50000 90000.00000
 1067.70000    8.57110  243.08296  245.41828  244.18286    1.42623   27.43060    0.52917   -9999.25  122.26209   -8.75719    8.50000 90000.00000
 1067.80000    8.57305  242.44705  247.12395  245.08559    1.42407   27.21078    0.52353   -9999.25  123.55229   -8.29760    8.50000 90000.00000
 1067.90000    8.57340  219.98517  219.24670  219.39875    1.43468   27.00630    0.52902   -9999.25  123.08761   -7.91900    8.50000 90000.00000
 1068.00000    8.57494  212.57283  212.59724  213.16497    1.43669   28.12194    0.52967   -9999.25  122.63163   -9999.25    8.50000 90000.00000
 1068.10000    8.57501  226.42238  229.01038  229.61131    1.43207   28.67514    0.53135   -9999.25  122.21526   -7.56431    8.50000 90000.00000
 1068.20000    8.57623  234.72192  236.64155  237.59052    1.42460   28.45509    0.53587   -9999.25  121.94600   -7.21255    8.50000 90000.00000
 1068.30000    8.57556  229.40698  231.70020  233.05668    1.42279   28.70061    0.53487   -9999.25  121.53973   -7.37564    8.50000 90000.00000
 1068.40000    8.57533  248.63162  251.77873  252.33857    1.41896   28.39106    0.53680   -9999.25  122.18814   -7.37377    8.50000 90000.00000
 1068.50000    8.57358  242.50323  244.92925  245.59426    1.42004   28.64554    0.53434   -9999.25  122.21666   -7.09780    8.50000 90000.00000
 1068.60000    8.57188  238.06962  241.74526  239.62108    1.40532   28.51315    0.52912   -9999.25  123.92613   -7.08208    8.50000 90000.00000
 1068.70000    8.57463  233.03336  236.23102  233.93525    1.41328   29.35811    0.52097   -9999.25  122.93966   -6.85124    8.50000 90000.00000
 1068.80000    8.57636  255.89853  253.28958  253.08253    1.41301   29.09704    0.51760   -9999.25  123.15099   -6.79500    8.50000 90000.00000
 1068.90000    8.57661  233.24709  230.51783  230.79815    1.41661   29.74159    0.51296   -9999.25  124.17132   -6.47358    8.50000 90000.00000
 1069.00000    8.57806  242.34191  237.48336  239.11337    1.42278   30.55399    0.51037   -9999.25  124.29802   -6.05002    8.50000 90000.00000
 1069.10000    8.57999  241.65342  236.11183  238.08622    1.42373   30.42842    0.50794   -9999.25  124.59293   -6.15117    8.50000 90000.00000
 1069.20000    8.58511  243.64610  239.61363  241.09548    1.42271   29.78821    0.50866   -9999.25  125.72711   -6.31781    8.50000 90000.00000
 1069.30000    8.58746  232.97435  227.82394  230.03806    1.41768   29.37423    0.50704   -9999.25  125.34573   -6.51780    8.50000 90000.00000
 1069.40000    8.58960  227.48922  221.98310  225.17002    1.41608   29.56657    0.51101   -9999.25  125.25514   -6.43712    8.50000 90000.00000
 1069.50000    8.59027  226.81449  221.78252  225.24030    1.42746   29.69384    0.51004   -9999.25  125.92486   -5.96550    8.50000 90000.00000
 1069.60000    8.58868  239.20594  235.04197  239.30980    1.42478   29.61196    0.51326   -9999.25  125.85531   -5.95474    8.50000 90000.00000
 1069.70000    8.58947  254.14438  248.26906  252.57910    1.42454   29.82131    0.51233   -9999.25  126.59225   -6.13062    8.50000 90000.00000
 1069.80000    8.58762  270.91458  261.70350  265.13307    1.41944   29.48674    0.51160   -9999.25  127.68989   -6.15958    8.50000 90000.00000
 1069.90000    8.58742  266.15595  256.48678  259.91552    1.41802   29.32144    0.51360   -9999.25  128.63647   -6.80660    8.50000 90000.00000
 1070.00000    8.58790  262.09551  251.91601  255.93393    1.41012   29.60882    0.51233   -9999.25  128.90303   -7.19035    8.50000 90000.00000
 1070.10000    8.58933  263.82279  252.78533  256.98709    1.40767   29.08786    0.50865   -9999.25  130.10856   -7.94113    8.50000 90000.00000
 1070.20000    8.58869  246.11117  233.81398  238.06588    1.40378   28.54638    0.50639   -9999.25  130.21288   -8.51859    8.50000 90000.00000
 1070.30000    8.59129  245.30114  232.09068  236.04463    1.41731   29.28865    0.50734   -9999.25  130.34670   -8.42862    8.50000 90000.00000
 1070.40000    8.59127  227.70260  215.15409  219.13652    1.42193   29.13113    0.50740   -9999.25  130.27572   -8.10038    8.50000 90000.00000
 1070.50000    8.59422  212.52318  199.58217  204.04579    1.42096   29.86847    0.50660   -9999.25  129.72020   -7.80929    8.50000 90000.00000
 1070.60000    8.59812  218.37708  205.02342  210.16452    1.42740   30.02626    0.50298   -9999.25  130.41164   -8.24120    8.50000 90000.00000
 1070.70000    8.60049  208.68796  195.95334  201.21026    1.44509   30.21291    0.51032   -9999.25  129.51378   -8.01157    8.50000 90000.00000
 1070.80000    8.59812  221.84382  210.11642  215.98406    1.43950   30.25453    0.51771   -9999.25  129.66011   -8.56567    8.50000 90000.00000
 1070.90000    8.59875  227.37897  226.31773  229.62728    1.44170   30.26068    0.51677   -9999.25  128.37770   -8.88223    8.50000 90000.00000
 1071.00000    8.59579  248.24824  244.48887  249.40041    1.43961   29.47131    0.51768   -9999.25  128.20939   -8.65531    8.50000 90000.00000
 1071.10000    8.59511  245.38774  248.68998  251.83694    1.43469   30.06756    0.51939   -9999.25  128.12172   -9.05735    8.50000 90000.00000
 1071.20000    8.59358  238.54719  241.81589  244.79587    1.43718   31.16747    0.52489   -9999.25  127.83120   -9.49613    8.50000 90000.00000
 1071.30000    8.58877  250.98839  252.89113  256.30855    1.44006   31.73908    0.52119   -9999.25  126.78359   -9.36377    8.50000 90000.00000
 1071.40000    8.58966  256.53534  258.30213  260.97618    1.43935   31.38851    0.52233   -9999.25  127.39543   -9.30958    8.50000 90000.00000
 1071.50000    8.59146  284.11489  280.44174  284.89867    1.43977   31.64529    0.51816   -9999.25  126.57892   -9.51037    8.50000 90000.00000
 1071.60000    8.58902  298.29151  296.86247  300.04548    1.43465   32.04352    0.51649   -9999.25  124.93128   -9.98629    8.50000 90000.00000
 1071.70000    8.58710  286.44687  284.27906  285.47308    1.42449   31.05547    0.51692   -9999.25  125.52734  -10.13500    8.50000 90000.00000
 1071.80000    8.58824  281.24928  278.59775  280.26862    1.41831   30.98726    0.51233   -9999.25  125.22919   -9.94509    8.50000 90000.00000
 1071.90000    8.59163  262.84116  263.13664  265.88112    1.42658   30.80325    0.51340   -9999.25  125.64253  -10.29659    8.50000 90000.00000
 1072.00000    8.59201  282.42366  281.12687  283.88790    1.42161   31.37573    0.51691   -9999.25  123.64610   -9.69403    8.50000 90000.00000
 1072.10000    8.59136  277.42917  276.25231  278.44207    1.42963   31.44646    0.51539   -9999.25  123.16091   -9.70063    8.50000 90000.00000
 1072.20000    8.59152  275.81427  275.23663  277.42478    1.42711   32.05292    0.51961   -9999.25  123.07750   -9.89208    8.50000 90000.00000
 1072.30000    8.59137  305.39800  303.24905  305.44845    1.42975   31.14854    0.52292   -9999.25  122.30632   -9.10311    8.50000 90000.00000
 1072.40000    8.58697  315.03286  315.32127  316.93195    1.41617   30.46012    0.51996   -9999.25  121.48150   -8.94294    8.50000 90000.00000
 1072.50000    8.58440  312.10823  312.38510  314.14493    1.41134   30.07713    0.52309   -9999.25  122.06895   -8.33399    8.50000 90000.00000
 1072.60000    8.58204  313.21463  312.76358  314.09916    1.41781   30.30342    0.52334   -9999.25  122.13296   -8.38891    8.50000 90000.00000
 1072.70000    8.58247  314.08890  314.35069  314.45036    1.41292   29.35121    0.52554   -9999.25  122.17374   -8.52577    8.50000 90000.00000
