~Version ---------------------------------------------------
VERS.   2.0 : CWLS log ASCII Standard -VERSION 2.0
WRAP.    NO : One line per depth step
DLM . SPACE : Column Data Section Delimiter
~Well ------------------------------------------------------
STRT.m          1000.00000 : START DEPTH
STOP.m          2000.00000 : STOP DEPTH
STEP.m             0.10000 : STEP
NULL.             -9999.25 : NULL VALUE
COMP. FORCE 2020 Recreator : 
WELL.   WELL_FORCE_2020_07 : 
FLD .                      : FIELD
LOC .                      : LOCATION
PROV.                      : PROVINCE
CNTY.                      : COUNTY
STAT.                      : STATE
CTRY.                      : COUNTRY
SRVC.                      : SERVICE COMPANY
DATE.                      : DATE
UWI .                      : UNIQUE WELL ID
API .                      : API NUMBER
~Curve Information -----------------------------------------
DEPT                            .m      : 
CALI                            .in     : 
RSHA                            .ohm.m  : 
RMED                            .ohm.m  : 
RDEP                            .ohm.m  : 
RHOB                            .g/cm3  : 
GR                              .gAPI   : 
NPHI                            .v/v    : 
PEF                             .b/e    : 
DTC                             .us/ft  : 
SP                              .mV     : 
BS                              .in     : 
FORCE_2020_LITHOFACIES_LITHOLOGY.code   : 
~Params ----------------------------------------------------
~Other -----------------------------------------------------
~ASCII -----------------------------------------------------
# ...
 1928.90000    8.58057 12962.50620 12144.13861 12555.84217    2.75981  141.50545    0.01410    3.79487   45.49589   12.39607    8.50000 93000.00000
 1929.00000    8.57775 13077.81828 12240.07735 12658.69395    2.73027  140.29942    0.01425    3.78211   46.74897   12.06468    8.50000 93000.00000
 1929.10000    8.57588 3596.23695 3715.24008 3726.86901    2.72299  139.86965    0.01404    3.77540   46.97034   12.44430    8.50000 93000.00000
 1929.20000    8.57753 3621.69050 3768.96982 3772.04671    2.70594  138.18738    0.01455    3.86188   47.05032   12.92545    8.50000 93000.00000
 1929.30000    8.57815 3452.97278 3575.70496 3587.25784    2.70243  137.80904    0.01476    3.83833   47.13199   12.94531    8.50000 93000.00000
 1929.40000    8.57720 3477.18141 3601.81740 3612.66563    2.70683  138.22615    0.01483    3.82441   46.35097   13.02517    8.50000 93000.00000
 1929.50000    8.57686 3602.09041 3735.51046 3754.57238    2.71781  137.13287    0.01483    3.84860   46.59871   13.10914    8.50000 93000.00000
 1929.60000    8.57826 3610.79449 3744.78821 3763.13784    2.72645  136.01922    0.01505    3.83935   46.70255   14.10461    8.50000 93000.00000
 1929.70000    8.57642 2991.85467 3031.94348 3077.15462    2.73416  136.68986    0.01542    3.81991   46.75200   14.31351    8.50000 93000.00000
 1929.80000    8.57555 2393.14203 2343.51503 2420.66367    2.72065  135.66272    0.01533    3.78871   46.99518   12.97613    8.50000 93000.00000
 1929.90000    8.57536 1887.04760 1834.05004 1857.25385    2.71734  136.68222    0.01540    3.76451   46.60439   13.20158    8.50000 93000.00000
 1930.00000    8.57395 5084.69183 4580.24745 4839.33094    2.72278  135.63918    0.01480    3.73851   46.44023   13.54088    8.50000 93000.00000
 1930.10000    8.57377 5029.66964 4526.32237 4793.97631    2.69613  135.01878    0.01486    3.68984   46.02878   13.51487    8.50000 93000.00000
 1930.20000    8.57125 5378.51157 4874.45174 5150.82880    2.70334  134.13427    0.01467    3.75268   45.76343   12.96908    8.50000 93000.00000
 1930.30000    8.57448 5743.07195 5237.81116 5537.63906    2.70115  134.72428    0.01505    3.74756   46.45834   12.57380    8.50000 93000.00000
 1930.40000    8.57540 6152.78348 5640.06167 5944.71729    2.69539  135.53394    0.01470    3.75411   46.65330   13.05979    8.50000 93000.00000
 1930.50000    8.58027 6170.30779 5656.46732 5960.72426    2.67706  131.97017    0.01492    3.70661   46.42317   13.29976    8.50000 93000.00000
 1930.60000    8.57996 6279.30940 5774.37578 6069.41474    2.66006  132.05719    0.01510    3.69588   46.98664   13.16441    8.50000 93000.00000
 1930.70000    8.58273 6255.22925 5753.44229 6047.55418    2.64890  135.90252    0.01486    3.71934   47.21255   13.70514    8.50000 93000.00000
 1930.80000    8.57951 6303.80988 5800.62126 6099.66324    2.63229  136.60934    0.01484    3.75374   46.42983   14.27454    8.50000 93000.00000
 1930.90000    8.58118 6338.40109 5839.29237 6140.77008    2.62207  136.39830    0.01521    3.77415   45.07278   14.45152    8.50000 93000.00000
 1931.00000    8.57718 6384.23646 5887.23386 6187.32780    2.61303  139.97723    0.01525    3.76443   44.86561   14.68743    8.50000 93000.00000
 1931.10000    8.57775 6200.88876 5718.62269 6017.61441    2.63803  140.83323    0.01555    3.82043   43.89633   14.97204    8.50000 93000.00000
 1931.20000    8.58149 5903.18912 5459.30330 5748.12903    2.65283  141.25544    0.01571    3.82736   44.01372   14.97868    8.50000 93000.00000
 1931.30000    8.58134 5879.54637 5424.96841 5718.53528    2.64511  142.71354    0.01471    3.76554   44.38562   15.14772    8.50000 93000.00000
 1931.40000    8.58084 6067.47542 5554.05034 5883.74480    2.65328  142.98556    0.01449    3.78731   44.58703   14.93371    8.50000 93000.00000
 1931.50000    8.58130 6063.33568 5545.56660 5874.66931    2.66857  144.11932    0.01504    3.80855   44.72965   14.83041    8.50000 93000.00000
 1931.60000    8.58029 6042.21630 5520.25745 5843.06700    2.67556  141.36801    0.01496    3.79336   44.79663   14.83672    8.50000 93000.00000
 1931.70000    8.57939 6163.29906 5642.43295 5967.37656    2.66428  140.58793    0.01505    3.81358   45.65394   14.12063    8.50000 93000.00000
 1931.80000    8.57819 6194.55330 5679.88691 6007.20299    2.66981  141.73509    0.01528    3.82821   45.15874   13.99584    8.50000 93000.00000
 1931.90000    8.58273 6949.49542 6436.22236 6756.71591    2.70392  142.40306    0.01504    3.91694   45.23851   13.75599    8.50000 93000.00000
 1932.00000    8.58341 10248.07693 9823.66463 10173.50311    2.70571  141.98842    0.01439    3.95547   45.56541   12.82731    8.50000 93000.00000
 1932.10000    8.58706 6820.88611 6863.27327 6973.01543    2.69482  141.50997    0.01437    3.96576   45.71421   12.65476    8.50000 93000.00000
 1932.20000    8.58699 7147.71491 7203.11382 7299.64325    2.71914  140.96365    0.01363    3.94651   46.37084   12.26581    8.50000 93000.00000
 1932.30000    8.58506 6790.37798 6858.33848 6938.85375    2.69361  141.69141    0.01408    3.92135   46.51324   12.41349    8.50000 93000.00000
 1932.40000    8.58348 6689.39635 6796.38934 6833.38362    2.71117  142.74544    0.01419    3.89315   46.57482   12.54542    8.50000 93000.00000
 1932.50000    8.58083 6374.75844 6470.10781 6503.59833    2.70384  143.22216    0.01445    3.82298   45.93643   12.43062    8.50000 93000.00000
 1932.60000    8.57677 6470.19230 6584.97270 6614.91893    2.71501  143.33523    0.01462    3.78621   45.11200   11.63748    8.50000 93000.00000
 1932.70000    8.57956 6220.45552 6325.39316 6368.66751    2.75405  142.06892    0.01504    3.83537   45.90182   11.27657    8.50000 93000.00000
 1932.80000    8.57970 6684.50015 6822.80348 6908.83796    2.77761  138.91658    0.01499    3.80251   45.43003   10.79205    8.50000 93000.00000
 1932.90000    8.58329 6969.28105 7171.94648 7228.58822    2.81330  136.69742    0.01503    3.74055   45.39842   10.39545    8.50000 93000.00000
 1933.00000    8.58281 6964.84201 7177.89058 7233.95564    2.81227  137.16622    0.01475    3.72035   46.39259   10.03856    8.50000 93000.00000
 1933.10000    8.58455 7057.38955 7276.23064 7330.68200    2.83523  136.35710    0.01520    3.68543   46.57761   10.17345    8.50000 93000.00000
 1933.20000    8.58725 7065.38067 7284.41613 7339.30565    2.83221  132.80504    0.01539    3.70695   47.07829   10.15788    8.50000 93000.00000
 1933.30000    8.58486 7237.09609 7447.34093 7496.02112    2.82823  133.81692    0.01511    3.70929   46.70673   10.26593    8.50000 93000.00000
 1933.40000    8.58525 8397.74897 8698.82422 8790.96528    2.82558  134.20580    0.01538    3.68398   46.48425   10.15575    8.50000 93000.00000
 1933.50000    8.58836 8808.68994 9161.47137 9209.29673    2.81472  132.12921    0.01597    3.70978   46.11432    9.61730    8.50000 93000.00000
 1933.60000    8.58650 9025.30699 9389.61602 9430.95539    2.80416  132.31356    0.01561    3.73792   46.26885    9.93989    8.50000 93000.00000
 1933.70000    8.58609 9005.01028 9376.74326 9421.99054    2.78931  133.08320    0.01682    3.77456   45.35609    8.94389    8.50000 93000.00000
 1933.80000    8.58770 8906.19594 9280.17231 9321.71858    2.79336  132.47371    0.01780    3.81813   44.74167    9.31087    8.50000 93000.00000
 1933.90000    8.58909 9059.68996 9419.81616 9473.04003    2.80220  132.17663    0.01725    3.84606   44.78491    9.51657    8.50000 93000.00000
 1934.00000    8.58742 8260.76794 8633.24459 8685.05605    2.79587  133.11534    0.01729    3.82759   44.18135   10.06573    8.50000 93000.00000
 1934.10000    8.58646 5672.60318 5960.44141 6035.35209    2.78987  131.89683    0.01792    3.81845   43.74117   10.18603    8.50000 93000.00000
 1934.20000    8.58411 5826.68006 6156.90823 6224.44088    2.78737  132.12409    0.01790    3.81115   43.64949   10.18637    8.50000 93000.00000
 1934.30000    8.58489 5439.77299 5740.32367 5818.73486    2.78927  133.27332    0.01906    3.80804   43.59063   10.80989    8.50000 93000.00000
 1934.40000    8.58601 5537.23745 5838.14886 5908.43780    2.79531  132.43774    0.01865    3.80560   43.60039   10.34020    8.50000 93000.00000
