~Version ---------------------------------------------------
VERS.   2.0 : CWLS log ASCII Standard -VERSION 2.0
WRAP.    NO : One line per depth step
DLM . SPACE : Column Data Section Delimiter
~Well ------------------------------------------------------
STRT.m          1000.00000 : START DEPTH
STOP.m          2000.00000 : STOP DEPTH
STEP.m             0.10000 : STEP
NULL.             -9999.25 : NULL VALUE
COMP. FORCE 2020 Recreator : 
WELL.   WELL_FORCE_2020_02 : 
FLD .                      : FIELD
LOC .                      : LOCATION
PROV.                      : PROVINCE
CNTY.                      : COUNTY
STAT.                      : STATE
CTRY.                      : COUNTRY
SRVC.                      : SERVICE COMPANY
DATE.                      : DATE
UWI .                      : UNIQUE WELL ID
API .                      : API NUMBER
~Curve Information -----------------------------------------
DEPT                            .m      : 
CALI                            .in     : 
RSHA                            .ohm.m  : 
RMED                            .ohm.m  : 
RDEP                            .ohm.m  : 
RHOB                            .g/cm3  : 
GR                              .gAPI   : 
NPHI                            .v/v    : 
PEF                             .b/e    : 
DTC                             .us/ft  : 
SP                              .mV     : 
BS                              .in     : 
FORCE_2020_LITHOFACIES_LITHOLOGY.code   : 
~Params ----------------------------------------------------
~Other -----------------------------------------------------
~ASCII -----------------------------------------------------
# ...
 1666.40000    9.78272    2.63811    2.60445    2.67177    2.47304  119.60422    0.35598    3.32546  109.00165    6.41688    8.50000 65000.00000
 1666.50000    9.77416    2.61932    2.58802    2.65190    2.47169  120.69226    0.35656    3.32138  108.76155    6.02050    8.50000 65000.00000
 1666.60000    9.80315    2.65111    2.64306    2.69622    2.47352  120.38585    0.35931    3.31566  109.14584    5.94205    8.50000 65000.00000
 1666.70000    9.79834    2.69298    2.71467    2.75526    2.47816  120.23719    0.36132    3.31045  108.62727    5.80916    8.50000 65000.00000
 1666.80000    9.81211    2.72120    2.76436    2.81168    2.47646  120.54580    0.35945    3.30899  108.42265    5.71778    8.50000 65000.00000
 1666.90000    9.83396    2.76843    2.82700    2.86760    2.47959  118.04564    0.36026    3.30790  108.82435    5.75745    8.50000 65000.00000
 1667.00000    9.82145    2.88313    2.93387    2.96596    2.47967  118.11419    0.35774    3.31057  108.21603    5.42792    8.50000 65000.00000
 1667.10000    9.83516    2.86232    2.87502    2.90333    2.48313  116.97872    0.35579    3.33041  107.59769    5.37710    8.50000 65000.00000
 1667.20000    9.84223    3.03224    3.02370    3.04088    2.47212  116.28824    0.35492    3.33891  107.29123    4.93557    8.50000 65000.00000
 1667.30000    9.86897    2.92516    2.93257    2.93619    2.47028  115.38657    0.35558    3.34384  108.62803    4.82611    8.50000 65000.00000
 1667.40000    9.85551    2.93935    2.94889    2.93745    2.47066  115.46207    0.35271    3.32566  107.66318    4.69020    8.50000 65000.00000
 1667.50000    9.87454    3.00079    3.02804    3.00453    2.47060  116.95329    0.35536    3.33238  107.48643    4.47461    8.50000 65000.00000
 1667.60000    9.91590    3.05079    3.07380    3.05421    2.47711  116.67577    0.35692    3.33071  106.76315    4.57285    8.50000 65000.00000
 1667.70000    9.92234    3.04299    3.05690    3.03761    2.47541  115.02048    0.35450    3.32122  106.78461    4.18255    8.50000 65000.00000
 1667.80000    9.93397    2.94288    2.95674    2.93798    2.47704  115.16010    0.35697    3.31978  106.85101    4.13742    8.50000 65000.00000
 1667.90000    9.92840    2.86372    2.89259    2.86653    2.47873  115.67626    0.36212    3.33967  108.02932    4.21131    8.50000 65000.00000
 1668.00000    9.94048    2.90442    2.94686    2.92866    2.48045  113.93386    0.36026    3.34183  107.78858    4.17703    8.50000 65000.00000
 1668.10000    9.97793    2.90027    2.93645    2.91862    2.47955  113.14942    0.35959    3.34640  108.49770    4.19944    8.50000 65000.00000
 1668.20000    9.97732    2.96563    3.00397    2.97635    2.47433  113.31795    0.36056    3.36611  109.73732    4.25140    8.50000 65000.00000
 1668.30000   10.00220    2.91226    2.96992    2.93920    2.47610  112.84882    0.36174    3.38113  110.45581    4.43754    8.50000 65000.00000
 1668.40000    9.98555    2.91569    3.00120    2.95888    2.47610  112.78238    0.36152    3.36965  109.29854    4.34606    8.50000 65000.00000
 1668.50000    9.97511    3.08567    3.19522    3.12860    2.47661  111.87251    0.35913    3.35843  108.17194    4.54519    8.50000 65000.00000
 1668.60000    9.94676    3.09591    3.20884    3.14768    2.48110  111.08082    0.35836    3.37642  109.24698    4.84107    8.50000 65000.00000
 1668.70000    9.92165    3.25570    3.36724    3.31102    2.48078  111.52500    0.35369    3.39347  109.33278    4.89319    8.50000 65000.00000
 1668.80000    9.89740    3.20849    3.30095    3.23888    2.47714  113.35052    0.35488    3.40453  109.48230    5.26577    8.50000 65000.00000
 1668.90000    9.86535    3.18782    3.29464    3.23505    2.47656  112.14240    0.35668    3.40868  108.62522    5.01984    8.50000 65000.00000
 1669.00000    9.86330    3.12056    3.21845    3.16353    2.47144  115.32472    0.34810    3.40256  108.39576    5.16412    8.50000 65000.00000
 1669.10000    9.88090    3.03615    3.14850    3.09593    2.47234  115.30775    0.35235    3.40962  109.23821    5.38772    8.50000 65000.00000
 1669.20000    9.87204    3.15816    3.29863    3.24837    2.46522  117.10163    0.35171    3.39245  109.17476    5.41419    8.50000 65000.00000
 1669.30000    9.87507    2.97633    3.14770    3.10730    2.46913  118.68766    0.35680    3.39119  109.25428    5.58280    8.50000 65000.00000
 1669.40000    9.83444    3.00681    3.17671    3.14043    2.46665  118.53816    0.35497    3.40575  108.63376    5.71918    8.50000 65000.00000
 1669.50000    9.85233    2.97028    3.13055    3.08439    2.46341  117.03276    0.35188    3.41756  109.37142    5.58278    8.50000 65000.00000
 1669.60000    9.85793    2.85653    3.01578    2.97670    2.46380  116.40317    0.34906    3.43448  109.00884    5.80909    8.50000 65000.00000
 1669.70000    9.82532    2.91869    3.08208    3.03799    2.45728  116.69041    0.34676    3.46376  109.91137   -9999.25    8.50000 65000.00000
 1669.80000    9.82096    2.88100    3.04926    3.00434    2.45300  114.74360    0.34805    3.48942  109.95468    5.90084    8.50000 65000.00000
 1669.90000    9.81943    2.95248    3.11803    3.07538    2.45610  114.79113    0.34785    3.50204  109.67461    5.93735    8.50000 65000.00000
 1670.00000    9.81015    2.96661    3.14018    3.10071    2.45812  114.30207    0.34616    3.49619  108.99354    6.02065    8.50000 65000.00000
 1670.10000    9.82805    2.94741    3.12003    3.06580    2.45310  116.74018    0.34498    3.48812  109.70152    6.34441    8.50000 65000.00000
 1670.20000    9.80024    2.91110    3.12506    3.06051    2.45793  117.25607    0.34494    3.48977  109.83493    6.17177    8.50000 65000.00000
 1670.30000    9.79537    2.89726    3.11444    3.05369   -9999.25  117.42544    0.34297    3.48015  109.48150    6.00737    8.50000 65000.00000
 1670.40000    9.78717    2.92477    3.18163    3.09463    2.45714  117.29626    0.34097    3.48972  108.94474    5.59848    8.50000 65000.00000
 1670.50000    9.83238    2.92658    3.15503    3.06959    2.46065  116.98744    0.34364    3.50233  108.98953    5.50645    8.50000 65000.00000
 1670.60000    9.82313    2.76009    2.95015    2.88275    2.46138  117.15330    0.34317    3.48939  109.02646    5.42635    8.50000 65000.00000
 1670.70000    9.83758    2.74868    2.93380    2.86295    2.46433  118.38720    0.34509    3.46961  108.36995    5.58375    8.50000 65000.00000
 1670.80000    9.84367    2.59264    2.76109    2.69892    2.46506  117.55348    0.34605    3.46602  106.92269    5.56533    8.50000 65000.00000
 1670.90000    9.87296    2.57788    2.73796    2.68534    2.46356  116.58151    0.34974    3.45817  107.12752    5.61352    8.50000 65000.00000
 1671.00000    9.86751    2.53598    2.66495    2.61259    2.46585  116.35301    0.34667    3.45723  107.46664    6.01001    8.50000 65000.00000
 1671.10000    9.87038   -9999.25    2.73108    2.68774    2.46542  114.38005    0.35472    3.45865  107.84018    5.99240    8.50000 65000.00000
 1671.20000    9.84702    2.64477    2.71831    2.67696    2.46514  115.18146    0.35340    3.45174  107.30790    6.07910    8.50000 65000.00000
 1671.30000    9.85922    2.54042    2.60260    2.57013    2.47138  114.30063    0.35107    3.45132  107.35481    5.91816    8.50000 65000.00000
 1671.40000    9.85136    2.53807    2.57942    2.54693    2.47130  113.58095    0.34838    3.45480  106.92750    5.80007    8.50000 65000.00000
 1671.50000    9.87845    2.52636    2.55882    2.52826    2.47789  113.17587    0.34781    3.45494  106.88974    5.79346    8.50000 65000.00000
 1671.60000    9.89311    2.61526    2.64602    2.62011    2.47633  114.61129    0.35011    3.44986  106.00559    6.02120    8.50000 65000.00000
 1671.70000    9.90531    2.77722    2.81738    2.81004    2.47749  115.09844    0.35276    3.43743  106.32031    6.01742    8.50000 65000.00000
 1671.80000    9.91331    2.67213    2.71379    2.71250    2.47737  115.94226    0.35465    3.43319  106.28687    5.86111    8.50000 65000.00000
 1671.90000    9.91516    2.67226    2.72348    2.72122    2.47832  118.13686    0.35234    3.40814  105.87748    6.19895    8.50000 65000.00000
