~Version ---------------------------------------------------
VERS.   2.0 : CWLS log ASCII Standard -VERSION 2.0
WRAP.    NO : One line per depth step
DLM . SPACE : Column Data Section Delimiter
~Well ------------------------------------------------------
STRT.m          1000.00000 : START DEPTH
STOP.m          2000.00000 : STOP DEPTH
STEP.m             0.10000 : STEP
NULL.             -9999.25 : NULL VALUE
COMP. FORCE 2020 Recreator : 
WELL.   WELL_FORCE_2020_09 : 
FLD .                      : FIELD
LOC .                      : LOCATION
PROV.                      : PROVINCE
CNTY.                      : COUNTY
STAT.                      : STATE
CTRY.                      : COUNTRY
SRVC.                      : SERVICE COMPANY
DATE.                      : DATE
UWI .                      : UNIQUE WELL ID
API .                      : API NUMBER
~Curve Information -----------------------------------------
DEPT                            .m      : 
CALI                            .in     : 
RSHA                            .ohm.m  : 
RMED                            .ohm.m  : 
RDEP                            .ohm.m  : 
RHOB                            .g/cm3  : 
GR                              .gAPI   : 
NPHI                            .v/v    : 
PEF                             .b/e    : 
DTC                             .us/ft  : 
SP                              .mV     : 
BS                              .in     : 
FORCE_2020_LITHOFACIES_LITHOLOGY.code   : 
~Params ----------------------------------------------------
~Other -----------------------------------------------------
~ASCII -----------------------------------------------------
# ...
 1201.60000    8.57518  209.42909  210.33592  215.89751    1.40179   29.21712    0.51235    1.62808  122.43819   -7.18762    8.50000 90000.00000
 1201.70000    8.57421  203.93071  205.09586  209.59238    1.40823   29.41599    0.51329    1.62412  122.66141   -7.89050    8.50000 90000.00000
 1201.80000    8.57345  245.06724  247.99823  252.14158    1.40604   29.21822    0.51446    1.62327  122.64693   -7.97227    8.50000 90000.00000
 1201.90000    8.57563  238.60953  243.41879  248.24838    1.40585   29.03250    0.51554    1.61917  124.22840   -7.90958    8.50000 90000.00000
 1202.00000    8.57760  239.02757  244.10841  248.94944    1.39648   28.57436    0.51541    1.62429  125.99097   -8.35887    8.50000 90000.00000
 1202.10000    8.57882  232.19544  235.66760  241.03196    1.41104   27.68550    0.51319    1.63790  127.02664   -8.08311    8.50000 90000.00000
 1202.20000    8.57791  233.08797  236.17335  241.20453    1.41192   27.29221    0.50956    1.64032  126.66166   -8.07208    8.50000 90000.00000
 1202.30000    8.58063  240.45652  241.94411  247.40198    1.41347   28.28101    0.50521    1.61980  126.52824   -8.46377    8.50000 90000.00000
 1202.40000    8.58287  334.22135  319.80487  320.47621    1.40717   28.96395    0.50488    1.61737  126.70594   -8.42293    8.50000 90000.00000
 1202.50000    8.58666  342.35606  328.83773  329.25821    1.40451   28.99906    0.50791    1.62296  127.45341   -8.31183    8.50000 90000.00000
 1202.60000    8.58925  329.47013  315.57024  315.91763    1.41148   29.06770    0.50675    1.61792  127.14468   -8.62845    8.50000 90000.00000
 1202.70000    8.58744  320.93078  309.26355  310.22633    1.40872   29.19538    0.50486    1.62749  126.53342   -8.80649    8.50000 90000.00000
 1202.80000   -9999.25  323.00456  311.47149  312.63919    1.41354   29.38416    0.50632    1.63189  125.83883   -8.72279    8.50000 90000.00000
 1202.90000    8.59111  323.83767  312.22725  313.31046    1.41308   29.93123    0.50560    1.62427  126.29921   -9.26937    8.50000 90000.00000
 1203.00000    8.58874  307.86693  298.32256  297.72329    1.40664   30.16869    0.50678    1.64232  126.10816   -9.27021    8.50000 90000.00000
 1203.10000    8.58889  315.22268  305.06847  304.66288    1.40810   29.55162    0.50683    1.63327  126.72944   -9.22689    8.50000 90000.00000
 1203.20000    8.58879  313.07577  302.90412  302.25066    1.40924   28.67149    0.50824    1.63920  126.15395   -8.54658    8.50000 90000.00000
 1203.30000    8.58966  309.41346  299.19909  297.92515    1.41062   29.52332    0.50859    1.65039  126.32574   -8.81392    8.50000 90000.00000
 1203.40000    8.59100  317.78286  307.80327  306.68397    1.41097   30.08183    0.51739    1.65393  124.03170   -8.22864    8.50000 90000.00000
 1203.50000    8.59053  316.53376  306.62801  305.51356    1.40978   30.46493    0.51462    1.63995  124.95468   -8.82549    8.50000 90000.00000
 1203.60000    8.59100  313.16663  302.08764  301.30438    1.41235   31.02048    0.51139    1.63946  126.33367   -8.67183    8.50000 90000.00000
 1203.70000    8.58892  320.02061  305.18129  300.85134    1.42078   31.37690    0.50846    1.63933  126.34338   -8.68586    8.50000 90000.00000
 1203.80000    8.58619  326.60037  310.85612  306.67518    1.41861   31.86216    0.50937    1.65872  124.89690   -8.11910    8.50000 90000.00000
 1203.90000    8.58643  283.46504  266.52754  262.88650    1.42305   31.23749    0.51057    1.65902  124.52566   -7.87668    8.50000 90000.00000
 1204.00000    8.58468  283.38080  266.97309  262.80432    1.42280   30.21634    0.51341    1.66743  122.70167   -8.08834    8.50000 90000.00000
 1204.10000    8.58391  285.14401  268.35041  264.14760    1.42793   29.95257    0.51718    1.65904  122.40053   -7.81304    8.50000 90000.00000
 1204.20000    8.58321  286.70908  269.86765  265.63720    1.41520   29.95082    0.52369    1.66043  121.24299   -8.16770    8.50000 90000.00000
 1204.30000    8.58181  294.60151  273.01382  271.50635    1.41424   30.40309    0.52432    1.67132  122.31578   -8.25719    8.50000 90000.00000
 1204.40000    8.57952  286.52494  265.09046  263.32593    1.41150   29.20117    0.52411    1.68794  123.02685   -8.51113    8.50000 90000.00000
 1204.50000    8.57891  185.60257  181.16277  182.63956    1.41060   28.74837    0.52583    1.69376  122.63384   -9.06673    8.50000 90000.00000
 1204.60000    8.57446  183.49885  177.91195  179.56374    1.41982   28.72029    0.52023    1.68034  123.40599   -8.94911    8.50000 90000.00000
 1204.70000    8.57376  179.38617  171.23281  174.19928    1.41813   28.78984    0.52434    1.68186  122.60902   -8.89084    8.50000 90000.00000
 1204.80000    8.57294  184.10162  178.89344  180.30439    1.42494   28.50192    0.52610    1.67335  122.39249   -8.30824    8.50000 90000.00000
 1204.90000    8.57195  178.61012  173.34818  175.18098    1.42682   28.29687    0.52533    1.66255  122.19684   -8.78063    8.50000 90000.00000
 1205.00000    8.56995  185.12398  181.06700  182.65199    1.42596   28.40346    0.52954    1.66378  121.31312   -8.79634    8.50000 90000.00000
 1205.10000    8.57149  186.00086  181.96421  183.68406    1.42839   27.89754    0.52777    1.65412  121.51693   -8.74247    8.50000 90000.00000
 1205.20000    8.57502  181.59599  177.20119  179.43590    1.43379   28.15245    0.53146    1.67600  121.09364   -8.94285    8.50000 90000.00000
 1205.30000    8.57574  185.39727  180.84642  184.21771    1.43618   29.25913    0.53032    1.66825  121.34109   -9.28352    8.50000 90000.00000
 1205.40000    8.57580  182.90036  177.92926  181.50261    1.43539   28.62310    0.53013    1.68202  121.04575   -9.35542    8.50000 90000.00000
 1205.50000    8.57942  175.99178  170.67812  174.14241    1.43754   28.25473    0.52307    1.68386  122.20337   -9.67200    8.50000 90000.00000
 1205.60000    8.57882  184.89572  178.59394  181.93667    1.43739   27.58373    0.52636    1.68959  121.63824   -9.55549    8.50000 90000.00000
 1205.70000    8.57807  187.05784  179.94728  183.24390    1.43858   27.94823    0.52823    1.67387  121.22689   -9.90732    8.50000 90000.00000
 1205.80000    8.57961  152.42426  148.37164  150.78239    1.42964   28.91061    0.52951    1.65818  121.75041   -9.79678    8.50000 90000.00000
 1205.90000    8.58019  144.76650  142.08340  144.33997    1.42448   29.04024    0.52992    1.64309  122.17897   -9.89986    8.50000 90000.00000
 1206.00000    8.58271  153.01867  150.13291  151.59100    1.42946   29.83555    0.52984    1.65221  123.95914  -10.53452    8.50000 90000.00000
 1206.10000    8.58350  149.09191  144.93650  147.02471    1.42614   31.03206    0.52628    1.63063  124.42595  -10.41964    8.50000 90000.00000
 1206.20000    8.58095  159.82128  154.68125  157.04652    1.42282   31.20698    0.52431    1.63689  123.93993  -10.22004    8.50000 90000.00000
 1206.30000    8.58245  160.75650  156.06098  158.76273    1.42446   31.23690    0.52126    1.62778  123.10293  -10.16045    8.50000 90000.00000
 1206.40000    8.58528  176.01983  173.35746  174.91814    1.42283   31.21177    0.52124    1.61232  122.26027   -9.90764    8.50000 90000.00000
 1206.50000    8.58425  176.35915  175.03819  176.10081    1.43815   31.91124    0.52054    1.60795  120.71628   -9.42014    8.50000 90000.00000
 1206.60000    8.58583  250.38809  243.55912  243.52006    1.43595   30.99667    0.51817    1.60676  120.34366   -9.03504    8.50000 90000.00000
 1206.70000    8.58642  243.94437  237.10894  236.98570    1.43089   30.81522    0.52475    1.61267  119.74655   -9.00845    8.50000 90000.00000
 1206.80000    8.58384  240.29613  233.23750  233.15693    1.43200   31.02489    0.52342    1.61836  120.94931   -9.07686    8.50000 90000.00000
 1206.90000    8.58750  231.21917  221.67982  222.68326    1.43596   31.11658    0.51874    1.62189  120.20900   -9.36335    8.50000 90000.00000
 1207.00000    8.59036  229.27201  220.17803  220.86565    1.42825   31.74387    0.51832    1.62158  119.89019   -9.29083    8.50000 90000.00000
 1207.10000    8.59396  229.40193  220.91582  221.59076    1.42690   31.59970    0.51636    1.62724  121.19654   -8.93204    8.50000 90000.00000
