~Version ---------------------------------------------------
VERS.   2.0 : CWLS log ASCII Standard -VERSION 2.0
WRAP.    NO : One line per depth step
DLM . SPACE : Column Data Section Delimiter
~Well ------------------------------------------------------
STRT.m          1000.00000 : START DEPTH
STOP.m          2000.00000 : STOP DEPTH
STEP.m             0.10000 : STEP
NULL.             -9999.25 : NULL VALUE
COMP. FORCE 2020 Recreator : 
WELL.   WELL_FORCE_2020_03 : 
FLD .                      : FIELD
LOC .                      : LOCATION
PROV.                      : PROVINCE
CNTY.                      : COUNTY
STAT.                      : STATE
CTRY.                      : COUNTRY
SRVC.                      : SERVICE COMPANY
DATE.                      : DATE
UWI .                      : UNIQUE WELL ID
API .                      : API NUMBER
~Curve Information -----------------------------------------
DEPT                            .m      : 
CALI                            .in     : 
RSHA                            .ohm.m  : 
RMED                            .ohm.m  : 
RDEP                            .ohm.m  : 
RHOB                            .g/cm3  : 
GR                              .gAPI   : 
NPHI                            .v/v    : 
PEF                             .b/e    : 
DTC                             .us/ft  : 
SP                              .mV     : 
BS                              .in     : 
FORCE_2020_LITHOFACIES_LITHOLOGY.code   : 
~Params ----------------------------------------------------
~Other -----------------------------------------------------
~ASCII -----------------------------------------------------
# ...
 1733.30000    9.84770    2.96451    3.00736    2.97949    2.48782  114.02492    0.35799    3.40302  109.85772    5.22964    8.50000 65000.00000
 1733.40000    9.86749    2.90994    2.96133    2.93261    2.48769  113.76429    0.36109    3.39979  110.30002    5.34133    8.50000 65000.00000
 1733.50000    9.88352    2.99193    3.03982    3.01272    2.49410  113.81296    0.36559    3.40326  109.32965    5.58145    8.50000 65000.00000
 1733.60000    9.85282    3.06548    3.11327    3.09697    2.48531  114.43373    0.36612    3.40564  109.10925    5.56381    8.50000 65000.00000
 1733.70000    9.87166    3.10907    3.13477    3.12134    2.49232  114.99533    0.36867    3.39864  108.05561    5.39230    8.50000 65000.00000
 1733.80000    9.86253    3.14469    3.14852    3.13495    2.49792  114.69127    0.37056    3.37850  108.11040    5.74168    8.50000 65000.00000
 1733.90000    9.86513    3.10957    3.10204    3.10457    2.49438  116.67818    0.36711    3.38495  108.26528    5.68181    8.50000 65000.00000
 1734.00000    9.85727    3.14511    3.10418    3.11286    2.49410  116.85309    0.36588    3.36878  108.52036    5.50584    8.50000 65000.00000
 1734.10000    9.83835    3.10263    3.06261    3.06047    2.49699  117.92865    0.36691    3.35447  107.99845    5.64111    8.50000 65000.00000
 1734.20000    9.84348    3.16706    3.14067    3.13118    2.49254  117.50102    0.36503    3.36469  107.14134    5.74636    8.50000 65000.00000
 1734.30000    9.84806    3.21163    3.17442    3.16303    2.49135  117.41377    0.36435    3.36894  107.85132    5.70902    8.50000 65000.00000
 1734.40000    9.85454    3.20526    3.18247    3.18903    2.49168  117.68303    0.36576    3.35489  108.18420    5.38396    8.50000 65000.00000
 1734.50000    9.83042    3.14911    3.09929    3.11641    2.48351  117.95461    0.36487    3.36374  107.86402    5.30260    8.50000 65000.00000
 1734.60000    9.84217    3.12030    3.06721    3.08092    2.48429  116.94708    0.36255    3.36011  107.41513    5.40475    8.50000 65000.00000
 1734.70000    9.84066    2.69405    2.76452    2.77707    2.48124  117.63227    0.36120    3.36037  107.11647    5.48650    8.50000 65000.00000
 1734.80000    9.85232    2.64065    2.70557    2.73411    2.48213  117.48214    0.36620    3.38037  107.61359    5.88054    8.50000 65000.00000
 1734.90000    9.89763    2.64748    2.68802    2.71709    2.48519  115.16719    0.37042    3.38375  107.91925    6.19953    8.50000 65000.00000
 1735.00000    9.90309    2.66492    2.69612    2.72456    2.48326  116.49522    0.37198    3.39739  108.66647    5.98973    8.50000 65000.00000
 1735.10000    9.89270    2.69394    2.72528    2.74812    2.48192  114.25996    0.36895    3.39295  108.20483    5.96975    8.50000 65000.00000
 1735.20000    9.90077    2.75164    2.75752    2.79098    2.48010  114.24730    0.36850    3.39165  107.50484    5.94104    8.50000 65000.00000
 1735.30000    9.90400    2.67220    2.68014    2.69103    2.48579  113.00543    0.36941    3.40395  106.81961    5.91796    8.50000 65000.00000
 1735.40000    9.91825    2.67132    2.64778    2.65169    2.48344  112.13316    0.36653    3.40681  106.78245    5.48321    8.50000 65000.00000
 1735.50000    9.91806    2.75839    2.73387    2.72246    2.48502  112.99190    0.36509    3.41722  106.62634    5.26748    8.50000 65000.00000
 1735.60000    9.89556    2.60998    2.56774    2.55851    2.48135  111.87820    0.35863    3.40732  106.59663    5.13680    8.50000 65000.00000
 1735.70000    9.90325    2.50861    2.46363    2.45347    2.48817  110.56580    0.35797    3.40777  106.52090    5.12280    8.50000 65000.00000
 1735.80000    9.90322    2.55189    2.50602    2.49697    2.47833  111.30449    0.35731    3.42133  107.32250    5.30901    8.50000 65000.00000
 1735.90000    9.89299    2.59521    2.59611    2.59276    2.47817  111.03992    0.35575    3.43052  107.05530    5.46962    8.50000 65000.00000
 1736.00000    9.87450    2.64253    2.64805    2.64000    2.47783  110.39887    0.35695    3.43559  107.40340    5.31950    8.50000 65000.00000
 1736.10000    9.89255    2.55090    2.55649    2.55399    2.47589  108.58499    0.35720    3.43015  106.35211    5.55648    8.50000 65000.00000
 1736.20000    9.92825    2.54624    2.51509    2.53185    2.47954  109.11174    0.35603    3.43485  106.78085    5.43848    8.50000 65000.00000
 1736.30000    9.91254    2.46633    2.43441    2.45636    2.47837  109.29720    0.35242    3.44299  107.04395    5.23568    8.50000 65000.00000
 1736.40000    9.88809    2.43059    2.42502    2.44603    2.47929  109.65922    0.35232    3.47043  107.26522    5.50297    8.50000 65000.00000
 1736.50000    9.86130    2.45217    2.44654    2.47418    2.48130  108.48353    0.35405    3.49306  106.60023    5.40401    8.50000 65000.00000
 1736.60000    9.88769    2.44784    2.44999    2.47520    2.49222  109.10630    0.35478    3.48736  106.46655    5.59775    8.50000 65000.00000
 1736.70000    9.87727    2.53621    2.54498    2.56536    2.48540  109.45537    0.35612    3.47889  106.81682    5.20204    8.50000 65000.00000
 1736.80000    9.90795    2.52333    2.51230    2.52967    2.48422  108.18844    0.35319    3.47700  106.53881    5.00049    8.50000 65000.00000
 1736.90000    9.90125    2.54865    2.54933    2.55807    2.48597  108.46933    0.35024    3.46728  105.99946    4.87254    8.50000 65000.00000
 1737.00000    9.87831    2.52680    2.55916    2.56812    2.48688  109.62062    0.34680    3.46859  105.97585    4.42882    8.50000 65000.00000
 1737.10000    9.88084    2.58153    2.64216    2.64066    2.48913  108.07553    0.34777    3.45765  106.37821    4.48363    8.50000 65000.00000
 1737.20000    9.92271    2.62341    2.68985    2.69356    2.49460  109.22794    0.34902    3.44119  106.89666    4.52872    8.50000 65000.00000
 1737.30000    9.91974    2.54173    2.64923    2.64292    2.49450  109.74762    0.35012    3.44293  106.73928    4.28074    8.50000 65000.00000
 1737.40000    9.91448    2.66867    2.75253    2.75414    2.48910  110.13853    0.35190    3.43621  107.63976    4.31313    8.50000 65000.00000
 1737.50000    9.92411    2.63270    2.73389    2.73374    2.48989  111.77368    0.35461    3.41711  107.18767    4.82376    8.50000 65000.00000
 1737.60000    9.90190    2.56782    2.66064    2.67838    2.48673  111.77098    0.35494    3.39055  106.93520    4.66778    8.50000 65000.00000
 1737.70000    9.94150    2.67855    2.77950    2.79568    2.48734  112.29714    0.35878    3.38212  107.26642    4.67248    8.50000 65000.00000
 1737.80000    9.99545    2.76536    2.89909    2.88632    2.48680  113.67685    0.35883    3.39290  107.27594    4.59000    8.50000 65000.00000
 1737.90000    9.98114    2.73235    2.88595    2.88270    2.49385  111.73454    0.35615    3.38939  106.08492    4.64998    8.50000 65000.00000
 1738.00000    9.94031    2.63983    2.75114    2.77062    2.49128  112.30979    0.35749    3.37571  106.21015    4.08925    8.50000 65000.00000
 1738.10000    9.91888    2.68995    2.80894    2.82997    2.49061  112.91511    0.35779    3.36205  105.98277    3.99597    8.50000 65000.00000
 1738.20000    9.91738    2.76450    2.88766    2.90165    2.49250  113.02024    0.35648    3.36538  106.29867    3.79812    8.50000 65000.00000
 1738.30000    9.90556    2.68823    2.83684    2.83600    2.48752  112.10652    0.35710    3.35266  106.90117    3.59010    8.50000 65000.00000
 1738.40000    9.91004    2.76471    2.90826    2.90016    2.49178  113.21127    0.35664    3.34745  107.08049    3.80288    8.50000 65000.00000
 1738.50000    9.88986    2.77382    2.92072    2.90856    2.49371  112.78142    0.35310    3.32476  106.54184    3.78676    8.50000 65000.00000
 1738.60000    9.90608    2.71131    2.85609    2.82913    2.48905  111.60442    0.34701    3.30043  107.62988    3.97899    8.50000 65000.00000
 1738.70000    9.90940    2.74438    2.92126    2.87531    2.48193  111.46157    0.34971    3.31376  107.59221    4.04822    8.50000 65000.00000
 1738.80000    9.93574    2.63050    2.80726    2.76261    2.48779  110.87413    0.34737    3.31791  107.16824    4.13832    8.50000 65000.00000
