~Version ---------------------------------------------------
VERS.   2.0 : CWLS log ASCII Standard -VERSION 2.0
WRAP.    NO : One line per depth step
DLM . SPACE : Column Data Section Delimiter
~Well ------------------------------------------------------
STRT.m          1000.00000 : START DEPTH
STOP.m          2000.00000 : STOP DEPTH
STEP.m             0.10000 : STEP
NULL.             -9999.25 : NULL VALUE
COMP. FORCE 2020 Recreator : 
WELL.   WELL_FORCE_2020_07 : 
FLD .                      : FIELD
LOC .                      : LOCATION
PROV.                      : PROVINCE
CNTY.                      : COUNTY
STAT.                      : STATE
CTRY.                      : COUNTRY
SRVC.                      : SERVICE COMPANY
DATE.                      : DATE
UWI .                      : UNIQUE WELL ID
API .                      : API NUMBER
~Curve Information -----------------------------------------
DEPT                            .m      : 
CALI                            .in     : 
RSHA                            .ohm.m  : 
RMED                            .ohm.m  : 
RDEP                            .ohm.m  : 
RHOB                            .g/cm3  : 
GR                              .gAPI   : 
NPHI                            .v/v    : 
PEF                             .b/e    : 
DTC                             .us/ft  : 
SP                              .mV     : 
BS                              .in     : 
FORCE_2020_LITHOFACIES_LITHOLOGY.code   : 
~Params ----------------------------------------------------
~Other -----------------------------------------------------
~ASCII -----------------------------------------------------
# ...
 1464.80000    8.32869   17.34541   17.76876   17.74102    2.34538   47.69703    0.18811    1.85300   81.48996  -34.82866    8.50000 30000.00000
 1464.90000    8.32871   17.48929   17.78884   17.73620    2.34506   48.77892    0.18788    1.84773   81.09012  -34.66659    8.50000 30000.00000
 1465.00000    8.33064   16.76462   16.87555   16.97161    2.34049   48.71341    0.19138    1.84460   81.64334  -35.02242    8.50000 30000.00000
 1465.10000    8.32906   16.36970   16.33639   16.46296    2.34184   49.60505    0.19271    1.85273   81.90099  -35.38460    8.50000 30000.00000
 1465.20000    8.33012   16.17283   16.04554   16.25200    2.34186   49.58901    0.19350    1.85729   82.11210  -35.33081    8.50000 30000.00000
 1465.30000    8.33408   17.00432   16.99454   17.21636    2.33984   49.49690    0.19310    1.85116   82.09216  -35.01435    8.50000 30000.00000
 1465.40000    8.33720   17.99368   17.96717   18.14293    2.33758   49.28379    0.19097    1.84472   82.24651  -34.73084    8.50000 30000.00000
 1465.50000    8.33724   17.48013   17.27522   17.39542    2.33847   49.50076    0.19077    1.83870   81.94429  -34.91559    8.50000 30000.00000
 1465.60000    8.33824   17.54989   17.46739   17.54957    2.34516   49.41368    0.18991    1.84327   81.44188  -34.59292    8.50000 30000.00000
 1465.70000    8.33414   16.86181   16.99316   16.96382    2.34614   47.83582    0.18903    1.83925   80.75170  -34.94231    8.50000 30000.00000
 1465.80000    8.33632   15.82034   15.92528   15.85516    2.34688   47.33645    0.18813    1.83845   80.47135  -34.86968    8.50000 30000.00000
 1465.90000    8.33583   16.06603   16.17183   16.11927    2.34800   46.91226    0.19178    1.83945   80.54272  -34.96410    8.50000 30000.00000
 1466.00000    8.33191   17.22734   17.61248   17.60452    2.34857   47.33754    0.19204    1.83636   80.38590  -34.98056    8.50000 30000.00000
 1466.10000    8.32807   16.81952   17.15862   17.31342    2.34910   46.71392    0.19395    1.83577   80.29334  -35.07526    8.50000 30000.00000
 1466.20000    8.32644   16.79544   17.26746   17.46739    2.34851   47.29028    0.19297    1.83574   80.21748  -35.44228    8.50000 30000.00000
 1466.30000    8.32964   17.30226   17.71158   17.99939    2.34928   47.09357    0.19204    1.83563   80.37199  -35.39201    8.50000 30000.00000
 1466.40000    8.33177   17.21127   17.68174   17.95937    2.34624   46.99237    0.19584    1.83836   80.29505  -34.73978    8.50000 30000.00000
 1466.50000    8.32690   18.40892   18.70880   18.98159    2.34584   46.62497    0.19674    1.83592   80.03769  -34.78419    8.50000 30000.00000
 1466.60000    8.32638   19.06709   19.31805   19.69573    2.33974   46.92060    0.19864    1.83584   80.42615  -34.73868    8.50000 30000.00000
 1466.70000    8.32775   19.79122   19.87592   20.24292    2.33912   47.41421    0.19704    1.83453   80.23559  -35.12455    8.50000 30000.00000
 1466.80000    8.32246   20.34705   20.32104   20.66832    2.34391   46.62799    0.19710    1.83086   80.33822  -35.09159    8.50000 30000.00000
 1466.90000    8.32460   20.71581   20.71438   21.09179    2.34758   46.19372    0.19533    1.84228   80.49930  -34.73988    8.50000 30000.00000
 1467.00000    8.32297   20.23979   20.32267   20.70997    2.34612   45.75532    0.19606    1.83806   80.84807  -34.84943    8.50000 30000.00000
 1467.10000    8.32310   23.80089   23.93319   24.15818    2.35044   46.02669    0.19472    1.83306   80.24592  -34.72250    8.50000 30000.00000
 1467.20000    8.32628   25.55606   25.97187   26.08754    2.35531   45.19911    0.19365    1.82575   80.03571  -34.59467    8.50000 30000.00000
 1467.30000    8.31944   26.91893   27.36820   27.48157    2.35547   45.10764    0.19278    1.81257   80.38664  -34.86908    8.50000 30000.00000
 1467.40000    8.31937   26.80726   27.27370   27.33297    2.35253   44.97975    0.19193    1.82033   80.51292  -34.82723    8.50000 30000.00000
 1467.50000    8.31790   26.01808   26.50493   26.65054    2.35204   44.85250    0.19454    1.81500   80.90792  -34.87048    8.50000 30000.00000
 1467.60000    8.31563   25.62542   26.01792   26.16335    2.35002   44.63229    0.19495    1.80882   81.33586  -34.49133    8.50000 30000.00000
 1467.70000    8.31289   27.05425   27.18664   27.24621    2.34720   45.20759    0.19305    1.80576   81.74519  -34.30695    8.50000 30000.00000
 1467.80000    8.31296   26.76388   26.84776   27.04657    2.34226   45.73361    0.19274    1.80980   82.02500  -34.26262    8.50000 30000.00000
 1467.90000    8.31425   27.27437   27.32538   27.57560    2.34241   46.69933    0.19447    1.80659   82.15921  -34.46579    8.50000 30000.00000
 1468.00000    8.31355   27.37251   27.47380   27.71390    2.34566   46.70243    0.19173    1.80883   81.86888  -34.31697    8.50000 30000.00000
 1468.10000    8.31731   27.21392   26.90566   27.11914    2.34462   45.70658    0.19307    1.79931   82.06256  -34.71554    8.50000 30000.00000
 1468.20000    8.32235   26.65339   26.45184   26.60671    2.34441   45.88711    0.19400    1.79536   82.36116  -35.09452    8.50000 30000.00000
 1468.30000    8.32419   29.05878   28.94506   29.06467    2.34370   45.64844    0.19606    1.78962   82.67336  -35.00682    8.50000 30000.00000
 1468.40000    8.32233   29.91284   29.83168   29.97374    2.34647   45.46225    0.19708    1.79172   82.93792  -35.30773    8.50000 30000.00000
 1468.50000    8.32276   30.26650   30.14746   30.29984    2.34838   45.58324    0.19367    1.79117   82.44646  -35.98985    8.50000 30000.00000
 1468.60000    8.32971   28.93791   28.99454   29.14905    2.35007   45.44979    0.19130    1.78899   82.74190  -35.80758    8.50000 30000.00000
 1468.70000    8.32934   27.65955   27.56633   27.67568    2.34721   44.62111    0.19002    1.78321   82.83716  -35.94319    8.50000 30000.00000
 1468.80000    8.32367   27.55828   27.64417   27.66866    2.34902   43.81849    0.19070    1.77256   83.43515  -36.23897    8.50000 30000.00000
 1468.90000    8.32808   26.76134   26.92345   26.94967    2.34850   43.91212    0.19144    1.77479   83.79043  -36.44198    8.50000 30000.00000
 1469.00000    8.32614   26.54137   26.68482   26.67233    2.35040   43.62048    0.19221    1.77378   83.92560  -36.64450    8.50000 30000.00000
 1469.10000    8.32453   27.21736   27.44663   27.39531    2.34784   43.53623    0.19079    1.78675   83.92139  -36.42953    8.50000 30000.00000
 1469.20000    8.32117   23.84920   24.23697   24.29999    2.34555   42.98223    0.19476    1.79627   84.03811  -36.27381    8.50000 30000.00000
 1469.30000    8.31987   22.02699   22.16475   22.29278    2.34379   44.22791    0.19576    1.79531   83.73707  -36.19379    8.50000 30000.00000
 1469.40000    8.32452   20.53057   20.63903   20.76806    2.34247   44.47429    0.19482    1.80283   83.72347  -36.43171    8.50000 30000.00000
 1469.50000    8.31788   23.29153   23.95726   23.89779    2.35153   43.89303    0.19415    1.80243   83.62962  -36.58304    8.50000 30000.00000
 1469.60000    8.31594   23.50780   24.18882   24.09009    2.35115   44.21607    0.19369    1.81385   83.37361  -37.12958    8.50000 30000.00000
 1469.70000    8.31486   25.39740   25.96423   25.86225    2.34758   45.28331    0.19445    1.82003   83.18478  -36.95653    8.50000 30000.00000
 1469.80000    8.31932   24.63758   25.38768   25.40887    2.34720   44.75010    0.19436    1.81871   83.00381  -37.07647    8.50000 30000.00000
 1469.90000    8.32351   24.78118   25.82751   25.61933    2.34646   44.72627    0.19191    1.81721   83.33308  -36.98198    8.50000 30000.00000
 1470.00000    8.32209   26.66640   27.46831   27.16400    2.34297   44.30258    0.19204    1.82020   83.45077  -36.49252    8.50000 30000.00000
 1470.10000    8.32342   26.66739   27.26666   26.93672    2.33907   43.93828    0.19260    1.82053   83.54347  -36.64487    8.50000 30000.00000
 1470.20000    8.32175   25.59389   26.42555   26.01213    2.33827   45.02018    0.19519    1.83483   83.38960  -36.32896    8.50000 30000.00000
 1470.30000    8.32007   25.65252   26.51974   26.07852    2.34262   44.88143    0.19180    1.83615   83.73146  -35.78391    8.50000 30000.00000
