~Version ---------------------------------------------------
VERS.   2.0 : CWLS log ASCII Standard -VERSION 2.0
WRAP.    NO : One line per depth step
DLM . SPACE : Column Data Section Delimiter
~Well ------------------------------------------------------
STRT.m          1000.00000 : START DEPTH
STOP.m          2000.00000 : STOP DEPTH
STEP.m             0.10000 : STEP
NULL.             -9999.25 : NULL VALUE
COMP. FORCE 2020 Recreator : 
WELL.   WELL_FORCE_2020_06 : 
FLD .                      : FIELD
LOC .                      : LOCATION
PROV.                      : PROVINCE
CNTY.                      : COUNTY
STAT.                      : STATE
CTRY.                      : COUNTRY
SRVC.                      : SERVICE COMPANY
DATE.                      : DATE
UWI .                      : UNIQUE WELL ID
API .                      : API NUMBER
~Curve Information -----------------------------------------
DEPT                            .m      : 
CALI                            .in     : 
RSHA                            .ohm.m  : 
RMED                            .ohm.m  : 
RDEP                            .ohm.m  : 
RHOB                            .g/cm3  : 
GR                              .gAPI   : 
NPHI                            .v/v    : 
PEF                             .b/e    : 
DTC                             .us/ft  : 
SP                              .mV     : 
BS                              .in     : 
FORCE_2020_LITHOFACIES_LITHOLOGY.code   : 
~Params ----------------------------------------------------
~Other -----------------------------------------------------
~ASCII -----------------------------------------------------
# ...
 1067.20000    8.32862   19.61682   18.80813   18.82473    2.33531   45.55691    0.20140    1.87237   83.33069  -36.35694    8.50000 30000.00000
 1067.30000    8.32640   22.18030   21.09259   21.26443    2.33861   45.98747    0.20031    1.87892   82.78496  -36.01376    8.50000 30000.00000
 1067.40000    8.32156   22.69709   21.58160   21.82805    2.34029   47.06508    0.19956    1.88070   82.42963  -36.01833    8.50000 30000.00000
 1067.50000    8.31922   22.40146   21.31648   21.59023    2.34595   46.41336    0.19788    1.87630   82.17280  -35.53525    8.50000 30000.00000
 1067.60000    8.32025   22.64543   21.56280   21.88180    2.34764   47.44854    0.19890    1.88035   82.96602  -35.77043    8.50000 30000.00000
 1067.70000    8.31971   21.33835   20.49198   20.76774    2.34835   47.69037    0.19790    1.87845   83.33240  -35.95253    8.50000 30000.00000
 1067.80000    8.31747   21.49933   20.52928   20.86701    2.34550   47.70391    0.19539    1.87816   82.81459  -35.84199    8.50000 30000.00000
 1067.90000    8.32036   22.09951   21.11204   21.35081    2.34541   48.47228    0.19456    1.87484   82.81627  -35.65542    8.50000 30000.00000
 1068.00000    8.31838   22.14680   21.20602   21.43101    2.34397   47.85954    0.19302    1.85730   82.75910  -35.69886    8.50000 30000.00000
 1068.10000    8.32276   25.28898   24.05855   24.25951    2.34844   46.75441    0.19187    1.86043   83.26393  -35.23247    8.50000 30000.00000
 1068.20000    8.32177   24.62145   23.41147   23.63374    2.34688   47.41334    0.19350    1.86228   82.89183  -35.07022    8.50000 30000.00000
 1068.30000    8.32249   24.69151   23.52633   23.73542    2.34362   47.41978    0.19252    1.85659   82.71939  -35.35694    8.50000 30000.00000
 1068.40000    8.32292   24.24663   23.05184   23.30970    2.34232   47.45186    0.19206    1.85093   82.32488  -34.58956    8.50000 30000.00000
 1068.50000    8.32278   22.85561   21.77973   21.99399    2.34267   48.30228    0.19154    1.84675   82.24906  -34.60962    8.50000 30000.00000
 1068.60000    8.32454   22.85764   22.02500   22.23910    2.34293   47.51954    0.19066    1.84479   82.60108  -34.62910    8.50000 30000.00000
 1068.70000    8.32574   23.96353   23.25360   23.46884    2.34384   46.75877    0.19026    1.83646   82.68067  -34.67360    8.50000 30000.00000
 1068.80000    8.32968   24.25268   23.20315   23.54702    2.34462   47.06308    0.19002    1.84110   82.70513  -34.76318    8.50000 30000.00000
 1068.90000    8.32956   27.17860   25.78949   26.10753    2.34360   48.14958    0.18946    1.83629   82.53007  -35.36536    8.50000 30000.00000
 1069.00000    8.32620   26.12606   24.67338   24.89519    2.34192   48.13108    0.19352    1.82318   82.43916  -35.86384    8.50000 30000.00000
 1069.10000    8.32469   24.83798   23.59131   23.86568    2.34146   47.40058    0.19564    1.82510   82.19390  -35.75089    8.50000 30000.00000
 1069.20000    8.31978   24.13667   23.06730   23.34352    2.34485   46.85538    0.20097    1.82557   82.19638  -35.26753    8.50000 30000.00000
 1069.30000    8.32073   24.28087   23.17455   23.46090    2.34713   47.41599    0.20140    1.82833   82.21881  -34.83870    8.50000 30000.00000
 1069.40000    8.32521   21.92791   21.04710   21.21056    2.34679   47.35010    0.20322    1.82823   82.43486  -35.07915    8.50000 30000.00000
 1069.50000    8.32646   21.57579   20.78691   20.85596    2.34836   47.01896    0.20473    1.82892   82.61979  -35.02620    8.50000 30000.00000
 1069.60000    8.32974   22.68698   21.74699   21.82192    2.35452   47.32338    0.20438    1.83013   82.73806  -34.87264    8.50000 30000.00000
 1069.70000    8.33070   23.96787   22.76685   22.85254    2.34809   46.88386    0.20199    1.83266   82.04239  -34.30007    8.50000 30000.00000
 1069.80000    8.33058   24.24182   23.19860   23.22143    2.34720   46.35858    0.20257    1.83330   81.75653  -33.59779    8.50000 30000.00000
 1069.90000    8.33059   28.40268   27.24633   27.46778    2.34496   46.64561    0.20257    1.83852   81.81815  -33.56467    8.50000 30000.00000
 1070.00000    8.33429   28.82135   27.74228   28.10335    2.34280   45.84266    0.20157    1.84303   82.06259  -33.08523    8.50000 30000.00000
 1070.10000    8.33260   28.73869   27.65466   28.01563    2.34476   45.49939    0.20446    1.85654   82.13565  -33.03079    8.50000 30000.00000
 1070.20000    8.33518   28.01532   26.99898   27.32057    2.34103   45.99767    0.20713    1.85150   82.05294  -33.46668    8.50000 30000.00000
 1070.30000    8.34004   29.26257   28.20328   28.56929    2.33824   46.14495    0.20825    1.84719   82.01345  -33.85859    8.50000 30000.00000
 1070.40000    8.33831   30.98797   29.80258   30.10080    2.34064   46.62587    0.20839    1.85067   81.98461  -33.65694    8.50000 30000.00000
 1070.50000    8.33976   31.87085   30.78440   31.04753    2.33886   46.09598    0.20923    1.84422   82.47581  -33.77810    8.50000 30000.00000
 1070.60000    8.34202   31.89977   30.74083   31.05298    2.33536   45.21679    0.20687    1.84442   82.27617  -33.28236    8.50000 30000.00000
 1070.70000    8.33976   31.88941   30.64775   31.04265    2.33279   45.49648    0.20411    1.84377   82.12576  -32.90362    8.50000 30000.00000
 1070.80000    8.34006   30.86241   29.40113   29.84082    2.33062   45.35051    0.20479    1.84520   82.04754  -32.77678    8.50000 30000.00000
 1070.90000    8.33396   30.90074   29.66966   29.93552    2.32986   44.82201    0.20617    1.85502   82.05421  -32.77748    8.50000 30000.00000
 1071.00000    8.33348   28.51998   27.60164   27.85093    2.33490   45.04310    0.20723    1.86342   82.07774  -32.28966    8.50000 30000.00000
 1071.10000    8.33648   28.43884   27.51301   27.79372    2.34026   44.50281    0.20832    1.87487   82.14148  -32.33577    8.50000 30000.00000
 1071.20000    8.33824   28.63015   27.73256   28.02807    2.33911   44.85330    0.20632    1.87402   82.30490  -32.05507    8.50000 30000.00000
 1071.30000    8.33906   28.05449   27.12988   27.41372    2.33774   45.10436    0.20092    1.87122   82.31256  -32.90787    8.50000 30000.00000
 1071.40000    8.33383   27.74270   26.80809   27.10864    2.34200   44.37150    0.19982    1.88401   81.79680  -33.35575    8.50000 30000.00000
 1071.50000    8.33314   27.56653   26.72665   26.97073    2.34290   44.41031    0.19793    1.88014   81.19552  -33.23586    8.50000 30000.00000
 1071.60000    8.33504   28.29720   27.39781   27.61446    2.34563   43.99024    0.19704    1.87966   80.57349  -32.69921    8.50000 30000.00000
 1071.70000    8.33576   27.46399   26.67964   26.82886    2.34197   43.89198    0.19974    1.88231   80.75793  -33.06631    8.50000 30000.00000
 1071.80000    8.33197   26.77433   26.18597   26.26131    2.35400   44.20484    0.20154    1.88591   80.54564  -33.05271    8.50000 30000.00000
 1071.90000    8.33104   26.81604   26.08947   26.22991    2.35361   44.03384    0.20146    1.88660   80.23631  -33.26696    8.50000 30000.00000
 1072.00000    8.33152   23.68607   23.15499   23.08334    2.35646   43.74242    0.20683    1.88339   80.84864  -32.91057    8.50000 30000.00000
 1072.10000    8.32714   22.53812   22.02292   21.89908    2.35571   44.58666    0.20728    1.88130   81.05924  -33.05825    8.50000 30000.00000
 1072.20000    8.32687   22.60362   21.96598   21.94644    2.36213   46.43211    0.20389    1.87728   80.86942  -33.10874    8.50000 30000.00000
 1072.30000    8.32390   20.03010   19.79942   19.77442    2.36155   46.90549    0.20492    1.87665   80.58355  -32.48989    8.50000 30000.00000
 1072.40000    8.32088   19.21752   19.13723   19.07776    2.36699   45.72760    0.20505    1.87414   80.29650  -32.61950    8.50000 30000.00000
 1072.50000    8.32282   19.07883   19.32952   19.18155    2.35956   45.23769    0.20436    1.87050   80.54680  -32.75397    8.50000 30000.00000
 1072.60000    8.31816   19.16387   19.24584   19.13587    2.36048   45.14219    0.20412    1.87440   80.20742  -32.46434    8.50000 30000.00000
 1072.70000    8.31456   19.35071   19.47154   19.31856    2.36293   44.70239    0.20455    1.87287   80.72803  -32.75117    8.50000 30000.00000
