~Version ---------------------------------------------------
VERS.   2.0 : CWLS log ASCII Standard -VERSION 2.0
WRAP.    NO : One line per depth step
DLM . SPACE : Column Data Section Delimiter
~Well ------------------------------------------------------
STRT.m          1000.00000 : START DEPTH
STOP.m          2000.00000 : STOP DEPTH
STEP.m             0.10000 : STEP
NULL.             -9999.25 : NULL VALUE
COMP. FORCE 2020 Recreator : 
WELL.   WELL_FORCE_2020_09 : 
FLD .                      : FIELD
LOC .                      : LOCATION
PROV.                      : PROVINCE
CNTY.                      : COUNTY
STAT.                      : STATE
CTRY.                      : COUNTRY
SRVC.                      : SERVICE COMPANY
DATE.                      : DATE
UWI .                      : UNIQUE WELL ID
API .                      : API NUMBER
~Curve Information -----------------------------------------
DEPT                            .m      : 
CALI                            .in     : 
RSHA                            .ohm.m  : 
RMED                            .ohm.m  : 
RDEP                            .ohm.m  : 
RHOB                            .g/cm3  : 
GR                              .gAPI   : 
NPHI                            .v/v    : 
PEF                             .b/e    : 
DTC                             .us/ft  : 
SP                              .mV     : 
BS                              .in     : 
FORCE_2020_LITHOFACIES_LITHOLOGY.code   : 
~Params ----------------------------------------------------
~Other -----------------------------------------------------
~ASCII -----------------------------------------------------
# ...
 1067.20000    8.58306   59.47551   60.25623   59.34729    2.81041   23.35957    0.05186    3.17866   51.75743    2.20929    8.50000 74000.00000
 1067.30000    8.58128   61.25749   62.44603   61.50652    2.80767   23.45522    0.05184    3.16209   51.62750    2.61581    8.50000 74000.00000
 1067.40000    8.58017   80.73261   81.51799   82.06822    2.80753   23.49022    0.05245    3.16595   51.65841    2.92688    8.50000 74000.00000
 1067.50000    8.58016   82.36244   83.38056   83.90608    2.80841   23.58255    0.05485    3.15747   52.06004    2.65080    8.50000 74000.00000
 1067.60000    8.57780   67.72906   69.55987   70.43670    2.80942   23.90265    0.05386    3.15047   52.23243    2.87603    8.50000 74000.00000
 1067.70000    8.57758   73.31849   74.14001   75.21465    2.80668   23.54431    0.05296    3.15179   52.19722    3.42950    8.50000 74000.00000
 1067.80000    8.57576   74.96358   75.89094   76.90812    2.80865   24.11739    0.05582    3.15369   52.02258    3.06618    8.50000 74000.00000
 1067.90000    8.57520   73.70609   74.59983   75.63175    2.80877   24.22389    0.05734    3.16552   52.12437    2.65043    8.50000 74000.00000
 1068.00000    8.57672   76.09391   76.53641   77.54967    2.80765   24.74274    0.05810    3.17138   52.17158    2.52624    8.50000 74000.00000
 1068.10000    8.57873   79.85390   79.71448   80.80563    2.80772   24.51802    0.05835    3.16526   52.11918    2.54793    8.50000 74000.00000
 1068.20000    8.57943   87.67872   88.57902   89.37203    2.81043   24.18991    0.05839    3.16491   51.86039    2.32061    8.50000 74000.00000
 1068.30000    8.57594   89.18773   90.27293   91.13858    2.80987   23.94491    0.06032    3.16105   51.82730    2.28271    8.50000 74000.00000
 1068.40000    8.57511   89.76003   90.71794   91.62382    2.81093   24.12850    0.06152    3.15888   51.85518    2.46276    8.50000 74000.00000
 1068.50000    8.57390   90.32514   91.12121   92.34287    2.81036   25.13469    0.06254    3.16159   52.07251    2.47823    8.50000 74000.00000
 1068.60000    8.57320   90.25611   91.09530   92.58090    2.81488   24.84567    0.06194    3.16149   52.12518    2.85555    8.50000 74000.00000
 1068.70000    8.57327   86.33734   87.69058   89.08398    2.81290   24.91923    0.06035    3.14926   52.16556    2.92021    8.50000 74000.00000
 1068.80000    8.57134   85.06112   85.97900   87.27565    2.81574   25.28810    0.06086    3.15052   52.00119    3.27532    8.50000 74000.00000
 1068.90000    8.57049   86.20540   87.22489   88.38939    2.81800   24.69902    0.06195    3.15513   52.05296    3.12328    8.50000 74000.00000
 1069.00000    8.57214   82.56346   83.36543   84.66609    2.82325   24.52165    0.06360    3.15158   52.40792    3.04926    8.50000 74000.00000
 1069.10000    8.57460   86.66179   87.37111   88.68881    2.82396   25.30448    0.06393    3.15425   52.39488    3.06424    8.50000 74000.00000
 1069.20000    8.57559   86.22647   86.87578   88.19394    2.82557   25.83566    0.06621    3.14360   52.62719    2.75308    8.50000 74000.00000
 1069.30000    8.57792   89.88485   89.78709   91.29464    2.82125   26.78573    0.06650    3.14565   52.83206    2.57426    8.50000 74000.00000
 1069.40000    8.57779   87.13366   86.90453   88.32503    2.82794   26.87845    0.06616    3.15050   52.91850    2.55406    8.50000 74000.00000
 1069.50000    8.57793   68.88478   69.15987   68.99277    2.82626   26.35492    0.06495    3.14451   52.84595    2.61389    8.50000 74000.00000
 1069.60000    8.57976   69.04349   68.72633   68.87587    2.82612   26.44079    0.06478    3.14933   52.70145    2.54361    8.50000 74000.00000
 1069.70000    8.58129   87.11851   83.80265   84.88082    2.82776   26.44206    0.06638    3.15629   52.90834    2.53591    8.50000 74000.00000
 1069.80000    8.58160   90.13287   86.72222   88.34359    2.82784   26.12836    0.06670    3.14453   52.92411    2.16943    8.50000 74000.00000
 1069.90000    8.58326   91.29786   87.69487   89.16121    2.82611   25.60605    0.06574    3.14139   53.27582    2.33086    8.50000 74000.00000
 1070.00000    8.58524   96.63457   92.14197   93.50751    2.82854   25.58036    0.06330    3.13312   53.28705    2.15937    8.50000 74000.00000
 1070.10000    8.58268   94.30058   90.14145   91.55117    2.82805   26.00294    0.06324    3.12271   53.38486    2.50820    8.50000 74000.00000
 1070.20000    8.58437   90.32895   86.91659   88.27253    2.82827   26.41180    0.06188    3.12399   53.18180    2.71560    8.50000 74000.00000
 1070.30000    8.58309   82.42853   77.49954   79.43329    2.82662   25.78858    0.06339    3.13049   53.42308    3.02319    8.50000 74000.00000
 1070.40000    8.58193   80.76430   75.67102   77.62428    2.82681   25.77415    0.06154    3.13105   53.32931    2.92362    8.50000 74000.00000
 1070.50000    8.58520   88.74044   83.23239   85.09394    2.82209   25.60845    0.06101    3.12271   52.86477    2.76110    8.50000 74000.00000
 1070.60000    8.58449   97.26402   89.98184   91.84315    2.82169   24.91935    0.06181    3.11393   52.69022    2.91589    8.50000 74000.00000
 1070.70000    8.58740   96.50434   89.50523   91.15525    2.82443   25.11040    0.06184    3.10945   52.64327    2.79807    8.50000 74000.00000
 1070.80000    8.58925   97.40090   90.32301   91.98393    2.82527   25.19168    0.06190    3.12554   52.50797    2.59427    8.50000 74000.00000
 1070.90000    8.58952   96.33503   89.67599   91.27423    2.82307   24.21554    0.06326    3.12245   52.22549    2.42347    8.50000 74000.00000
 1071.00000    8.59119   96.71210   89.65342   91.41565    2.81933   25.14195    0.06263    3.12530   52.06147    2.68835    8.50000 74000.00000
 1071.10000    8.58814   97.00615   89.88028   91.68517    2.81986   25.31399    0.06160    3.12718   52.05899    2.31036    8.50000 74000.00000
 1071.20000    8.58545   93.19191   86.17906   88.02739    2.81993   25.10990    0.05992    3.11607   51.82791    2.63530    8.50000 74000.00000
 1071.30000    8.58587   96.82628   90.20921   91.90908    2.81770   25.02583    0.05946    3.12086   51.72800    3.16675    8.50000 74000.00000
 1071.40000    8.58206  116.09331  108.71023  110.63726    2.82068   24.49826    0.05675    3.12231   51.73315    3.12819    8.50000 74000.00000
 1071.50000    8.58123  119.18630  111.47693  113.26706    2.82008   24.38371    0.05597    3.13884   51.90542    2.74194    8.50000 74000.00000
 1071.60000    8.58398  128.69413  121.23497  123.49796    2.81719   25.22702    0.05819    3.14896   51.83102    2.45683    8.50000 74000.00000
 1071.70000    8.58231  129.00643  121.33927  123.32917    2.81616   25.67443    0.05907    3.15032   51.85729    2.66728    8.50000 74000.00000
 1071.80000    8.58066  111.35361  107.28673  108.01659    2.81098   25.28252    0.05873    3.13784   51.65522    2.66497    8.50000 74000.00000
 1071.90000    8.58273  103.54384  101.33445  101.25232    2.81472   25.84471    0.06064    3.13951   51.66302    2.54285    8.50000 74000.00000
 1072.00000    8.58283  101.83237   99.76664   99.81950    2.81488   26.02115    0.05971    3.14313   51.49587    2.45081    8.50000 74000.00000
 1072.10000    8.58125  100.26988   98.94574   99.17566    2.81202   26.20813    0.06003    3.14328   51.49278    2.47807    8.50000 74000.00000
 1072.20000    8.58458  100.25639   98.88373   99.09652    2.80816   26.09302    0.06015    3.14334   51.22337    2.39606    8.50000 74000.00000
 1072.30000    8.58273  100.61402   99.48823   99.48530    2.80547   26.17203    0.06164    3.14668   51.42162    2.00971    8.50000 74000.00000
 1072.40000    8.58436  104.52254  103.45006  102.95252    2.80411   26.72687    0.06144    3.13924   51.29750    2.01237    8.50000 74000.00000
 1072.50000    8.58658  109.95552  108.03752  107.59107    2.80379   26.84576    0.06280    3.13501   51.28604    2.14799    8.50000 74000.00000
 1072.60000    8.58627  105.35754  102.97361  102.71506    2.80705   27.12714    0.06214    3.14038   51.29242    1.96413    8.50000 74000.00000
 1072.70000    8.58590   95.38434   93.31490   93.02121    2.81089   27.53820    0.06274    3.14022   51.35621    2.12511    8.50000 74000.00000
